[{"slat":"41.7884","slon":"19.8702","elat":"42.0686","elon":"20.3294","road_type_name":"Mountainous","road_type_id":"4","length":"115","title":"Kukes - Fushe Arre - Reshan","rating":"4","comments_count":"1","is_long":"0","simplified_polyline":"ex`~Fe|gxBs~@mo@ywAktIogAeTczEa_IewAfKsvAidBeh@zd@w{@ycAc]hjAabA}]yWrw@ipB}eD}g@zp@a|C}Eg}BvyBsf@gg@}_Cxx@m{@sdA}kCnh@tR{n@}a@xH{bC{sFzAozAmwAqsCs_AqnFtd@ceCaaAgq@nyApQfAusA_`@nAblBiAwjCe}F~d@qu@e{@ktBdj@ud@eX}tAhbA|V}d@kf@zd@c{Bfy@_D}g@wdDnvAmpArn@hcBz`@m~BsrAywAh^_c@","polyline":"ex`~Fe|gxBs~@mo@ywAktIogAeTczEa_IewAfKsvAidBeh@zd@w{@ycAc]hjAabA}]yWrw@ipB}eD}g@zp@a|C}Eg}BvyBsf@gg@}_Cxx@m{@sdA}kCnh@tR{n@}a@xH{bC{sFzAozAmwAqsCs_AqnFtd@ceCaaAgq@nyApQfAusA_`@nAblBiAwjCe}F~d@qu@e{@ktBdj@ud@eX}tAhbA|V}d@kf@zd@c{Bfy@_D}g@wdDnvAmpArn@hcBz`@m~BsrAywAh^_c@","url":"/motorcycle-roads/albania/albania/ride/kukes-fushe-arre-reshan"},{"slat":"42.4275","slon":"19.8725","elat":"42.3921","elon":"20.0714","road_type_name":"Mountainous","road_type_id":"4","length":"22","title":"Valbona National Park","rating":"4.5","comments_count":"2","is_long":"0","simplified_polyline":"{s}aGmghxBwwC{lBgo@o_GxxBezDhi@e}DpaFo_J|a@}uC","polyline":"{s}aGmghxBwwC{lBgo@o_GxxBezDhi@e}DpaFo_J|a@}uC","url":"/motorcycle-roads/albania/albania/ride/valbona-national-park"},{"slat":"41.7843","slon":"19.8671","elat":"42.0777","elon":"20.3983","road_type_name":"Mountainous","road_type_id":"4","length":"66","title":"Highway to Kukes","rating":"5","comments_count":"1","is_long":"0","simplified_polyline":"ya`~FedgxB{vAmnC}DgoDe|AsyDejEmeEa~A{wDql@}rCzSmgDgiCqcE{@_wCo}Ae[axJocM}oAqJ{uBwaCqqDwaNepBc}BirB{`@}Nsy@xo@{x@kwA`Ee]qiEobAax@|q@}cC","polyline":"ya`~FedgxB{vAmnC}DgoDe|AsyDejEmeEa~A{wDql@}rCzSmgDgiCqcE{@_wCo}Ae[axJocM}oAqJ{uBwaCqqDwaNepBc}BirB{`@}Nsy@xo@{x@kwA`Ee]qiEobAax@|q@}cC","url":"/motorcycle-roads/albania/albania/ride/highway-to-kukes"},{"slat":"42.2249","slon":"19.4701","elat":"42.4014","elon":"19.7645","road_type_name":"Mountainous","road_type_id":"4","length":"52","title":"Koplik to Theth, Albania","rating":"5","comments_count":"1","is_long":"0","simplified_polyline":"ocv`GsvyuBqiGwnDmvEatGe|FqyP{{FwBgcB_vAdTkqKfa@xg@pj@ysGaUk~@qQlbAaqAxLtJuhB","polyline":"ocv`GsvyuBqiGwnDmvEatGe|FqyP{{FwBgcB_vAdTkqKfa@xg@pj@ysGaUk~@qQlbAaqAxLtJuhB","url":"/motorcycle-roads/albania/albania/ride/koplik-to-theth-albania"},{"slat":"42.2651","slon":"20.0126","elat":"42.3865","elon":"20.1532","road_type_name":"Rural","road_type_id":"1","length":"22","title":"From Tropeje to Komani Lake Ferry Terminal","rating":"3","comments_count":"1","is_long":"0","simplified_polyline":"a_~`GqrcyBwMs~@_|Dgi@o_E{yImcHwnFebAw{D","polyline":"a_~`GqrcyBwMs~@_|Dgi@o_E{yImcHwnFebAw{D","url":"/motorcycle-roads/albania/albania/ride/from-tropeje-to-komani-lake-ferry-terminal"},{"slat":"42.2564","slon":"20.3708","elat":"42.3682","elon":"20.12","road_type_name":"Rural","road_type_id":"1","length":"50","title":"Kukes - Tropoje stage 2","rating":"4","comments_count":"1","is_long":"0","simplified_polyline":"ue|`Goti{Bsc@~qAnxBx{EgXnmAch@kGpgBfcF}LliAeiByu@zf@`pJotAa`AgpDru@{oBrnBsLxlDaaAfh@_b@{xAsu@^_s@~jHg\\vU{n@it@_bAhnA","polyline":"ue|`Goti{Bsc@~qAnxBx{EgXnmAch@kGpgBfcF}LliAeiByu@zf@`pJotAa`AgpDru@{oBrnBsLxlDaaAfh@_b@{xAsu@^_s@~jHg\\vU{n@it@_bAhnA","url":"/motorcycle-roads/albania/albania/ride/kukes-tropoje-stage-2"},{"slat":"40.8802","slon":"20.1833","elat":"41.1116","elon":"20.0825","road_type_name":"Rural","road_type_id":"1","length":"42","title":"From Libonik To Elbasan 4th","rating":"3","comments_count":"1","is_long":"0","simplified_polyline":"wkoxFe`ezBu{C`mDyaAxfDgzFpnEukFxpMmr@B_hCf`EytByjD_}@uvEikE{lAyx@ovBkgBxD","polyline":"wkoxFe`ezBu{C`mDyaAxfDgzFpnEukFxpMmr@B_hCf`EytByjD_}@uvEikE{lAyx@ovBkgBxD","url":"/motorcycle-roads/albania/albania/ride/from-libonik-to-elbasan-4th"},{"slat":"40.8782","slon":"20.184","elat":"40.691","elon":"20.4528","road_type_name":"Mountainous","road_type_id":"4","length":"43","title":"SH71 : Libonik - Elbasan 3rd","rating":"5","comments_count":"1","is_long":"0","simplified_polyline":"}`oxFejezB~lE_OxgBk_BrnG{bQ`cAs\\hY{jCjbBfAdWslA~zAjMr~BkjAdhAqhGm_@s}CfmBm{F","polyline":"}`oxFejezB~lE_OxgBk_BrnG{bQ`cAs\\hY{jCjbBfAdWslA~zAjMr~BkjAdhAqhGm_@s}CfmBm{F","url":"/motorcycle-roads/albania/albania/ride/sh71-libonik-elbasan-3rd"},{"slat":"40.7055","slon":"20.7055","elat":"40.7368","elon":"20.5735","road_type_name":"Rural","road_type_id":"1","length":"15","title":"From Libonik To Elbasan 1th","rating":"2","comments_count":"1","is_long":"0","simplified_polyline":"gimwF{_k}B_dBx{DvNjrBigAryA~d@f`AslAfiJ","polyline":"gimwF{_k}B_dBx{DvNjrBigAryA~d@f`AslAfiJ","url":"/motorcycle-roads/albania/albania/ride/from-libonik-to-elbasan-1th"},{"slat":"40.7332","slon":"20.5648","elat":"40.6903","elon":"20.4551","road_type_name":"Rural","road_type_id":"1","length":"13","title":"Libonik - Elbasan","rating":"4","comments_count":"1","is_long":"0","simplified_polyline":"kurwFkno|B|mAprErrDliDrFfjH","polyline":"kurwFkno|B|mAprErrDliDrFfjH","url":"/motorcycle-roads/albania/albania/ride/libonik-to-elbasan"},{"slat":"42.2575","slon":"20.3662","elat":"42.3981","elon":"20.1646","road_type_name":"Rural","road_type_id":"1","length":"56","title":"From Golaj to Tropoje","rating":"4","comments_count":"1","is_long":"0","simplified_polyline":"{m|`Gsyh{BcEraCdbB~qCuX`mA{g@aHrgBz`FyLflAeiByu@jg@tnJ{wCw_Au}EbeDyi@dfEid@`Pcb@{xAev@n@kiAh`I{o@ut@qgBfpAw~@k~Di}AioA","polyline":"{m|`Gsyh{BcEraCdbB~qCuX`mA{g@aHrgBz`FyLflAeiByu@jg@tnJ{wCw_Au}EbeDyi@dfEid@`Pcb@{xAev@n@kiAh`I{o@ut@qgBfpAw~@k~Di}AioA","url":"/motorcycle-roads/albania/albania/ride/from-golaj-to-tropoje"},{"slat":"42.0923","slon":"20.4211","elat":"42.2518","elon":"20.3726","road_type_name":"Rural","road_type_id":"1","length":"37","title":"From Kukes to Gulaj","rating":"4","comments_count":"1","is_long":"0","simplified_polyline":"ee|_Gkls{BadAn[`PjfG_fBlhAdZfwAmj@tmA}yAk`AwxC{zGmoAvjAqqAaa@{k@ykD}cCjuAaoAmUm|CxvD","polyline":"ee|_Gkls{BadAn[`PjfG_fBlhAdZfwAmj@tmA}yAk`AwxC{zGmoAvjAqqAaa@{k@ykD}cCjuAaoAmUm|CxvD","url":"/motorcycle-roads/albania/albania/ride/from-kukes-to-gulaj"},{"slat":"42.061","slon":"20.4241","elat":"42.0757","elon":"20.3689","road_type_name":"Mountainous","road_type_id":"4","length":"248","title":"North west Albania","rating":"4","comments_count":"1","is_long":"1","simplified_polyline":"{~u_Gi_t{B|mKbn@pDve@bc@cY`Tpq@dhBpO`qAp_BfeBgd@lfAr|@~`AkUz[ovA~hAdCfl@_dBvbDiS{P}aA`tBeh@l_B_lCzfBoVoU`sDjtBdw@dc@fkEhb@wd@~`AbwAbqAyN|_@vf@n^ogAxx@puAvwBm@p{@nq@lbDuiDvbAcpFt}@hY`lB}hCnsChKr[st@~g@rPhwE}zBnm@txGznIl{@jv@fvAfe@rwFid@t{Dj|@v{Du{@hmGbnCzeKjnAlu@jsAzjIsdCjzGygBb`AwaA{WglBrnAss@rsB}kDz`@_kBptDanAay@}cBbPuxEp~Buj@lcBgzAzi@aNai@kZnmAujGb|@aL}]w^ry@_aB}[bRf`Gym@dTu\\z~DarCdzFu~BmkEqD{nDk{A}vDciE_dEc_BiyDql@}rCzSmgDgiCqcE{@_wCsaB{^_uJ{`MipAmJerBy}BavDshNcoBezBarBsa@oMoy@|t@}m@cwAhFeg@g{E","polyline":"{~u_Gi_t{B|mKbn@pDve@bc@cY`Tpq@dhBpO`qAp_BfeBgd@lfAr|@~`AkUz[ovA~hAdCfl@_dBvbDiS{P}aA`tBeh@l_B_lCzfBoVoU`sDjtBdw@dc@fkEhb@wd@~`AbwAbqAyN|_@vf@n^ogAxx@puAvwBm@p{@nq@lbDuiDvbAcpFt}@hY`lB}hCnsChKr[st@~g@rPhwE}zBnm@txGznIl{@jv@fvAfe@rwFid@t{Dj|@v{Du{@hmGbnCzeKjnAlu@jsAzjIsdCjzGygBb`AwaA{WglBrnAss@rsB}kDz`@_kBptDanAay@}cBbPuxEp~Buj@lcBgzAzi@aNai@kZnmAujGb|@aL}]w^ry@_aB}[bRf`Gym@dTu\\z~DarCdzFu~BmkEqD{nDk{A}vDciE_dEc_BiyDql@}rCzSmgDgiCqcE{@_wCsaB{^_uJ{`MipAmJerBy}BavDshNcoBezBarBsa@oMoy@|t@}m@cwAhFeg@g{E","url":"/motorcycle-roads/albania/albania/ride/north-west-albania"},{"slat":"42.6548","slon":"21.1591","elat":"42.251","elon":"19.4272","road_type_name":"Mountainous","road_type_id":"4","length":"251","title":"North Albania : Peja - Shkodër","rating":"4","comments_count":"1","is_long":"1","simplified_polyline":"muvbGidz}BouFdjXfR|gSsbKfj\\wPh{L{zCv~@s`GseAupAppAmsAxFt@bbA}u@jRdg@pf@gkAbQjb@nK{xBn{Bii@xuGe{@bd@qp@gh@cd@l~Ak_AvH|g@fsBmo@pa@bhBft@q}Ed_Azq@hdDefAdzAsfApjHxwCd}L_j@pb@dM`yIokAtdIkiAty@|Cv{AhsDfL~cE`aEldAeIptBtmBfR|kBdrChsBrj@i_AjlAeFq\\ciAt\\xhAw_AcXjRamDlaBaoAbcAll@`z@yVdxCiyEz`Bm}HzrAmcAhyDze@fkCvaC~_BpfHizA~gNdHrjEluEv_DfhBbVmn@ngC`n@zeHnaDjyEyMlcBpz@lbBf}BwCl~Ah`Cvx@|B~dApaCjyAfi@jSfaCfrAtPsu@vd@`[jp@z`@{t@rp@ju@x}BvGtsAveDmd@flBnjFl`B|aGweApxGh{B","polyline":"muvbGidz}BouFdjXfR|gSsbKfj\\wPh{L{zCv~@s`GseAupAppAmsAxFt@bbA}u@jRdg@pf@gkAbQjb@nK{xBn{Bii@xuGe{@bd@qp@gh@cd@l~Ak_AvH|g@fsBmo@pa@bhBft@q}Ed_Azq@hdDefAdzAsfApjHxwCd}L_j@pb@dM`yIokAtdIkiAty@|Cv{AhsDfL~cE`aEldAeIptBtmBfR|kBdrChsBrj@i_AjlAeFq\\ciAt\\xhAw_AcXjRamDlaBaoAbcAll@`z@yVdxCiyEz`Bm}HzrAmcAhyDze@fkCvaC~_BpfHizA~gNdHrjEluEv_DfhBbVmn@ngC`n@zeHnaDjyEyMlcBpz@lbBf}BwCl~Ah`Cvx@|B~dApaCjyAfi@jSfaCfrAtPsu@vd@`[jp@z`@{t@rp@ju@x}BvGtsAveDmd@flBnjFl`B|aGweApxGh{B","url":"/motorcycle-roads/serbia/vojvodina/ride/north-albania-peja-shkoder"},{"slat":"42.6594","slon":"21.1603","elat":"42.0617","elon":"20.449","road_type_name":"Rural","road_type_id":"1","length":"281","title":"Prishtina to Valbona and back through Kukes","rating":"4","comments_count":"2","is_long":"1","simplified_polyline":"_qibGsas}BrpEjfDfm@`iCeUtiEb|FppAnrFzlDx|Bx{Omz@jmKg~Av}Ejh@l~Bak@~{F|k@vtByzBz_JcuAt_BwBlfImv@xtAlaDfoH~SpiFnzIvlIucKrYafDdfLohBppBymDtyL|y@d~DrhCjfBshCkfBmn@acGnxB_xDxh@y{DlcFmcJbk@isDzlE_@h`@_k@zAv_@lnCyDraBjkEhs@`@xHvmA~iAx~@`yFkn@ti@qaCrbAqe@~FklDjz@ckAht@~iCpNafDhnA~Abh@feAyt@gfHtv@mx@pbBfsBlAmvDl|Ajb@i_@cxAn{@ieAzpBjnB}ApsAfiAjRzFleDr`@gQdd@juB|PmpA`oAhGbVwlCq~@c}@duAb]`CcsAe`@vCplBsCqgCe|Fna@qs@}t@ygEzKei@taAtVyc@my@tc@uhB|x@cCsk@izCjd@ucAdt@gVvo@`cBp`@i~BepAwrA`Ei|Cu^pE}t@}xDz`Azs@nd@rvEmUazC_pA_sBxvAgcHtpAkq@eRclB","polyline":"_qibGsas}BrpEjfDfm@`iCeUtiEb|FppAnrFzlDx|Bx{Omz@jmKg~Av}Ejh@l~Bak@~{F|k@vtByzBz_JcuAt_BwBlfImv@xtAlaDfoH~SpiFnzIvlIucKrYafDdfLohBppBymDtyL|y@d~DrhCjfBshCkfBmn@acGnxB_xDxh@y{DlcFmcJbk@isDzlE_@h`@_k@zAv_@lnCyDraBjkEhs@`@xHvmA~iAx~@`yFkn@ti@qaCrbAqe@~FklDjz@ckAht@~iCpNafDhnA~Abh@feAyt@gfHtv@mx@pbBfsBlAmvDl|Ajb@i_@cxAn{@ieAzpBjnB}ApsAfiAjRzFleDr`@gQdd@juB|PmpA`oAhGbVwlCq~@c}@duAb]`CcsAe`@vCplBsCqgCe|Fna@qs@}t@ygEzKei@taAtVyc@my@tc@uhB|x@cCsk@izCjd@ucAdt@gVvo@`cBp`@i~BepAwrA`Ei|Cu^pE}t@}xDz`Azs@nd@rvEmUazC_pA_sBxvAgcHtpAkq@eRclB","url":"/motorcycle-roads/serbia/kosovo-and-metohija/ride/prishtina-to-valbona-and-back-through-kukes"},{"slat":"41.2919","slon":"19.8509","elat":"41.0237","elon":"19.6564","road_type_name":"Cruiser","road_type_id":"8","length":"760","title":"Trip From Tirana to Meteora","rating":"4","comments_count":"1","is_long":"1","simplified_polyline":"}x_{FwgdxB`pA}Rto@n{Abm@yUbVqrG|fDkxFpvAgu@zdDkpIv}OavEvj@m|@og@_fIqdBeeBir@czDu}DwbG{[qgLc~BawD{Vc{BhbFwwNxhBg|@j@sqAtbFenH|~Cy_CBo`Ht~@ypBs_AohJry@mSqDomBsjCxLsbF{dCugFym@meCelExbA}gJtaA}zCb{DefDhb@ikF}uHajCrH_}BohCekBwy@qhDvsB}pHl{CrNjIgtEj}BuhCj`H}i@biCufCng@gkB_t@ok@ln@{zJ}c@cjC`u@u{A}j@_|B_Cs~KfhFamMhk@bPtMwbDpcDutFlgIkrE~~Eai@tjC}zBnhD_bIjoJo|H`mGa~KzsCvMjyBylElz@nW|bD{pAhhDqsLreVaP|tDzdC~gD`i@hxCo{AtyAigE`jB_]~pByqBhgAunDpqBcdAjvCkBbWztAjaC|tBbdAxnKzvIzaMroGbhSpmAnm@~jBmVjhAnyBf|DfuAhyBnoD|bHvtBp}@hhAgGiaFbcBaF`DsoA`lDoFhrDe`C|z@tFfaGokMd}Kj_BzkEsjAvrBpdAhP{jGbmI{qJ|rGhaBxg@xkEc}AtsExRnmBm~ApzDlUbjAizApsCwP|zCemDzwFc@hpIoaEd|GplBzd@daAdlBq^rl@h|@ldB{]vvCx`BlqA|oBplKfRjvH{~@pnFhbH|rNr@fqDjjAx|B|jInfA|tAqm@|x@bWxxDrvFg`@vrH~j@dcA_aDvH_~@tvCabCfo@mpCvuC{~AgiBe_E`wFqmDrFs}B~wDyoMhvLyqG`gJiZnmMwrAtiGb`@bqSydAb~Gbi@boBefAdmAicBdiH_sSntRaqCfZmxFjkHicMbaHyy@nEskBsxAwiDvg@whKjhKmfC|p@oqFndGmkAzfKyuAvZs}B|zFkiGdcBixDcYyfChpAe`CvgFbi@vmG__ClfDykD~eNseAts@kc@rbCglClyBnCfpDudBpsHy{Gj`FcbBdu@ynA}{AelAyqF{gCakBah@saCaxEee@mwJ_zEmiRkwOaqBduBoqBoU{pCpfBowGxaA","polyline":"}x_{FwgdxB`pA}Rto@n{Abm@yUbVqrG|fDkxFpvAgu@zdDkpIv}OavEvj@m|@og@_fIqdBeeBir@czDu}DwbG{[qgLc~BawD{Vc{BhbFwwNxhBg|@j@sqAtbFenH|~Cy_CBo`Ht~@ypBs_AohJry@mSqDomBsjCxLsbF{dCugFym@meCelExbA}gJtaA}zCb{DefDhb@ikF}uHajCrH_}BohCekBwy@qhDvsB}pHl{CrNjIgtEj}BuhCj`H}i@biCufCng@gkB_t@ok@ln@{zJ}c@cjC`u@u{A}j@_|B_Cs~KfhFamMhk@bPtMwbDpcDutFlgIkrE~~Eai@tjC}zBnhD_bIjoJo|H`mGa~KzsCvMjyBylElz@nW|bD{pAhhDqsLreVaP|tDzdC~gD`i@hxCo{AtyAigE`jB_]~pByqBhgAunDpqBcdAjvCkBbWztAjaC|tBbdAxnKzvIzaMroGbhSpmAnm@~jBmVjhAnyBf|DfuAhyBnoD|bHvtBp}@hhAgGiaFbcBaF`DsoA`lDoFhrDe`C|z@tFfaGokMd}Kj_BzkEsjAvrBpdAhP{jGbmI{qJ|rGhaBxg@xkEc}AtsExRnmBm~ApzDlUbjAizApsCwP|zCemDzwFc@hpIoaEd|GplBzd@daAdlBq^rl@h|@ldB{]vvCx`BlqA|oBplKfRjvH{~@pnFhbH|rNr@fqDjjAx|B|jInfA|tAqm@|x@bWxxDrvFg`@vrH~j@dcA_aDvH_~@tvCabCfo@mpCvuC{~AgiBe_E`wFqmDrFs}B~wDyoMhvLyqG`gJiZnmMwrAtiGb`@bqSydAb~Gbi@boBefAdmAicBdiH_sSntRaqCfZmxFjkHicMbaHyy@nEskBsxAwiDvg@whKjhKmfC|p@oqFndGmkAzfKyuAvZs}B|zFkiGdcBixDcYyfChpAe`CvgFbi@vmG__ClfDykD~eNseAts@kc@rbCglClyBnCfpDudBpsHy{Gj`FcbBdu@ynA}{AelAyqF{gCakBah@saCaxEee@mwJ_zEmiRkwOaqBduBoqBoU{pCpfBowGxaA","url":"/motorcycle-roads/albania/albania/ride/trip-from-tirana-to-meteora"},{"slat":"41.2934","slon":"19.8497","elat":"40.6012","elon":"19.5606","road_type_name":"Rural","road_type_id":"1","length":"395","title":"South-East Albania (Fields And Mountains)","rating":"4","comments_count":"1","is_long":"1","simplified_polyline":"ug`{FwvcxB|}Agd@dp@r{Ark@}RrUcpGxiDe~FxvAqu@t`DelI`jQsjGmeAgaHfa@ql@arI_wOya@{wL}~BcxDaVazBldFo{NleBcv@TmqA~cFipHz~Ck~BVqaHn_AyiBs`AsrJ|y@oP{QewFl`KmOdcEshAllI|SzvBwrAngEugGd`AnJduDsfGvhB{LxcCxhCfeGqNdfExeAjiIylDv|FoaFzbCkWliCbu@t~BhiEhqGbtErw@rdBlE{e@jzCrwBh^sk@zaCnlBdyDyxAh}AmmCfyKdo@bvEvuCmNtwAdm@`iA|x@~Cje@frAv`@cTl}Bf{Dl_ConF`{Bk_BiJmp@tkAjbBeDprAxdAsVna@m_BvpA~A|pEhmEuDltB{fBpuCjlBbw@~k@go@wd@jhApoEttCghCtzEid@eGoJzcBkfBve@gO|zAkqEnpEwr@ttBv^j}ByaGzcGonLfl^bbB|sD_f@djD~CzdCxn@dt@kRpcCrtB`gC`HxqAt~Bia@osEjoEsjCls@_sFhfGchAtbKouAvZk_Cb}FyiGtbBmvDoYmjCnsAm}BzdFbi@vmG__ClfDkgDz~MqhAzw@{d@peCglClyBke@tvG","polyline":"ug`{FwvcxB|}Agd@dp@r{Ark@}RrUcpGxiDe~FxvAqu@t`DelI`jQsjGmeAgaHfa@ql@arI_wOya@{wL}~BcxDaVazBldFo{NleBcv@TmqA~cFipHz~Ck~BVqaHn_AyiBs`AsrJ|y@oP{QewFl`KmOdcEshAllI|SzvBwrAngEugGd`AnJduDsfGvhB{LxcCxhCfeGqNdfExeAjiIylDv|FoaFzbCkWliCbu@t~BhiEhqGbtErw@rdBlE{e@jzCrwBh^sk@zaCnlBdyDyxAh}AmmCfyKdo@bvEvuCmNtwAdm@`iA|x@~Cje@frAv`@cTl}Bf{Dl_ConF`{Bk_BiJmp@tkAjbBeDprAxdAsVna@m_BvpA~A|pEhmEuDltB{fBpuCjlBbw@~k@go@wd@jhApoEttCghCtzEid@eGoJzcBkfBve@gO|zAkqEnpEwr@ttBv^j}ByaGzcGonLfl^bbB|sD_f@djD~CzdCxn@dt@kRpcCrtB`gC`HxqAt~Bia@osEjoEsjCls@_sFhfGchAtbKouAvZk_Cb}FyiGtbBmvDoYmjCnsAm}BzdFbi@vmG__ClfDkgDz~MqhAzw@{d@peCglClyBke@tvG","url":"/motorcycle-roads/albania/albania/ride/south-east-albania-fields-and-mountains"},{"slat":"40.2776","slon":"20.2842","elat":"40.211","elon":"20.4126","road_type_name":"Trail","road_type_id":"6","length":"67","title":"Frasheri-Runde","rating":"5","comments_count":"1","is_long":"0","simplified_polyline":"cxytF}uxzB_sAajCedH{aFxj@q^ae@ytAtp@uUkmAiz@oEa{Cy`D_r@rUkpBtpBg_@r`AujBtN~w@dkAuLf|A}uDvt@jPfdB}uAboBzdBzpC~N_r@px@dp@``E`bCxcBvx@se@","polyline":"cxytF}uxzB_sAajCedH{aFxj@q^ae@ytAtp@uUkmAiz@oEa{Cy`D_r@rUkpBtpBg_@r`AujBtN~w@dkAuLf|A}uDvt@jPfdB}uAboBzdBzpC~N_r@px@dp@``E`bCxcBvx@se@","url":"/motorcycle-roads/albania/albania/ride/frasheri-runde"},{"slat":"41.6817","slon":"20.3324","elat":"41.9539","elon":"20.3983","road_type_name":"Gravel","road_type_id":"7","length":"57","title":"Peshkopi - Kukes - the bad road","rating":"4","comments_count":"1","is_long":"0","simplified_polyline":"g}k}Fqdb{By~@de@usBqV_v@hp@wlAwo@ob@dsDkc@qnBwzE}qB_gCfd@k}Au_Ckw@gCqz@hnBqiI|bB`D}dBcZxa@yoAeoAyq@}rB{vArXy`B_z@njBytBo_Ean@","polyline":"g}k}Fqdb{By~@de@usBqV_v@hp@wlAwo@ob@dsDkc@qnBwzE}qB_gCfd@k}Au_Ckw@gCqz@hnBqiI|bB`D}dBcZxa@yoAeoAyq@}rB{vArXy`B_z@njBytBo_Ean@","url":"/motorcycle-roads/albania/albania/ride/peshkopi-kukes-the-bad-road"},{"slat":"40.541","slon":"20.7213","elat":"40.2705","elon":"20.0565","road_type_name":"Off Road","road_type_id":"9","length":"153","title":"Korce - Leskovik - Tepelene","rating":"3","comments_count":"1","is_long":"0","simplified_polyline":"mfmvF_`n}BtpEv}ElDef@bxCdwBt`@el@vcCfnBnyDyyA~{AemCtuKlm@`yErvCqNjwA`m@tiA~x@fDbd@brAbb@mSvyBb{D`bConF||B}_ByJmo@vkA`aBqGhtAjgAwV`f@oeBxgCn_@xuCtsDiD~uB_gBfuChlBnw@bl@io@ed@`iAtoEfjC{hCldFwd@wFgIvaBmiBbj@iNryAenE`lEst@vwBv^j}ByaGzcGinL|j^|aBfuD_f@djDdDreCrn@ls@kRpcCnuBnhCdGjpA|n@eh@","polyline":"mfmvF_`n}BtpEv}ElDef@bxCdwBt`@el@vcCfnBnyDyyA~{AemCtuKlm@`yErvCqNjwA`m@tiA~x@fDbd@brAbb@mSvyBb{D`bConF||B}_ByJmo@vkA`aBqGhtAjgAwV`f@oeBxgCn_@xuCtsDiD~uB_gBfuChlBnw@bl@io@ed@`iAtoEfjC{hCldFwd@wFgIvaBmiBbj@iNryAenE`lEst@vwBv^j}ByaGzcGinL|j^|aBfuD_f@djDdDreCrn@ls@kRpcCnuBnhCdGjpA|n@eh@","url":"/motorcycle-roads/albania/albania/ride/korce-leskovik-tepelene"},{"slat":"39.8735","slon":"20.0322","elat":"39.9408","elon":"20.2686","road_type_name":"Rural","road_type_id":"1","length":"32","title":"Saranda - Jorgucat","rating":"5","comments_count":"1","is_long":"0","simplified_polyline":"cxjrF}ogyBcm@aShEesB}wDadFpDerE_wAcqFtcAemDa}@knAyqAsJ}sAerFbn@_vC","polyline":"cxjrF}ogyBcm@aShEesB}wDadFpDerE_wAcqFtcAemDa}@knAyqAsJ}sAerFbn@_vC","url":"/motorcycle-roads/albania/albania/ride/saranda-jorgucat"},{"slat":"40.2491","slon":"19.543","elat":"40.158","elon":"19.6312","road_type_name":"Mountainous","road_type_id":"4","length":"25","title":"Park Kombetar route near Himare","rating":"5","comments_count":"1","is_long":"0","simplified_polyline":"udttF_`hvBdeBqyAdRk_CxwB}DtfBoiC~`@|JgQ_rAxg@fzBgFqhBne@v^ZvoAtgCysF","polyline":"udttF_`hvBdeBqyAdRk_CxwB}DtfBoiC~`@|JgQ_rAxg@fzBgFqhBne@v^ZvoAtgCysF","url":"/motorcycle-roads/albania/albania/ride/park-kombetar-route-near-himare"},{"slat":"42.2574","slon":"20.0338","elat":"42.0996","elon":"20.1133","road_type_name":"Mountainous","road_type_id":"4","length":"58","title":"Fierze - Fleti","rating":"5","comments_count":"2","is_long":"0","simplified_polyline":"wl|`Gw{gyBb~@wAfVapBbcAqf@zEgjDrx@mmAtv@dkCpOagDjkAVpk@lhAeEsrE{o@esAnu@yx@bcBptBK_qDt`Bb\\sHspC|{@kHzxA`jB{D|rAdlA~RxEphDx`@yUve@jxB|SwuAl`AhJ","polyline":"wl|`Gw{gyBb~@wAfVapBbcAqf@zEgjDrx@mmAtv@dkCpOagDjkAVpk@lhAeEsrE{o@esAnu@yx@bcBptBK_qDt`Bb\\sHspC|{@kHzxA`jB{D|rAdlA~RxEphDx`@yUve@jxB|SwuAl`AhJ","url":"/motorcycle-roads/albania/albania/ride/fierze-fleti"},{"slat":"39.7229","slon":"20.0566","elat":"39.6574","elon":"20.1606","road_type_name":"Rural","road_type_id":"1","length":"14","title":"Konispol Bundrit (wooden ferry)","rating":"4","comments_count":"1","is_long":"0","simplified_polyline":"slmqF}flyBa@ovA`eHioLfn@idD`eA`a@","polyline":"slmqF}flyBa@ovA`eHioLfn@idD`eA`a@","url":"/motorcycle-roads/albania/albania/ride/konispol-bundrit-wooden-ferry"},{"slat":"41.6828","slon":"20.4298","elat":"42.0801","elon":"20.4232","road_type_name":"Mountainous","road_type_id":"4","length":"81","title":"Perhkopi - Kukes","rating":"3.5","comments_count":"4","is_long":"0","simplified_polyline":"edl}Foeu{BmpAjaEmcDniDez@wr@{wBfB{w@ovAo_@rgAa`@mq@iqAfY}aAkwA}`@ve@yc@mlEetB_u@rUgtDs{B|g@qk@tzAn\\}_@_JheD{|AtyAy}@gMlz@u|A}tExj@km@vcBshAmCw[pvAsuAdY_r@k`AsdBzd@_rAa`BoiBgPkRwp@oc@~XaEef@}sIcOc{AsuAeuApz@","polyline":"edl}Foeu{BmpAjaEmcDniDez@wr@{wBfB{w@ovAo_@rgAa`@mq@iqAfY}aAkwA}`@ve@yc@mlEetB_u@rUgtDs{B|g@qk@tzAn\\}_@_JheD{|AtyAy}@gMlz@u|A}tExj@km@vcBshAmCw[pvAsuAdY_r@k`AsdBzd@_rAa`BoiBgPkRwp@oc@~XaEef@}sIcOc{AsuAeuApz@","url":"/motorcycle-roads/albania/albania/ride/perhkopi-kukes"},{"slat":"42.0508","slon":"19.6635","elat":"42.1071","elon":"19.825","road_type_name":"Rural","road_type_id":"1","length":"25","title":"Shkoder to Komani Lake","rating":"4.5","comments_count":"2","is_long":"0","simplified_polyline":"o`t_Gyn_wB_~B}tD`q@c|Cg}AcuAfZyjJyqAesCcvAwG{d@o_A","polyline":"o`t_Gyn_wB_~B}tD`q@c|Cg}AcuAfZyjJyqAesCcvAwG{d@o_A","url":"/motorcycle-roads/albania/albania/ride/shkoder-to-komani-lake"},{"slat":"42.3364","slon":"19.4356","elat":"42.599","elon":"19.938","road_type_name":"Gravel","road_type_id":"7","length":"78","title":"Vermosh-Straße","rating":"5","comments_count":"2","is_long":"0","simplified_polyline":"mykaGi_suBiqFuzAfd@spBurAkbDghCwHag@uu@ua@~t@aZws@ns@s`@wuAgT_Mg~B_jBku@yv@mtByz@mDk|Ak~Bs{BpCe{@ibBfQiaBafDc`Fmo@_gHvp@ugCygBiPovEw}CyGioEjzAejNq~Ay`HukCacChx@chA","polyline":"mykaGi_suBiqFuzAfd@spBurAkbDghCwHag@uu@ua@~t@aZws@ns@s`@wuAgT_Mg~B_jBku@yv@mtByz@mDk|Ak~Bs{BpCe{@ibBfQiaBafDc`Fmo@_gHvp@ugCygBiPovEw}CyGioEjzAejNq~Ay`HukCacChx@chA","url":"/motorcycle-roads/montenegro/montenegro/ride/vermosh-strasse"},{"slat":"41.1627","slon":"20.636","elat":"41.0664","elon":"20.607","road_type_name":"Mountainous","road_type_id":"4","length":"12","title":"E852 : Struga - Prenjas","rating":"4","comments_count":"1","is_long":"0","simplified_polyline":"crfzFam}|BrqFjs@lfFxgCn_CmG","polyline":"crfzFam}|BrqFjs@lfFxgCn_CmG","url":"/motorcycle-roads/fyrom-macedonia/macedonia/ride/e852-struga-prenjas"},{"slat":"42.0539","slon":"19.4981","elat":"42.0887","elon":"19.1154","road_type_name":"Rural","road_type_id":"1","length":"43","title":"Shkodër - Bar","rating":"4","comments_count":"1","is_long":"0","simplified_polyline":"qst_Gef_vBfdFb`H|i@pfE_bAx`Gr~@`vBxFzuHrh@dcAskAboEqjAlzOaqDfeH}qCtOk|@fyA","polyline":"qst_Gef_vBfdFb`H|i@pfE_bAx`Gr~@`vBxFzuHrh@dcAskAboEqjAlzOaqDfeH}qCtOk|@fyA","url":"/motorcycle-roads/albania/albania/ride/shkoder-bar"},{"slat":"41.3063","slon":"19.8425","elat":"41.1045","elon":"20.026","road_type_name":"Mountainous","road_type_id":"4","length":"45","title":"SH3 : Elbasan - Tirane","rating":"4","comments_count":"1","is_long":"0","simplified_polyline":"ksb{FunbxBz`CkuAxvBtbBf}@o|Gr`GgxKz_@{Qj\\bw@fCnzAnwHqgDpnG}`FkBwhAfwAiLg|AgzAhp@aT","polyline":"ksb{FunbxBz`CkuAxvBtbBf}@o|Gr`GgxKz_@{Qj\\bw@fCnzAnwHqgDpnG}`FkBwhAfwAiLg|AgzAhp@aT","url":"/motorcycle-roads/albania/albania/ride/sh3-elbasan-tirane"},{"slat":"40.4409","slon":"19.4951","elat":"39.8977","elon":"20.0101","road_type_name":"Coastal","road_type_id":"2","length":"115","title":"Vlorë - Sarandë","rating":"4","comments_count":"4","is_long":"0","simplified_polyline":"uryuF_t~uBlyGfhB|aAgh@doCr^|xAib@f~@|~@`nC}aAlZpc@d`HqdF|pBokExoAss@bRq}BtvBqDzfBmiCja@dKkQqrAvh@rzBmGkgBze@l]`@noAz^otBntDkqExa@o_Ekg@}l@xoAwkHbzDgnAls@mtBn|Bku@nh@ocC`cCo|AwaAc{At`@mwA_gAmvB~~IuvHj]xp@|i@ioBxnAc]bqBwoG~iFaeBtzDazD","polyline":"uryuF_t~uBlyGfhB|aAgh@doCr^|xAib@f~@|~@`nC}aAlZpc@d`HqdF|pBokExoAss@bRq}BtvBqDzfBmiCja@dKkQqrAvh@rzBmGkgBze@l]`@noAz^otBntDkqExa@o_Ekg@}l@xoAwkHbzDgnAls@mtBn|Bku@nh@ocC`cCo|AwaAc{At`@mwA_gAmvB~~IuvHj]xp@|i@ioBxnAc]bqBwoG~iFaeBtzDazD","url":"/motorcycle-roads/albania/albania/ride/vlore-sarande"}]