[{"slat":"42.703","slon":"18.3311","elat":"43.1107","elon":"17.7222","road_type_name":"Mountainous","road_type_id":"4","length":"100","title":"Trebinje-Capljina","rating":"3","comments_count":"1","is_long":"0","simplified_polyline":"qoscGag{nBcwB|qJs|IflJ_\\tjH_~DzhIkdGhrC|PjgFouAbnHihApoA{{Bm|@iBctCcpAzkAkgAubClDehHwcAsvBcfBza@ohCvrF_vDdjAq_MzeL{dAbpBwM|xCavC~_EwuCreJ_PjoKlvBv`Jto@jF","polyline":"qoscGag{nBcwB|qJs|IflJ_\\tjH_~DzhIkdGhrC|PjgFouAbnHihApoA{{Bm|@iBctCcpAzkAkgAubClDehHwcAsvBcfBza@ohCvrF_vDdjAq_MzeL{dAbpBwM|xCavC~_EwuCreJ_PjoKlvBv`Jto@jF","url":"/motorcycle-roads/bosnia-and-herzegovina/bosnia-and-herzegovina/ride/trebinje-capljina"},{"slat":"44.2351","slon":"17.5666","elat":"44.1477","elon":"17.4006","road_type_name":"Mountainous","road_type_id":"4","length":"24","title":"Turbe to Donji Vakuf","rating":"5","comments_count":"1","is_long":"0","simplified_polyline":"ct~lGc~ejB|fDxoHcg@hwCpt@eV~Jdw@cs@t~BfTiw@d~AbcJbuBvuAtdBsi@jcAljA","polyline":"ct~lGc~ejB|fDxoHcg@hwCpt@eV~Jdw@cs@t~BfTiw@d~AbcJbuBvuAtdBsi@jcAljA","url":"/motorcycle-roads/bosnia-and-herzegovina/bosnia-and-herzegovina/ride/turbe-to-donji-vakuf"},{"slat":"44.0644","slon":"18.4859","elat":"44.0284","elon":"18.2733","road_type_name":"Mountainous","road_type_id":"4","length":"160","title":"B","rating":"4","comments_count":"1","is_long":"0","simplified_polyline":"ek}kG_myoBgyA}jDmBgwBygCgvC`GmwA}aAy\\ay@rp@ZycBsz@dS~EdpC{sBzwAe}Aeg@}d@no@qlAe[{r@p`@yI~hB{cE`vEqq@|}HyrD`cBmyBgfAu{CbcC}jAcAg`@gdA_^zaBe|AvL{^|`AdW{{@t}AsKhZmdBlk@~`AjjAz@j{CkcCtyB~eA|rDicB`q@c~HxcEyuEdJyhBl`CmD`e@eo@v|Avf@vsBwwAeFqpCloAeWwc@|yAddCuNSvcBdhCnvCjB|xBrnBfbE{{A|Gwq@~|Aa_B{`@ceAfjBgYue@soBdJ|GjmAe`C~~BgkCxq@xUltDgu@|vHj{LvwExfBa|@l}A|rC``EsYjPzpAxzAxh@","polyline":"ek}kG_myoBgyA}jDmBgwBygCgvC`GmwA}aAy\\ay@rp@ZycBsz@dS~EdpC{sBzwAe}Aeg@}d@no@qlAe[{r@p`@yI~hB{cE`vEqq@|}HyrD`cBmyBgfAu{CbcC}jAcAg`@gdA_^zaBe|AvL{^|`AdW{{@t}AsKhZmdBlk@~`AjjAz@j{CkcCtyB~eA|rDicB`q@c~HxcEyuEdJyhBl`CmD`e@eo@v|Avf@vsBwwAeFqpCloAeWwc@|yAddCuNSvcBdhCnvCjB|xBrnBfbE{{A|Gwq@~|Aa_B{`@ceAfjBgYue@soBdJ|GjmAe`C~~BgkCxq@xUltDgu@|vHj{LvwExfBa|@l}A|rC``EsYjPzpAxzAxh@","url":"/motorcycle-roads/bosnia-and-herzegovina/bosnia-and-herzegovina/ride/b"},{"slat":"43.7289","slon":"19.7094","elat":"43.7845","elon":"19.2982","road_type_name":"Mountainous","road_type_id":"4","length":"63","title":"Zlatibor-Visegrad","rating":"4","comments_count":"1","is_long":"0","simplified_polyline":"sx{iGmnhwBweCIkoBweDy~A}\\ai@j~DfWpzGaoAxbBeqEh_AeM|_EetAx`DrqDfwMvm@oz@beAxdApo@ym@|iAzyDdgCruAvk@`vCkYhnAht@|tDgl@t}AsxA|Ec}@d{AwYvhM","polyline":"sx{iGmnhwBweCIkoBweDy~A}\\ai@j~DfWpzGaoAxbBeqEh_AeM|_EetAx`DrqDfwMvm@oz@beAxdApo@ym@|iAzyDdgCruAvk@`vCkYhnAht@|tDgl@t}AsxA|Ec}@d{AwYvhM","url":"/motorcycle-roads/serbia/sumadija-and-western/ride/zlatibor-visegrad"},{"slat":"43.8224","slon":"16.9797","elat":"43.3055","elon":"17.0075","road_type_name":"Mountainous","road_type_id":"4","length":"85","title":"Livno - Makarska","rating":"4","comments_count":"2","is_long":"0","simplified_polyline":"cbnjGiisfBtxGrbKrkCo[bhGwtHx~BxRllBok@~_B`d@|`GujEfyArjBnbAhIt~@s{A|bB|dDpb@_qAjr@piC|xGdq@`jG|qFxy@ci@jBb`AfsCjwCv_CqoDlS~yAhv@k`Au[doBna@r@fdFkqJ~vIstI","polyline":"cbnjGiisfBtxGrbKrkCo[bhGwtHx~BxRllBok@~_B`d@|`GujEfyArjBnbAhIt~@s{A|bB|dDpb@_qAjr@piC|xGdq@`jG|qFxy@ci@jBb`AfsCjwCv_CqoDlS~yAhv@k`Au[doBna@r@fdFkqJ~vIstI","url":"/motorcycle-roads/bosnia-and-herzegovina/bosnia-and-herzegovina/ride/livno-makarska"},{"slat":"43.7045","slon":"16.6505","elat":"43.8032","elon":"16.9361","road_type_name":"Mountainous","road_type_id":"4","length":"43","title":"Livno Via Vaganj Sinj","rating":"4","comments_count":"1","is_long":"0","simplified_polyline":"q`wiGk`sdB}xCuxGos@bm@nR{fBo_CewBa]gdBw~@vq@Fs|A}j@`j@lR_u@s_AjPdf@cqEec@eoB{rAr[gDyw@ypAoCrPwnAmbAuFz~Ck|Gm|@wjM","polyline":"q`wiGk`sdB}xCuxGos@bm@nR{fBo_CewBa]gdBw~@vq@Fs|A}j@`j@lR_u@s_AjPdf@cqEec@eoB{rAr[gDyw@ypAoCrPwnAmbAuFz~Ck|Gm|@wjM","url":"/motorcycle-roads/croatia/coastal-croatia-west/ride/livno-via-vaganj-sinj"},{"slat":"43.3638","slon":"17.8191","elat":"43.852","elon":"19.8329","road_type_name":"Mountainous","road_type_id":"4","length":"309","title":"Mostar to Uzice","rating":"4","comments_count":"2","is_long":"1","simplified_polyline":"umtgGwhwkBmcA}sD_kC{sC_zBq[qfDboCspAn{C{cDzmBy_@zvCkhBjjBec@bcCiaGfaDi`FnJenBceCmz@pM}wBirBcv@kYcaAbi@sxAelC{hAjVyM{aJmx@oNmMwcAjbAowIprDyfKsgBkhCqhH{eAacCkkBgXaf@tx@gwCyk@`h@ydCiiCiz@lD}~BwwDqbEi]ipA_jDs_Do_Dy}AwrFtlByuKunAwoGz}ByyBzNcsAj{@kLsbBqfWpmB_fFwgA}rCyAi|D}`CozA~@kpFgsBkdC}PejB{~AiT_bB_lBhh@ugGdbAqdA{aB}xG|dIebQpkBse@f{@m_B~u@msJ|cB}fA|@ofCar@oAvw@ke@mAstClaEwtB|lB|k@pyAcj@lhBnr@dk@yc@|fByfKp_BaQzdAayBry@orHsaA}bDazFyJqy@{qFyjAefBhOyeF_`BmsCk_B~SqcAmu@zn@ieAq^wlC`m@_vG|}@a~Ad}AwHrf@uuA_t@u{DrZkhAmj@cxC_iC{wAehAsxDms@fl@saA}dA}n@d{@irDgsMxyAqtD`GynDrqEs`AtrAkjBuZapGpr@inF{~EskJwnBnTwt@qxAwo@f@dAkaB","polyline":"umtgGwhwkBmcA}sD_kC{sC_zBq[qfDboCspAn{C{cDzmBy_@zvCkhBjjBec@bcCiaGfaDi`FnJenBceCmz@pM}wBirBcv@kYcaAbi@sxAelC{hAjVyM{aJmx@oNmMwcAjbAowIprDyfKsgBkhCqhH{eAacCkkBgXaf@tx@gwCyk@`h@ydCiiCiz@lD}~BwwDqbEi]ipA_jDs_Do_Dy}AwrFtlByuKunAwoGz}ByyBzNcsAj{@kLsbBqfWpmB_fFwgA}rCyAi|D}`CozA~@kpFgsBkdC}PejB{~AiT_bB_lBhh@ugGdbAqdA{aB}xG|dIebQpkBse@f{@m_B~u@msJ|cB}fA|@ofCar@oAvw@ke@mAstClaEwtB|lB|k@pyAcj@lhBnr@dk@yc@|fByfKp_BaQzdAayBry@orHsaA}bDazFyJqy@{qFyjAefBhOyeF_`BmsCk_B~SqcAmu@zn@ieAq^wlC`m@_vG|}@a~Ad}AwHrf@uuA_t@u{DrZkhAmj@cxC_iC{wAehAsxDms@fl@saA}dA}n@d{@irDgsMxyAqtD`GynDrqEs`AtrAkjBuZapGpr@inF{~EskJwnBnTwt@qxAwo@f@dAkaB","url":"/motorcycle-roads/bosnia-and-herzegovina/bosnia-and-herzegovina/ride/mostar-to-uzice"},{"slat":"44.964","slon":"18.2787","elat":"43.9266","elon":"18.3234","road_type_name":"Rural","road_type_id":"1","length":"199","title":"R465 : Modri?a - Semizovac","rating":"3","comments_count":"1","is_long":"0","simplified_polyline":"w_mqGy`qnB~jAjpH~|@pgAvrAcCjtAvfCmZvtKjlAjjCvrDvp@xwDicBpoDtzDv}FtiAfi@jvAznAw_E~gCumBnk@roAflFnaDxbDtHrgCynCrdA|PftBa~A`v@pp@bhDnC~q@u`AndCbJdmAvmAxsCyqEyz@obDxbA{|DjuBx|Att@pjDxgBihE|}@nBfyAfqB|l@gLyH_wMkQecAo\\zm@u_@}[tQodCdy@oe@|n@xZja@o`BztAih@vPc|BrrBurB`fAobGz{AqfC`zBu}@bMmv@|zAkHf]}eBld@tbAfnAv@~xCgbC~xBjfAhsDkcBjq@m~HpcEguE|H_hBrr@ga@tjAv[fj@wp@lzAbh@tsB_wAkEmrCloAeWcd@hyAvfCwKm@|cBzeC~qC~UrfD~~AzyCdpAdj@sc@p\\`|EtqEjeDzdAtjBtsH~iHz|H","polyline":"w_mqGy`qnB~jAjpH~|@pgAvrAcCjtAvfCmZvtKjlAjjCvrDvp@xwDicBpoDtzDv}FtiAfi@jvAznAw_E~gCumBnk@roAflFnaDxbDtHrgCynCrdA|PftBa~A`v@pp@bhDnC~q@u`AndCbJdmAvmAxsCyqEyz@obDxbA{|DjuBx|Att@pjDxgBihE|}@nBfyAfqB|l@gLyH_wMkQecAo\\zm@u_@}[tQodCdy@oe@|n@xZja@o`BztAih@vPc|BrrBurB`fAobGz{AqfC`zBu}@bMmv@|zAkHf]}eBld@tbAfnAv@~xCgbC~xBjfAhsDkcBjq@m~HpcEguE|H_hBrr@ga@tjAv[fj@wp@lzAbh@tsB_wAkEmrCloAeWcd@hyAvfCwKm@|cBzeC~qC~UrfD~~AzyCdpAdj@sc@p\\`|EtqEjeDzdAtjBtsH~iHz|H","url":"/motorcycle-roads/bosnia-and-herzegovina/bosnia-and-herzegovina/ride/r465-modrica-semizovac"},{"slat":"43.6574","slon":"17.9658","elat":"43.7883","elon":"18.0799","road_type_name":"Mountainous","road_type_id":"4","length":"22","title":"Konjic to A1","rating":"4","comments_count":"1","is_long":"0","simplified_polyline":"eymiGe{slBicBuzBocCWo|G{jDgXaf@n{@ktC{o@pd@ccCohCwz@fDw}AagC","polyline":"eymiGe{slBicBuzBocCWo|G{jDgXaf@n{@ktC{o@pd@ccCohCwz@fDw}AagC","url":"/motorcycle-roads/bosnia-and-herzegovina/bosnia-and-herzegovina/ride/konjic-to-a1"},{"slat":"44.1309","slon":"16.7952","elat":"44.1217","elon":"16.5426","road_type_name":"Gravel","road_type_id":"7","length":"67","title":"R408 / R409 : Satorsko Jazero : Gornje Peulje - Vagan","rating":"4","comments_count":"1","is_long":"0","simplified_polyline":"ohjlGogoeBu_DtkCw}CdgGmaFxnCwc@vmGlrA`wB}^l`Ar`Aqd@nqBxsD}mA\\ns@rtC{xAvuCsXtjE|tEupD|eAbQ`TykCo~A`_@zi@mnDyi@znDl{Akb@jGdn@jfCdg@s@dn@ckAcSbx@hkAjzBnd@","polyline":"ohjlGogoeBu_DtkCw}CdgGmaFxnCwc@vmGlrA`wB}^l`Ar`Aqd@nqBxsD}mA\\ns@rtC{xAvuCsXtjE|tEupD|eAbQ`TykCo~A`_@zi@mnDyi@znDl{Akb@jGdn@jfCdg@s@dn@ckAcSbx@hkAjzBnd@","url":"/motorcycle-roads/bosnia-and-herzegovina/bosnia-and-herzegovina/ride/r408-r409-satorsko-jazero-gornje-peulje-vagan"},{"slat":"42.7244","slon":"18.3468","elat":"43.8027","elon":"18.3477","road_type_name":"Rural","road_type_id":"1","length":"194","title":"Trebinje - Sarajevo","rating":"4","comments_count":"1","is_long":"0","simplified_polyline":"yrwcGwi~nBgWscBxi@w`DooGmm@_kBkmAmx@tL_Vat@_xDnt@obAhjBmtC|EdcA{uDkaBbAkdAy{@o}@~Ai_A|zBwsBckBgkI}EehDhl@cc@mx@uxAsDs|AahBq{@w}FssC{xDkRmjC{iAxBocJi_FweA|y@ucL}p@akBsuAomB}oGi`G|eAes@moDyuEmxGmeCmCumCevAqJmoJeiCi\\aqAb~@ieAeU{`Df~@qc@fr@q`C_TgiBho@am@jlGmfB|lFngAxbDmqDx{Fpd@zkCijB~|AksAcdAqvAnFuc@diFquC~_Hq|@cNfQrj@umGteEmxFwN}xCbeAe~@zxDgnFnQo_AdcGw~Al@o}@nlA","polyline":"yrwcGwi~nBgWscBxi@w`DooGmm@_kBkmAmx@tL_Vat@_xDnt@obAhjBmtC|EdcA{uDkaBbAkdAy{@o}@~Ai_A|zBwsBckBgkI}EehDhl@cc@mx@uxAsDs|AahBq{@w}FssC{xDkRmjC{iAxBocJi_FweA|y@ucL}p@akBsuAomB}oGi`G|eAes@moDyuEmxGmeCmCumCevAqJmoJeiCi\\aqAb~@ieAeU{`Df~@qc@fr@q`C_TgiBho@am@jlGmfB|lFngAxbDmqDx{Fpd@zkCijB~|AksAcdAqvAnFuc@diFquC~_Hq|@cNfQrj@umGteEmxFwN}xCbeAe~@zxDgnFnQo_AdcGw~Al@o}@nlA","url":"/motorcycle-roads/bosnia-and-herzegovina/bosnia-and-herzegovina/ride/trebinje-sarajevo"},{"slat":"45.2191","slon":"16.5399","elat":"44.7755","elon":"15.9463","road_type_name":"Mountainous","road_type_id":"4","length":"100","title":"Hrvatska Kostanjica Biha? BiH","rating":"5","comments_count":"1","is_long":"0","simplified_polyline":"s{~rGwm}cBoIlcCflAbwCbqDf_BfzEp_@nsFffLp}IzeCpxBzuCluDn`@ztC`m`@z~AwJfqFhuFtuBmjBpxCpfAtKlbEllAjxD}hEbjH_g@hkBfSt|C_{@raAh@zuC`uDruLlzClsAhxFpJv{Fe}K","polyline":"s{~rGwm}cBoIlcCflAbwCbqDf_BfzEp_@nsFffLp}IzeCpxBzuCluDn`@ztC`m`@z~AwJfqFhuFtuBmjBpxCpfAtKlbEllAjxD}hEbjH_g@hkBfSt|C_{@raAh@zuC`uDruLlzClsAhxFpJv{Fe}K","url":"/motorcycle-roads/bosnia-and-herzegovina/bosnia-and-herzegovina/ride/hrvatska-kostanjica-bihac-bih"},{"slat":"44.8725","slon":"15.783","elat":"43.612","elon":"16.9943","road_type_name":"Rural","road_type_id":"1","length":"306","title":"Biha? - Jajce - Livno","rating":"3","comments_count":"1","is_long":"1","simplified_polyline":"qe{pGsti_B|lBw~Ar~@guDnaB_t@pgFyvP~gFa`Frl@gmCfv@zHnfCwyIpwGkmGjPmyHliE}cGzNe|DhjMawRryCkhOaqAiqGwcBciA||Bomb@uoA_vEdoAivDuuAs_CBcoCfdDqrEbkBmeHtyBsRds@ysBvc@jQvHqdFk|@ebBla@etAa{@e{FlyCgoFlxB_kAngBkfGn~AgcAjAofEntAkw@hr@weEzl@jV~lCmfGvtAu`AqXqhAtbA}nFyr@uw@rzAy~FheAfImBpwBfg@me@nXtb@noCoXlvAcvAbh@mgCtfCyxAldAzYf}@oo@wBadAbzApKriAu{D|p@ny@rSg`AnxFscDdt@urCbwAgFnaCm}EzyBcxAheE{OmGz_LtkElqAq\\zeCh^wP~XtiBoOxhEhuGjsD`fEtbI~nL`bFvlAcAz|Ar~AtbHcfA~iC|iA~D~zFpl@oAfGbaAknGxdPkf@|xFtXdwBjzD~jGdiA`w@liC{X|kGsvH``CdRdmBmk@v_Bzc@xlFcxDhv@na@","polyline":"qe{pGsti_B|lBw~Ar~@guDnaB_t@pgFyvP~gFa`Frl@gmCfv@zHnfCwyIpwGkmGjPmyHliE}cGzNe|DhjMawRryCkhOaqAiqGwcBciA||Bomb@uoA_vEdoAivDuuAs_CBcoCfdDqrEbkBmeHtyBsRds@ysBvc@jQvHqdFk|@ebBla@etAa{@e{FlyCgoFlxB_kAngBkfGn~AgcAjAofEntAkw@hr@weEzl@jV~lCmfGvtAu`AqXqhAtbA}nFyr@uw@rzAy~FheAfImBpwBfg@me@nXtb@noCoXlvAcvAbh@mgCtfCyxAldAzYf}@oo@wBadAbzApKriAu{D|p@ny@rSg`AnxFscDdt@urCbwAgFnaCm}EzyBcxAheE{OmGz_LtkElqAq\\zeCh^wP~XtiBoOxhEhuGjsD`fEtbI~nL`bFvlAcAz|Ar~AtbHcfA~iC|iA~D~zFpl@oAfGbaAknGxdPkf@|xFtXdwBjzD~jGdiA`w@liC{X|kGsvH``CdRdmBmk@v_Bzc@xlFcxDhv@na@","url":"/motorcycle-roads/bosnia-and-herzegovina/bosnia-and-herzegovina/ride/bihac-jajce-livno"},{"slat":"44.742","slon":"17.1528","elat":"44.7224","elon":"17.1569","road_type_name":"Mountainous","road_type_id":"4","length":"145","title":"Manja?a : Banja Luka - ?a?avica - Jajce","rating":"4","comments_count":"2","is_long":"0","simplified_polyline":"ctapGmcugBdw@p{@tZsVrg@hyCh}@f_@}OjjA~rBlsAt{@nwCvV_`@bvCltBd_@t|FzyHlrIpcDrgBvuGt[raDvrApeFmzIlxB_kAfdBkaGfbBgiAz@oeEduAsx@rq@odEzl@jV~kC_eGhvAocAgY_fAvbAmqFqr@ix@fuBooGwdB_qDuuBsOytBjtDmpDt`Asv@xnC_fE{Dqo@|fDlTvgDolE|pEizAg\\qlGriAuhAr`AcnEpXg`EwlCysEn}@qoAs^r^epAgaAku@{_AaqEybEv{G","polyline":"ctapGmcugBdw@p{@tZsVrg@hyCh}@f_@}OjjA~rBlsAt{@nwCvV_`@bvCltBd_@t|FzyHlrIpcDrgBvuGt[raDvrApeFmzIlxB_kAfdBkaGfbBgiAz@oeEduAsx@rq@odEzl@jV~kC_eGhvAocAgY_fAvbAmqFqr@ix@fuBooGwdB_qDuuBsOytBjtDmpDt`Asv@xnC_fE{Dqo@|fDlTvgDolE|pEizAg\\qlGriAuhAr`AcnEpXg`EwlCysEn}@qoAs^r^epAgaAku@{_AaqEybEv{G","url":"/motorcycle-roads/bosnia-and-herzegovina/bosnia-and-herzegovina/ride/manjaca-banja-luka-caÄ‘avica-jajce"},{"slat":"43.8377","slon":"18.2224","elat":"43.1509","elon":"17.7529","road_type_name":"Cruiser","road_type_id":"8","length":"136","title":"Sarajevo to Mostar","rating":"5","comments_count":"1","is_long":"0","simplified_polyline":"o~pjGwfenBx~AfsC~iFxdCwOb|H_hAxuBtB~zA`~C|~Dpw@mFrdCdiCvm@uf@ib@z{DjdCtlBpgHfeA~hBpiCuuDnkKk_AlsIjNrcAfv@lK|NbcJhkAqSzuAxiCpaAwh@~v@vYxrBhoBr~@_K|qBjfC|~E{L~~Fa`DjpD{iKz`DkjBrmAywCnkDesC|vBj[frCh{CrnAz_EdgDkTdlAkfAnkP{V`|AfcA~hBnoFjy@lb@vaCid@lXfvBrcAtoBjZcX","polyline":"o~pjGwfenBx~AfsC~iFxdCwOb|H_hAxuBtB~zA`~C|~Dpw@mFrdCdiCvm@uf@ib@z{DjdCtlBpgHfeA~hBpiCuuDnkKk_AlsIjNrcAfv@lK|NbcJhkAqSzuAxiCpaAwh@~v@vYxrBhoBr~@_K|qBjfC|~E{L~~Fa`DjpD{iKz`DkjBrmAywCnkDesC|vBj[frCh{CrnAz_EdgDkTdlAkfAnkP{V`|AfcA~hBnoFjy@lb@vaCid@lXfvBrcAtoBjZcX","url":"/motorcycle-roads/bosnia-and-herzegovina/bosnia-and-herzegovina/ride/sarajevo-to-mostar"},{"slat":"44.7545","slon":"17.1703","elat":"44.1587","elon":"17.3698","road_type_name":"Rural","road_type_id":"1","length":"97","title":"Vrbas Canyon","rating":"4","comments_count":"1","is_long":"0","simplified_polyline":"wbdpG{qxgBxfAjmB`sA@r}B{_BtoBuvE``A|oEhbAby@m^vnAxoAr]doEq}@zcErlC~fEyV~oAmbAjoGyiAzuA|\\tlE{nEeSgjDrl@ycD|hEvAnu@omClrD}bA|sBmsDtvBzPboChlEyBlwBfg@}d@tuBbZziCmfBxg@qgCrfCeyAhfAvXp|@oo@aDybA`|AfJngAqyD~q@jx@rSg`AhzEw|C","polyline":"wbdpG{qxgBxfAjmB`sA@r}B{_BtoBuvE``A|oEhbAby@m^vnAxoAr]doEq}@zcErlC~fEyV~oAmbAjoGyiAzuA|\\tlE{nEeSgjDrl@ycD|hEvAnu@omClrD}bA|sBmsDtvBzPboChlEyBlwBfg@}d@tuBbZziCmfBxg@qgCrfCeyAhfAvXp|@oo@aDybA`|AfJngAqyD~q@jx@rSg`AhzEw|C","url":"/motorcycle-roads/bosnia-and-herzegovina/bosnia-and-herzegovina/ride/vrbas-canyon"},{"slat":"42.7838","slon":"18.9288","elat":"42.7124","elon":"18.5515","road_type_name":"Rural","road_type_id":"1","length":"37","title":"Niksic-Trebinje","rating":"3","comments_count":"2","is_long":"0","simplified_polyline":"efcdG{_prBxm@~aE}e@djErmArqEflB`kBnHvdDtoA|dDit@~mBxJtsEs|@rgGnlBhzJlyA~qCrl@dBxSndE","polyline":"efcdG{_prBxm@~aE}e@djErmArqEflB`kBnHvdDtoA|dDit@~mBxJtsEs|@rgGnlBhzJlyA~qCrl@dBxSndE","url":"/motorcycle-roads/montenegro/montenegro/ride/niksic-trebinje"},{"slat":"43.8816","slon":"20.321","elat":"44.1062","elon":"17.8739","road_type_name":"Mountainous","road_type_id":"4","length":"304","title":"E761 : Serbia - Bosnia","rating":"5","comments_count":"1","is_long":"1","simplified_polyline":"uryjGa}_{BewAntCadAhpKch@sJia@bcAdcAx]pk@tlDvEzaKvkBbeBpz@gMn|E|xMvaAiQhmB`iB}U`sG`f@piD}tD|}Fy`@vaCpq@~nBoTh`Bk{@a@oe@zxAgC`gDxp@b@vu@lyAvqB_R`|ExiJwr@`oFfZxoGeqA~gBuqEt_AmGlmDezAz|DfrDlnMvn@u{@|aAbeAjq@sm@lkAn|DfgCptAdeA|xKoi@b}Ac}A~Gk{@lzA}m@xxGp^rmCou@br@bfAhfAdaBsWz`BruCaPx_FlmA~oBzw@poFd|FlL~|@bfCilAneKpuAxgCm_@`}Kj}@~zBesBmxAy{@`kBclCt~Ar{@xeCa`A`uFx|@`sCeu@dk@_TxtEcyE`dAlcApxHmsDt`BhyArhLwg@`yBqbDt{Cv_@ztCin@~`Aa@baEupBlpBskDbr@o\\r`AgBrjDjgAbzCikB|iHxfA`eIee@lz@pk@|pGfzAlhFiEhjDogFrkKo|@~Gij@fhFifFnpHyfAfoEq|DblE}lChj@igD`rCgbCpfFqmBzvAa`FfiNyoBztB","polyline":"uryjGa}_{BewAntCadAhpKch@sJia@bcAdcAx]pk@tlDvEzaKvkBbeBpz@gMn|E|xMvaAiQhmB`iB}U`sG`f@piD}tD|}Fy`@vaCpq@~nBoTh`Bk{@a@oe@zxAgC`gDxp@b@vu@lyAvqB_R`|ExiJwr@`oFfZxoGeqA~gBuqEt_AmGlmDezAz|DfrDlnMvn@u{@|aAbeAjq@sm@lkAn|DfgCptAdeA|xKoi@b}Ac}A~Gk{@lzA}m@xxGp^rmCou@br@bfAhfAdaBsWz`BruCaPx_FlmA~oBzw@poFd|FlL~|@bfCilAneKpuAxgCm_@`}Kj}@~zBesBmxAy{@`kBclCt~Ar{@xeCa`A`uFx|@`sCeu@dk@_TxtEcyE`dAlcApxHmsDt`BhyArhLwg@`yBqbDt{Cv_@ztCin@~`Aa@baEupBlpBskDbr@o\\r`AgBrjDjgAbzCikB|iHxfA`eIee@lz@pk@|pGfzAlhFiEhjDogFrkKo|@~Gij@fhFifFnpHyfAfoEq|DblE}lChj@igD`rCgbCpfFqmBzvAa`FfiNyoBztB","url":"/motorcycle-roads/bosnia-and-herzegovina/bosnia-and-herzegovina/ride/e761-serbia-bosnia"}]