[{"slat":"-32.8647","slon":"-70.1578","elat":"-32.8372","elon":"-70.1295","road_type_name":"Mountainous","road_type_id":"4","length":"11","title":"El Paso de los Caracoles (Pass of the snails) : Portillo","rating":"5","comments_count":"1","is_long":"0","simplified_polyline":"|{qgEbuekLz@mdAemDojB","polyline":"|{qgEbuekLz@mdAemDojB","url":"/motorcycle-roads/chile/santiago-metropolitan/ride/el-paso-de-los-caracoles-pass-of-the-snails-portillo"},{"slat":"-32.9377","slon":"-70.6811","elat":"-33.0124","elon":"-70.7054","road_type_name":"Mountainous","road_type_id":"4","length":"17","title":"Cuesta Chacabuco","rating":"4","comments_count":"1","is_long":"0","simplified_polyline":"nd`hEjzknLjfBdy@vnAznCrBil@ptBzy@b`Dg~@","polyline":"nd`hEjzknLjfBdy@vnAznCrBil@ptBzy@b`Dg~@","url":"/motorcycle-roads/chile/santiago-metropolitan/ride/cuesta-chacabuco"},{"slat":"-29.9761","slon":"-70.5514","elat":"-29.9758","elon":"-70.5549","road_type_name":"Mountainous","road_type_id":"4","length":"298","title":"Paso aguas negras","rating":"4","comments_count":"1","is_long":"1","simplified_polyline":"nu}uDnqrmLouCmlByiDrFaeKyqDumByxBuWqkEl|@w{Mp}EamJtpCaqBh{A~A~gC_iCleGauCkMoxBodAit@it@ocFmnAidBdmCusN`{Eam@lsH|g@tpRefHn|HyCt}G{hDh|AanH__@utC_hEcjCa{GqaAsdDe{Eyg@dHj@k|A|[p^|g@{yAeo@tm@}Zw~A{dBa|A|qCvfBr{A_`ClcA_FmcA~E_xAp`CsvCmhB|eBd}A|Zv~Ahp@ik@ai@nwA}[q^k@j|Axg@eHrdDd{E~}Kn}Bt|A`xBbJpcBkzAbqHkbH`mD{aIfFujC~cBctNtcEanHkm@qpEhj@ahC~xNnnAdcBxm@vzEjkAv_AjKtvBysGzxCq{BbeCkyAqCspCfrBo{E~dJi}@ddN~WrjE`pAzdB`cLdeEfjDsFtrC|aC","polyline":"nu}uDnqrmLouCmlByiDrFaeKyqDumByxBuWqkEl|@w{Mp}EamJtpCaqBh{A~A~gC_iCleGauCkMoxBodAit@it@ocFmnAidBdmCusN`{Eam@lsH|g@tpRefHn|HyCt}G{hDh|AanH__@utC_hEcjCa{GqaAsdDe{Eyg@dHj@k|A|[p^|g@{yAeo@tm@}Zw~A{dBa|A|qCvfBr{A_`ClcA_FmcA~E_xAp`CsvCmhB|eBd}A|Zv~Ahp@ik@ai@nwA}[q^k@j|Axg@eHrdDd{E~}Kn}Bt|A`xBbJpcBkzAbqHkbH`mD{aIfFujC~cBctNtcEanHkm@qpEhj@ahC~xNnnAdcBxm@vzEjkAv_AjKtvBysGzxCq{BbeCkyAqCspCfrBo{E~dJi}@ddN~WrjE`pAzdB`cLdeEfjDsFtrC|aC","url":"/motorcycle-roads/chile/coquimbo/ride/paso-aguas-negras"},{"slat":"-41.037","slon":"-72.919","elat":"-41.2707","elon":"-72.9898","road_type_name":"Rural","road_type_id":"1","length":"45","title":"Llanquihue/Quilanto","rating":"5","comments_count":"1","is_long":"0","simplified_polyline":"d`nyFv~`|LpyCkuAt[ngCb{Cn}EB~kBhzBji@brBbcGhmAcHvm@q~@kHssEbyAy~BjyDjyC{O`|EjmAkLtx@xyAjfBimChuDub@ltAegB","polyline":"d`nyFv~`|LpyCkuAt[ngCb{Cn}EB~kBhzBji@brBbcGhmAcHvm@q~@kHssEbyAy~BjyDjyC{O`|EjmAkLtx@xyAjfBimChuDub@ltAegB","url":"/motorcycle-roads/chile/los-lagos/ride/llanquihue-quilanto"},{"slat":"-30.6068","slon":"-71.2069","elat":"-31.1766","elon":"-71.0094","road_type_name":"Coastal","road_type_id":"2","length":"110","title":"Ovalle - Combarbala","rating":"4","comments_count":"1","is_long":"0","simplified_polyline":"bzxyDrrrqLzf@}UgJ{jAquBgzCvf@kjDtcH}rDppE{}FlzAglF~`Bsf@_fAclCv@spGxmE|Pb{BilChhMvzD|vCxeClcDhn@v}@teBfgB_w@wC`fAs{AEptCfc@x}GptGhaBgq@bkBhYb{@gjBreCx[`bCyq@zv@foAz{BxJnnAkeAv[~m@`dHwgCf|DmWxkAwrB","polyline":"bzxyDrrrqLzf@}UgJ{jAquBgzCvf@kjDtcH}rDppE{}FlzAglF~`Bsf@_fAclCv@spGxmE|Pb{BilChhMvzD|vCxeClcDhn@v}@teBfgB_w@wC`fAs{AEptCfc@x}GptGhaBgq@bkBhYb{@gjBreCx[`bCyq@zv@foAz{BxJnnAkeAv[~m@`dHwgCf|DmWxkAwrB","url":"/motorcycle-roads/chile/coquimbo/ride/ovalle-combarbala-1"},{"slat":"-33.0206","slon":"-71.1695","elat":"-33.2739","elon":"-70.8904","road_type_name":"Rural","road_type_id":"1","length":"80","title":"Lampa-Caleu-Limache","rating":"4","comments_count":"1","is_long":"0","simplified_polyline":"~jphEnikqLzy@muDrqCkhEjfA}hGqi@gfHh}@zOagA}iBtt@kh@w_GqhBojA|sBq}@k`Ayi@slE|p@k]ti@a|Df}@uKfnCzcBb~Jo]rqGgoBx}AspB|lDfPlpApjBloEpkA`bFs}E","polyline":"~jphEnikqLzy@muDrqCkhEjfA}hGqi@gfHh}@zOagA}iBtt@kh@w_GqhBojA|sBq}@k`Ayi@slE|p@k]ti@a|Df}@uKfnCzcBb~Jo]rqGgoBx}AspB|lDfPlpApjBloEpkA`bFs}E","url":"/motorcycle-roads/chile/santiago-metropolitan/ride/lampa-caleu-limache"},{"slat":"-33.3269","slon":"-71.3727","elat":"-33.4035","elon":"-71.1527","road_type_name":"Rural","road_type_id":"1","length":"46","title":"Curacaví-tapihue","rating":"4","comments_count":"1","is_long":"0","simplified_polyline":"fcljEx~rrL{_Ae{Cta@qwE{zGaoF~EgzDspAeiGv`@qyBcpAy~G~aEaeCf}MlvB~fEbeCbi@qR","polyline":"fcljEx~rrL{_Ae{Cta@qwE{zGaoF~EgzDspAeiGv`@qyBcpAy~G~aEaeCf}MlvB~fEbeCbi@qR","url":"/motorcycle-roads/chile/santiago-metropolitan/ride/curacavi-tapihue"},{"slat":"-33.6178","slon":"-70.2637","elat":"-33.6558","elon":"-70.3482","road_type_name":"Mountainous","road_type_id":"4","length":"17","title":"Acceso a Lagunilla","rating":"5","comments_count":"1","is_long":"0","simplified_polyline":"lrclEhg_lL|vDfrEzElqAjyApk@ws@vZ~s@dE","polyline":"lrclEhg_lL|vDfrEzElqAjyApk@ws@vZ~s@dE","url":"/motorcycle-roads/chile/santiago-metropolitan/ride/acceso-a-lagunilla"},{"slat":"-33.6562","slon":"-70.6535","elat":"-33.6706","elon":"-70.3533","road_type_name":"Rural","road_type_id":"1","length":"41","title":"camino el Toyó","rating":"4.5","comments_count":"2","is_long":"0","simplified_polyline":"dsllEprfnLoeAwqBpTugDkyDokMkmA}}IadDkrGd~CemNpkHn[|eBem@","polyline":"dsllEprfnLoeAwqBpTugDkyDokMkmA}}IadDkrGd~CemNpkHn[|eBem@","url":"/motorcycle-roads/chile/santiago-metropolitan/ride/camino-el-yoyo"},{"slat":"-33.296","slon":"-70.7218","elat":"-33.3868","elon":"-70.602","road_type_name":"Mountainous","road_type_id":"4","length":"20","title":"Radial Nororiente","rating":"4","comments_count":"1","is_long":"0","simplified_polyline":"`bfjE`{snLsYueDdt@qoEfkAukAeImiCzjFoJba@qaA`nAxNfo@{uAdmAuI","polyline":"`bfjE`{snLsYueDdt@qoEfkAukAeImiCzjFoJba@qaA`nAxNfo@{uAdmAuI","url":"/motorcycle-roads/chile/santiago-metropolitan/ride/radial-nororiente"},{"slat":"-33.0265","slon":"-71.1578","elat":"-33.3755","elon":"-70.7647","road_type_name":"Coastal","road_type_id":"2","length":"75","title":"Stgo-Olmue (interior)","rating":"3","comments_count":"1","is_long":"0","simplified_polyline":"|bqhEr|hqLptD}qHjfA}hGyr@mdDxj@cnAqa@uq@h}@zOggAslBtmA_i@eh@sy@re@@bn@chE{BolD|lHmUfzCamAhwAgmBrlDfOtrAjkBpqEvjA|zTguVdsCu~GxNnb@","polyline":"|bqhEr|hqLptD}qHjfA}hGyr@mdDxj@cnAqa@uq@h}@zOggAslBtmA_i@eh@sy@re@@bn@chE{BolD|lHmUfzCamAhwAgmBrlDfOtrAjkBpqEvjA|zTguVdsCu~GxNnb@","url":"/motorcycle-roads/chile/santiago-metropolitan/ride/stgo-olmue-interior"},{"slat":"-24.1819","slon":"-65.3262","elat":"-22.88","elon":"-68.12","road_type_name":"Mountainous","road_type_id":"4","length":"465","title":"Paso Jama - Argentina to Chile","rating":"5","comments_count":"1","is_long":"1","simplified_polyline":"r_rrCv_vmK_t@~nFwdCx{CstChtAyhHn[mvHlaEwbGj~AqyBcVgrArjBuoBmg@eyBpg@wxFe`AoaKh~BiaGvJkaEo`AhOxjD_lBrvCoxD~zBm\\hlCmzDhrBnbB|hH|dBhk@sUziA|z@xeC~~@zZe_BrIe@|vIaoEznE_aC~tM{_Fb_DmpP`nZi_BpxFofJxwNemCb`Klt@pvCe\\pzAbyAtkBygBxtDxeAvgAu[vUzdD`i@sjAhoAxJfjAe_EtcFi{AvCrXf|AjvAdL|i@lxDgLvdOsgCtdFziCryCdy@piEt_GvsH`yGj}@|dKflD|nAxpEnhB~xBwz@nvHjeDh{IoTpnCetDzoC{`@~cCcpB`lBirRnfFecOpl@smQdlIc|Cya@mkDxj@u`BlzCaYrjEtk@zxCgmFdkSgUf}E`oAvyQa\\dqGc~C|oDycBvJqjAhaCqkG|nB}|HdhKlu@~a@pbJckBpzAfg@|i@fcBg~JndPezB`lAmaEc\\soDvbA{eAl`DmkNjfNeHdgE`fAd\\sKprDnt@nu@yGbpFjw@lsB{aCddQfN|lKfqAfhJ_g@lxH","polyline":"r_rrCv_vmK_t@~nFwdCx{CstChtAyhHn[mvHlaEwbGj~AqyBcVgrArjBuoBmg@eyBpg@wxFe`AoaKh~BiaGvJkaEo`AhOxjD_lBrvCoxD~zBm\\hlCmzDhrBnbB|hH|dBhk@sUziA|z@xeC~~@zZe_BrIe@|vIaoEznE_aC~tM{_Fb_DmpP`nZi_BpxFofJxwNemCb`Klt@pvCe\\pzAbyAtkBygBxtDxeAvgAu[vUzdD`i@sjAhoAxJfjAe_EtcFi{AvCrXf|AjvAdL|i@lxDgLvdOsgCtdFziCryCdy@piEt_GvsH`yGj}@|dKflD|nAxpEnhB~xBwz@nvHjeDh{IoTpnCetDzoC{`@~cCcpB`lBirRnfFecOpl@smQdlIc|Cya@mkDxj@u`BlzCaYrjEtk@zxCgmFdkSgUf}E`oAvyQa\\dqGc~C|oDycBvJqjAhaCqkG|nB}|HdhKlu@~a@pbJckBpzAfg@|i@fcBg~JndPezB`lAmaEc\\soDvbA{eAl`DmkNjfNeHdgE`fAd\\sKprDnt@nu@yGbpFjw@lsB{aCddQfN|lKfqAfhJ_g@lxH","url":"/motorcycle-roads/argentina/buenos-aires/ride/paso-jama-argentina-to-chile"},{"slat":"-45.5861","slon":"-72.0757","elat":"-46.8391","elon":"-72.8072","road_type_name":"Rural","road_type_id":"1","length":"257","title":"Coyhaque to Tres Lagos on The Caraterra Austral","rating":"5","comments_count":"2","is_long":"1","simplified_polyline":"pofuGni|vLxeEtjDt|KcgHjgBta@l{FkwGtYaaDrjCenCfgBwdFltCafAvaE_kH|iCeFpcAesBfmFeoBvyHjgB`m@ljBz|A`a@ds@h{AzJ~gBebBr~BpNvtD~}AuS|bDz_DbmBdJfcDfkF`x@hgEx~Dk@f]`xQnvBpwCod@|nErmEpsGbVfkW}`D`eG{IptIazAhmLr]jrCb}@fq@zz@vpHvbC||Bjl@ruGmo@zcAtxDhtOuG~}CxeFrWzcBeeBpqHbmAhqFsvC|Kks@|tBlg@baHajJjyDu{Az|@~P~c@jhBpUwn@f~D~d@`gB_g@`pFdq@x[ot@`{CcNtcA_tAruFc`Bz|GeqGn`Ex`Dh}BtoGd{D|~Dke@`gBr^vvA{|AhlErmAzdJ|rAukDfxDknCndG`f@z|AkfA","polyline":"pofuGni|vLxeEtjDt|KcgHjgBta@l{FkwGtYaaDrjCenCfgBwdFltCafAvaE_kH|iCeFpcAesBfmFeoBvyHjgB`m@ljBz|A`a@ds@h{AzJ~gBebBr~BpNvtD~}AuS|bDz_DbmBdJfcDfkF`x@hgEx~Dk@f]`xQnvBpwCod@|nErmEpsGbVfkW}`D`eG{IptIazAhmLr]jrCb}@fq@zz@vpHvbC||Bjl@ruGmo@zcAtxDhtOuG~}CxeFrWzcBeeBpqHbmAhqFsvC|Kks@|tBlg@baHajJjyDu{Az|@~P~c@jhBpUwn@f~D~d@`gB_g@`pFdq@x[ot@`{CcNtcA_tAruFc`Bz|GeqGn`Ex`Dh}BtoGd{D|~Dke@`gBr^vvA{|AhlErmAzdJ|rAukDfxDknCndG`f@z|AkfA","url":"/motorcycle-roads/chile/aisen/ride/coyhaque-to-tres-lagos-on-the-caraterra-austral"},{"slat":"-32.8712","slon":"-70.5341","elat":"-32.8378","elon":"-70.1297","road_type_name":"Mountainous","road_type_id":"4","length":"61","title":"Santiago - Portillo","rating":"3","comments_count":"1","is_long":"0","simplified_polyline":"fcsgExvlmLi{AqBufCtpD|nCe{Hk\\y_Ex|@sgIxgFgzHp{Co_BcjB{tG_o@isKqmFc}Kn]yvCmvDu{B","polyline":"fcsgExvlmLi{AqBufCtpD|nCe{Hk\\y_Ex|@sgIxgFgzHp{Co_BcjB{tG_o@isKqmFc}Kn]yvCmvDu{B","url":"/motorcycle-roads/chile/santiago-metropolitan/ride/santiago-portillo"},{"slat":"-33.3461","slon":"-70.6943","elat":"-31.5613","elon":"-71.5113","road_type_name":"Rural","road_type_id":"1","length":"324","title":"Santiago - Huentelauquen interior","rating":"5","comments_count":"1","is_long":"1","simplified_polyline":"h|ojEdnnnLpwBa`@mbEx[c_BpqA_pAom@y}KoLsrJeaIsy@ld@_bA_YszHp_GcdD`f@s}IxGudEycAc~DhWehFmwAowGt@urKx}A{xG`}C_|@fyBmmByi@q{DbdBaeJ{lCczKua@ytBkxAag@jr@wdDegA_kBj{@}`EgJqf@xsA~{@~uB_Ub|CbxBx~ExqDlmCdz@f`EugDpuLwqF|u@wuAxzAeeDvVst@h}Cdg@``FqaChsCtZ~uDkw@dg@if@o`A`IrxA{lArdBomHusCoOdx@ewEfjAgsEphGoiCfi@{aDoXsb@|hA_eBeCa~CxaBakB_r@}rArfA}Zyd@moGlmAq`_@}}FqxAtb@}yAmZtNll@_x@zd@bZpq@whAeo@}f@n|As|IqoAsmApaB}yHe|@oaD`qAqVa~BaeDiyBeuCjqCiiEauAqrCp_Ap_FlwYodAvuEmkAxe@o{DdsJ{n@cIeyBhuC}`@ddK{rClkG","polyline":"h|ojEdnnnLpwBa`@mbEx[c_BpqA_pAom@y}KoLsrJeaIsy@ld@_bA_YszHp_GcdD`f@s}IxGudEycAc~DhWehFmwAowGt@urKx}A{xG`}C_|@fyBmmByi@q{DbdBaeJ{lCczKua@ytBkxAag@jr@wdDegA_kBj{@}`EgJqf@xsA~{@~uB_Ub|CbxBx~ExqDlmCdz@f`EugDpuLwqF|u@wuAxzAeeDvVst@h}Cdg@``FqaChsCtZ~uDkw@dg@if@o`A`IrxA{lArdBomHusCoOdx@ewEfjAgsEphGoiCfi@{aDoXsb@|hA_eBeCa~CxaBakB_r@}rArfA}Zyd@moGlmAq`_@}}FqxAtb@}yAmZtNll@_x@zd@bZpq@whAeo@}f@n|As|IqoAsmApaB}yHe|@oaD`qAqVa~BaeDiyBeuCjqCiiEauAqrCp_Ap_FlwYodAvuEmkAxe@o{DdsJ{n@cIeyBhuC}`@ddK{rClkG","url":"/motorcycle-roads/chile/santiago-metropolitan/ride/santiago-huentelauquen-interior"},{"slat":"-30.8184","slon":"-71.2582","elat":"-30.7325","elon":"-71.5139","road_type_name":"Off Road","road_type_id":"9","length":"448","title":"Ovalle - Caimanes","rating":"4","comments_count":"1","is_long":"1","simplified_polyline":"bdb{Dlr|qLyaDcQf~Et_@zjDs|@vByjDr`A}XpIsdBtdB_MhTgw@vrEsj@|`Grx@lxCwdB~{B~AveCyiD|~IcrEhhI}pAdsAwpAqJivA~bAorC~iFu|An}H~iLfPjyDz|ApEvdAd~BaHhdDrsCj{ArjCrwDl~Cpu@leAdzAj_C{aEdoD}}BxnHn\\nf@itDd`@vM{EckGjvHunFnsJ|tAhmFriCzqAp`Dnb@{i@bmGdhYnkF{}Arl@fVjxBujHo~@iuB|a@yjDdpBicCrqFs_@dpDxx@`f@uoAhlBuP~wG~nAdf@e|AvhA|n@}Zom@`y@mi@oNwk@rvAtZ~}Aqb@xoHhgB||Ay]v`OxyCwsAf|KnvBn|AxSntHrjC`iBv~BtoF_@bbFawB~zGbVtuLg{Ij`Be{EsdAyyEjE}qD}kCisFyRy~Hfp@etAhb@_U~`A~S{~@xvAcd@h{EmKe{EpJkwAjd@{d@v~A_mAbKq_GweC_cCxJe|GbaCu{HfbAukP{VavAjaAolWv`F{rBso@qnJveDweRdY}kHohAyXfwAewEr|AokKwp@mzAw_AeqJxrBqxCur@wfDzu@oc@vsB{nE~jA_zHup@}tEixDgpKueBccPgoM","polyline":"bdb{Dlr|qLyaDcQf~Et_@zjDs|@vByjDr`A}XpIsdBtdB_MhTgw@vrEsj@|`Grx@lxCwdB~{B~AveCyiD|~IcrEhhI}pAdsAwpAqJivA~bAorC~iFu|An}H~iLfPjyDz|ApEvdAd~BaHhdDrsCj{ArjCrwDl~Cpu@leAdzAj_C{aEdoD}}BxnHn\\nf@itDd`@vM{EckGjvHunFnsJ|tAhmFriCzqAp`Dnb@{i@bmGdhYnkF{}Arl@fVjxBujHo~@iuB|a@yjDdpBicCrqFs_@dpDxx@`f@uoAhlBuP~wG~nAdf@e|AvhA|n@}Zom@`y@mi@oNwk@rvAtZ~}Aqb@xoHhgB||Ay]v`OxyCwsAf|KnvBn|AxSntHrjC`iBv~BtoF_@bbFawB~zGbVtuLg{Ij`Be{EsdAyyEjE}qD}kCisFyRy~Hfp@etAhb@_U~`A~S{~@xvAcd@h{EmKe{EpJkwAjd@{d@v~A_mAbKq_GweC_cCxJe|GbaCu{HfbAukP{VavAjaAolWv`F{rBso@qnJveDweRdY}kHohAyXfwAewEr|AokKwp@mzAw_AeqJxrBqxCur@wfDzu@oc@vsB{nE~jA_zHup@}tEixDgpKueBccPgoM","url":"/motorcycle-roads/chile/coquimbo/ride/ovalle-caimanes"},{"slat":"-34.6409","slon":"-71.3161","elat":"-34.6995","elon":"-71.7467","road_type_name":"Coastal","road_type_id":"2","length":"249","title":"Ruta Costera vi y vii region","rating":"4","comments_count":"1","is_long":"1","simplified_polyline":"xmlrEvtgrLylA~lD~pA~`GtiCpmDIvrA~qAn[le@trCuv@jdG|\\z~En{EbrIiKbuFjpBz~B`e@~}HhfEg`@|hBdv@llGtGgaD}OxaDzOhoDw}AndDfn@rzAa]raBueDjqF}rAx{FdcDp}A~If`FjfFkpDhlBuaBleC{zDv`L~}DngZyvBtuF~rIdyO{DboFjeAfeCokA|oCaaKzgB}nMy`@ibBqqCasDwwAt_B}uBsPasBkeEfY_bJs|Bex@yqAxrAcsCdk@inKkxDakIimAql@ufB_[_oCjeBurAb@z|@vkAu[r{AvgAnlCkoCn}Bkj@}[{dCfs@s_AwaEle@emA}b@gtBzk@arDqMsmIfkDmvMzoAywAzg@ifE","polyline":"xmlrEvtgrLylA~lD~pA~`GtiCpmDIvrA~qAn[le@trCuv@jdG|\\z~En{EbrIiKbuFjpBz~B`e@~}HhfEg`@|hBdv@llGtGgaD}OxaDzOhoDw}AndDfn@rzAa]raBueDjqF}rAx{FdcDp}A~If`FjfFkpDhlBuaBleC{zDv`L~}DngZyvBtuF~rIdyO{DboFjeAfeCokA|oCaaKzgB}nMy`@ibBqqCasDwwAt_B}uBsPasBkeEfY_bJs|Bex@yqAxrAcsCdk@inKkxDakIimAql@ufB_[_oCjeBurAb@z|@vkAu[r{AvgAnlCkoCn}Bkj@}[{dCfs@s_AwaEle@emA}b@gtBzk@arDqMsmIfkDmvMzoAywAzg@ifE","url":"/motorcycle-roads/chile/biobio/ride/ruta-costera-vi-y-vii-region"},{"slat":"-30.6275","slon":"-71.217","elat":"-30.6564","elon":"-71.1074","road_type_name":"Rural","road_type_id":"1","length":"28","title":"Los Leice-Guallillinga","rating":"3","comments_count":"1","is_long":"0","simplified_polyline":"`}|yDfqtqLpbCufEioD~BsbDuyBt_LonEpPakC}l@aP","polyline":"`}|yDfqtqLpbCufEioD~BsbDuyBt_LonEpPakC}l@aP","url":"/motorcycle-roads/chile/coquimbo/ride/los-leice-guallillinga"},{"slat":"-30.5856","slon":"-71.1923","elat":"-30.0673","elon":"-70.7287","road_type_name":"Rural","road_type_id":"1","length":"114","title":"Ruta Antakari : Ovalle","rating":"5","comments_count":"1","is_long":"0","simplified_polyline":"pwtyDhvoqLydKqzIwtHsiN_]qrE_wFmdHkzBunA|l@i}Gkp@agEyiDaaGkS_fF_sHu{LapFy~ConBwfH_qFyyBw`AfuAi]ku@ydGlfBuiCgp@ggAdnEceDlE{fC|tDckBz}@o_Aka@","polyline":"pwtyDhvoqLydKqzIwtHsiN_]qrE_wFmdHkzBunA|l@i}Gkp@agEyiDaaGkS_fF_sHu{LapFy~ConBwfH_qFyyBw`AfuAi]ku@ydGlfBuiCgp@ggAdnEceDlE{fC|tDckBz}@o_Aka@","url":"/motorcycle-roads/chile/coquimbo/ride/ruta-antakari-ovalle"},{"slat":"-30.6594","slon":"-71.2197","elat":"-31.1696","elon":"-71.014","road_type_name":"Rural","road_type_id":"1","length":"79","title":"Ovalle - Combarbala","rating":"4","comments_count":"1","is_long":"0","simplified_polyline":"bdczDbcuqL|hOh|CvjA`|@veMnb@zhDk{@fDekDnaAoZxIidBncBkLzU{w@vqEgj@zaGfx@lvC{cB`|B`B|gCmkDnaJ_sEnlIatAtoAezAkGqhJfvAkP~b@ioA","polyline":"bdczDbcuqL|hOh|CvjA`|@veMnb@zhDk{@fDekDnaAoZxIidBncBkLzU{w@vqEgj@zaGfx@lvC{cB`|B`B|gCmkDnaJ_sEnlIatAtoAezAkGqhJfvAkP~b@ioA","url":"/motorcycle-roads/chile/coquimbo/ride/ovalle-combarbala"},{"slat":"-29.9791","slon":"-70.961","elat":"-30.1721","elon":"-69.844","road_type_name":"Mountainous","road_type_id":"4","length":"183","title":"Paso Agua Negra : La Serena","rating":"5","comments_count":"1","is_long":"0","simplified_polyline":"rg~uDdibpLpo@qgDoNk|D|jBeoJ|lDoiF}LmbDniBkbKm_Bc~C~UydF}oBc`Iy}C}tCazB}jFo~Ne{Bi}Fo~Die@yiFp[ixJdbH{uNvjBelAl~A|@v|BkeCpeGaaCeD_qCmiAsz@kl@awEwoAweBziC_vNpeF{m@l{Gll@tnNybEbqCyfBfyHkC`fHsnDxyA_vHkQqjBuwAmlBmzK}zBmdDozEui@rDf@ezAx\\x]feAsxC","polyline":"rg~uDdibpLpo@qgDoNk|D|jBeoJ|lDoiF}LmbDniBkbKm_Bc~C~UydF}oBc`Iy}C}tCazB}jFo~Ne{Bi}Fo~Die@yiFp[ixJdbH{uNvjBelAl~A|@v|BkeCpeGaaCeD_qCmiAsz@kl@awEwoAweBziC_vNpeF{m@l{Gll@tnNybEbqCyfBfyHkC`fHsnDxyA_vHkQqjBuwAmlBmzK}zBmdDozEui@rDf@ezAx\\x]feAsxC","url":"/motorcycle-roads/chile/coquimbo/ride/paso-agua-negra-la-serena"},{"slat":"-27.3897","slon":"-70.3087","elat":"-27.6768","elon":"-67.6487","road_type_name":"Mountainous","road_type_id":"4","length":"473","title":"Paso San Francisco : Copiapó - Argentina","rating":"4","comments_count":"1","is_long":"1","simplified_polyline":"brdfD~bclLnuDstEuiIs_ForFyzIu`A_|BeWsxG}}Jct[cyFmaHa`IewE_tCu}G~AsiE{zDe`Q}mQecKkxAalBwa@qeDicCudBidCcmFqxNu`Lsf@gfV|n@sjFbbBokDl`@ucHscAckEg~Biv@cmCrYceCqxChHkaB`mEikGotAexPjgAmv@rdb@u_G~nFyaCpxAooD}f@e|Anb@nHoBas@ghBs`Am_ByeDw{HwyAqtDazFyqDekP_yC_wHkm@goI|{@k`OimDyiGd@{_GvuAq_ErX_wM}lDecFcsBqlOx|BmfGkDmvBzqAcz@|oBi_FJ}aF~bCq|Hn|Bol@hoHjtBvxCmQnqDjpArsGvQneSn~CprDeCnjAhz@jsXjxC`eE{M`gDo{CblFcc@`pXr|In_Dm]b`JfmAvqDii@z{AckDdxDa_@hkEsjF_X}vAlf@_Gd{AseI_zKcqDqeFohFGg`P_qAicMudAg_DsnC}|Ae|CgaFyxCi|BrVc_AbsK}kH","polyline":"brdfD~bclLnuDstEuiIs_ForFyzIu`A_|BeWsxG}}Jct[cyFmaHa`IewE_tCu}G~AsiE{zDe`Q}mQecKkxAalBwa@qeDicCudBidCcmFqxNu`Lsf@gfV|n@sjFbbBokDl`@ucHscAckEg~Biv@cmCrYceCqxChHkaB`mEikGotAexPjgAmv@rdb@u_G~nFyaCpxAooD}f@e|Anb@nHoBas@ghBs`Am_ByeDw{HwyAqtDazFyqDekP_yC_wHkm@goI|{@k`OimDyiGd@{_GvuAq_ErX_wM}lDecFcsBqlOx|BmfGkDmvBzqAcz@|oBi_FJ}aF~bCq|Hn|Bol@hoHjtBvxCmQnqDjpArsGvQneSn~CprDeCnjAhz@jsXjxC`eE{M`gDo{CblFcc@`pXr|In_Dm]b`JfmAvqDii@z{AckDdxDa_@hkEsjF_X}vAlf@_Gd{AseI_zKcqDqeFohFGg`P_qAicMudAg_DsnC}|Ae|CgaFyxCi|BrVc_AbsK}kH","url":"/motorcycle-roads/chile/atacama/ride/paso-san-francisco-copiapo-argentina"},{"slat":"-30.5915","slon":"-71.1501","elat":"-31.0124","elon":"-70.715","road_type_name":"Rural","road_type_id":"1","length":"79","title":"Ovalle - Las Ramadas","rating":"3","comments_count":"1","is_long":"0","simplified_polyline":"d|uyDbogqLvz@auAntGwcDnqEw_GtxAmiFjaBgg@ifA}jC}DewF`Ms`HlhAsdGpqCok@hiGmdH|rFqjBbJofA~iDqrCdaIf~@vvKmh@zfEc|GntBcaA","polyline":"d|uyDbogqLvz@auAntGwcDnqEw_GtxAmiFjaBgg@ifA}jC}DewF`Ms`HlhAsdGpqCok@hiGmdH|rFqjBbJofA~iDqrCdaIf~@vvKmh@zfEc|GntBcaA","url":"/motorcycle-roads/chile/coquimbo/ride/ovalle-las-ramadas"},{"slat":"-30.6673","slon":"-71.224","elat":"-33.191","elon":"-70.6543","road_type_name":"Off Road","road_type_id":"9","length":"439","title":"Ovalle/Santiago por el interior","rating":"4","comments_count":"1","is_long":"1","simplified_polyline":"~udzDn{uqL`wM|cCvjA`|@bsMls@r}Bwp@ng@ep@oDeuClaAoZrIqdBtcBmLjUww@vqEmj@bbGlx@bvCscBx}B`AveCyiDz`JesEhnI}tAtoAezAcGkiJnuAgOjdAotBlrEtlGphE{If~C|rAjkCbnDpoBgxAz`Dj_CjN{m@dhAbr@|lAq|@h_@xqAlsAw~@vaGzXpjAbhAbgB_u@p}LeMtgFrf@jcHldCpqCbuEda@cj@jWfnAlsA|_@tMpkCqMikCws@iNUps@~qDj~Sb`CjAhoC{kArl@fVrcCufHwiA}zB~l@eiEtcEeeCnbI`z@xg@uoAxmByPtsGvoAji@y|A`iAzm@s[_n@jy@kh@iPyj@tyAfZ||Akb@bnH|fBp}Aw]l~H~~B|}CiLvlC~bApuGuoAzV~f@bsAshAvoBtr@zyC_aBrcBhD|h@wkAp{CbZ|nC}j@noEcfGbwEikA~Nex@xkH~uCxpA}gBkIgxAvXrn@_{@olDtMujB|nCc}@dwAcjKjcDoTntAqzAnuFiw@hfDcuLez@e`EyqDmmCcxBy~EbUk{Ci|@auBph@cvAhaEpJfgBa{@feDbgAxi@er@~xB~yAfpKb_@`kKheCp{Ca{Add@iaDxhGk{Lf{A{`HrbClcA~dLzgNnyDjDxkFrwAxiCk[buFzgA~dJ}Hn}Cie@r}Hw`Gf|CcFfb@do@","polyline":"~udzDn{uqL`wM|cCvjA`|@bsMls@r}Bwp@ng@ep@oDeuClaAoZrIqdBtcBmLjUww@vqEmj@bbGlx@bvCscBx}B`AveCyiDz`JesEhnI}tAtoAezAcGkiJnuAgOjdAotBlrEtlGphE{If~C|rAjkCbnDpoBgxAz`Dj_CjN{m@dhAbr@|lAq|@h_@xqAlsAw~@vaGzXpjAbhAbgB_u@p}LeMtgFrf@jcHldCpqCbuEda@cj@jWfnAlsA|_@tMpkCqMikCws@iNUps@~qDj~Sb`CjAhoC{kArl@fVrcCufHwiA}zB~l@eiEtcEeeCnbI`z@xg@uoAxmByPtsGvoAji@y|A`iAzm@s[_n@jy@kh@iPyj@tyAfZ||Akb@bnH|fBp}Aw]l~H~~B|}CiLvlC~bApuGuoAzV~f@bsAshAvoBtr@zyC_aBrcBhD|h@wkAp{CbZ|nC}j@noEcfGbwEikA~Nex@xkH~uCxpA}gBkIgxAvXrn@_{@olDtMujB|nCc}@dwAcjKjcDoTntAqzAnuFiw@hfDcuLez@e`EyqDmmCcxBy~EbUk{Ci|@auBph@cvAhaEpJfgBa{@feDbgAxi@er@~xB~yAfpKb_@`kKheCp{Ca{Add@iaDxhGk{Lf{A{`HrbClcA~dLzgNnyDjDxkFrwAxiCk[buFzgA~dJ}Hn}Cie@r}Hw`Gf|CcFfb@do@","url":"/motorcycle-roads/chile/coquimbo/ride/ovalle-santiago-por-el-interior"},{"slat":"-30.5348","slon":"-71.6666","elat":"-30.6109","elon":"-71.2209","road_type_name":"Rural","road_type_id":"1","length":"56","title":"Fundo El Sauce","rating":"5","comments_count":"1","is_long":"0","simplified_polyline":"tyjyDdkltL|aAwmEncB}Tt|AshJ`v@ui@{p@i~Ezm@anEl_B`Qi_@ubGj{@}dG_o@sq@zkBtLnNevJlbBwoEk]gbFnm@yGa{CsgJ","polyline":"tyjyDdkltL|aAwmEncB}Tt|AshJ`v@ui@{p@i~Ezm@anEl_B`Qi_@ubGj{@}dG_o@sq@zkBtLnNevJlbBwoEk]gbFnm@yGa{CsgJ","url":"/motorcycle-roads/chile/coquimbo/ride/fundo-el-sauce"},{"slat":"-30.3316","slon":"-71.5398","elat":"-30.6551","elon":"-71.2506","road_type_name":"Trail","road_type_id":"6","length":"94","title":"Ovalle - Tongoy","rating":"3","comments_count":"1","is_long":"0","simplified_polyline":"~dcxDbmssLi|@eNkbEi`GkqBolA}w@vR{}C_sGwzBmhKnIqiFmi@cnB|]q~BqxA}qIz}N~{@ll@zi@ruEo`C`sF{d@z|MwwKlhKmgDzrObnG`tBhhDbdE|uA~sAr{B","polyline":"~dcxDbmssLi|@eNkbEi`GkqBolA}w@vR{}C_sGwzBmhKnIqiFmi@cnB|]q~BqxA}qIz}N~{@ll@zi@ruEo`C`sF{d@z|MwwKlhKmgDzrObnG`tBhhDbdE|uA~sAr{B","url":"/motorcycle-roads/chile/coquimbo/ride/ovalle-tongoy"},{"slat":"-20.4646","slon":"-66.8255","elat":"-22.4418","elon":"-68.8918","road_type_name":"Off Road","road_type_id":"9","length":"419","title":"RN5 / CH12 : Uyuni - Calama","rating":"5","comments_count":"1","is_long":"1","simplified_polyline":"n~{{B~yzvKva@uc@rrb@bnGxiDvbFpfKjuEhmMdjCx{VnnKv|ChtDe~@`yDusC~sBenAx`FirBzdBiaJhdPugAhxHux@feApfE|sPfrCv}C?dnCzdBxcD}`AlvE`~DvnLe}FbjHmfBx_KeBncDvkG~_Kv{AbqFgjF~cRt|@iKjcJnbFpuBx`DnxCet@jmDtxBzbAmEfoC``ErgDnzAlyGn}Mf`Et}@|uMdd\\dqIrbBpxEdHzcInjDz|CfJj{@lxBjPbxEbvC|oAfOloBzrA_V~`I|dBbyIypNtoEii@|wBb\\dyDgmE`wBuf@dvD{_D|xAoEfcH|rGtwBpxIvmEjdG|W|_FhiF|`Npu@bVvdH_}AvwF`pBnJvzAdqCfqD|wIvwFh{g@n]tyPnaHfjDbf@zFxr@vfE`tA|_Dv~F`_@vkK`_DtaKt|@`cI","polyline":"n~{{B~yzvKva@uc@rrb@bnGxiDvbFpfKjuEhmMdjCx{VnnKv|ChtDe~@`yDusC~sBenAx`FirBzdBiaJhdPugAhxHux@feApfE|sPfrCv}C?dnCzdBxcD}`AlvE`~DvnLe}FbjHmfBx_KeBncDvkG~_Kv{AbqFgjF~cRt|@iKjcJnbFpuBx`DnxCet@jmDtxBzbAmEfoC``ErgDnzAlyGn}Mf`Et}@|uMdd\\dqIrbBpxEdHzcInjDz|CfJj{@lxBjPbxEbvC|oAfOloBzrA_V~`I|dBbyIypNtoEii@|wBb\\dyDgmE`wBuf@dvD{_D|xAoEfcH|rGtwBpxIvmEjdG|W|_FhiF|`Npu@bVvdH_}AvwF`pBnJvzAdqCfqD|wIvwFh{g@n]tyPnaHfjDbf@zFxr@vfE`tA|_Dv~F`_@vkK`_DtaKt|@`cI","url":"/motorcycle-roads/bolivia/bolivia/ride/rn5-ch12-uyuni-calama"},{"slat":"-33.5042","slon":"-70.8081","elat":"-33.5487","elon":"-71.5675","road_type_name":"Mountainous","road_type_id":"4","length":"147","title":"Santiago - El Quisco (loop)","rating":"4","comments_count":"1","is_long":"0","simplified_polyline":"dwnkEntdoLyc@l}A~dBjP|Cvi@vfDa^~l@|uDo~D~cJn}CnoBbYzvAepMpgOmqFaB_sC`uDk_A|{GtjAtmHylB`bObl@tY_IzbBkoA|jA}G~vBsfArdApUdy@glAaK{nG`rRu|@rp@~f@jtA}kEtvN~rBdlChKzcFlgE`rGeOthEzqBv_Alu@|vBroFy{CthCq[vgAsyAthAxTftBsvBzu@qvCdtDwjDrnCy]xbChhA","polyline":"dwnkEntdoLyc@l}A~dBjP|Cvi@vfDa^~l@|uDo~D~cJn}CnoBbYzvAepMpgOmqFaB_sC`uDk_A|{GtjAtmHylB`bObl@tY_IzbBkoA|jA}G~vBsfArdApUdy@glAaK{nG`rRu|@rp@~f@jtA}kEtvN~rBdlChKzcFlgE`rGeOthEzqBv_Alu@|vBroFy{CthCq[vgAsyAthAxTftBsvBzu@qvCdtDwjDrnCy]xbChhA","url":"/motorcycle-roads/chile/santiago-metropolitan/ride/santiago-el-quisco-loop"},{"slat":"-33.3651","slon":"-70.6895","elat":"-30.6036","elon":"-71.2027","road_type_name":"Mountainous","road_type_id":"4","length":"453","title":"Santiago - Ovalle","rating":"5","comments_count":"1","is_long":"1","simplified_polyline":"|rsjEdpmnL}_EdXm~A`rAcrA_n@{zKqKcuJ}aIsx@nd@{`AwYg_I~aGu}Czc@__JzHegEodAqxDhX}lFcwAeyGp@woK~|AeyGl}C_|@t|BanB_i@}lDb~AiuIs`CklL{d@}iCs}Ao]to@sfDofAimDteAy{BwUyh@xxAt|@`tB?veF{jBoy@qn@d{AmqDreBne@`xC{hAjaBsrA`mMjnCfxDofA~uEli@dtEgcC~|C`^pvDg|@xh@if@u_AzJxsAqrAxlBcjHiwCeOpx@{vE`jAgsEvhGmlCxi@_|CmZse@pjAcfBgCk{ChaBunBks@yrAbiAkTgg@kwGbpAyqCmdAg{CrMwzHi~BsaB~\\coHmgB{uDtHvQ`i@sy@lh@v[zn@stAkk@{\\fzAguGsoA}mBfQwe@poAeaI{{@ahEfgC}l@fkEldAhyBmyBd`Hm|GblAegH}cXtV_c@c`@xi@asCuvEoaHccCmeFqf@wnIvoFfFzhGu`@cKke@fsDmoH{[wmDn|Bq`ChbEeeAcyA}{Cis@smCsyD_sCozArQmjC{nAsxC_|AkDiQwzDgiMy_R{cA|sBcqAtRtBlyJorAlhA_mIxsAk~IjqEegC`kDm|ByAovCvcB}uGqgAakEno@kMlt@_pBtUb@duAgw@dXpGttCaiEn}AseMyg@kaUgmGyx@noAc{@{BykA}\\__@ouA","polyline":"|rsjEdpmnL}_EdXm~A`rAcrA_n@{zKqKcuJ}aIsx@nd@{`AwYg_I~aGu}Czc@__JzHegEodAqxDhX}lFcwAeyGp@woK~|AeyGl}C_|@t|BanB_i@}lDb~AiuIs`CklL{d@}iCs}Ao]to@sfDofAimDteAy{BwUyh@xxAt|@`tB?veF{jBoy@qn@d{AmqDreBne@`xC{hAjaBsrA`mMjnCfxDofA~uEli@dtEgcC~|C`^pvDg|@xh@if@u_AzJxsAqrAxlBcjHiwCeOpx@{vE`jAgsEvhGmlCxi@_|CmZse@pjAcfBgCk{ChaBunBks@yrAbiAkTgg@kwGbpAyqCmdAg{CrMwzHi~BsaB~\\coHmgB{uDtHvQ`i@sy@lh@v[zn@stAkk@{\\fzAguGsoA}mBfQwe@poAeaI{{@ahEfgC}l@fkEldAhyBmyBd`Hm|GblAegH}cXtV_c@c`@xi@asCuvEoaHccCmeFqf@wnIvoFfFzhGu`@cKke@fsDmoH{[wmDn|Bq`ChbEeeAcyA}{Cis@smCsyD_sCozArQmjC{nAsxC_|AkDiQwzDgiMy_R{cA|sBcqAtRtBlyJorAlhA_mIxsAk~IjqEegC`kDm|ByAovCvcB}uGqgAakEno@kMlt@_pBtUb@duAgw@dXpGttCaiEn}AseMyg@kaUgmGyx@noAc{@{BykA}\\__@ouA","url":"/motorcycle-roads/chile/santiago-metropolitan/ride/santiago-ovalle"},{"slat":"-33.3224","slon":"-70.5531","elat":"-33.2998","elon":"-70.7292","road_type_name":"Cruiser","road_type_id":"8","length":"210","title":"Pie Andino - Los Andes - San Felipe","rating":"3","comments_count":"1","is_long":"1","simplified_polyline":"xgkjEv{rmLwhAvnGo_F|o@`j@~^e~@|dAzs@~h@`i@fzFhdBaMwB_b@ohAbiG`r@xnDwk@}~DglIiRagIe{Ho~CrFg_I~aG}_Dbd@y{IrHchEodAuoCt]yuGo|A_oDpAmhKe`Mf\\jyAmaD~lMmfGzsCa{@`|BuvAca@_jAhjFjkAjiFl_Fz|IbtCxzIs`@`nExy@bzBvaEnbBl|@irW~_G}aGrfBqj@lfFzi@`_GxhFfwAbqDrgApShaHmnA`}P{qNpvBkRzwWegK","polyline":"xgkjEv{rmLwhAvnGo_F|o@`j@~^e~@|dAzs@~h@`i@fzFhdBaMwB_b@ohAbiG`r@xnDwk@}~DglIiRagIe{Ho~CrFg_I~aG}_Dbd@y{IrHchEodAuoCt]yuGo|A_oDpAmhKe`Mf\\jyAmaD~lMmfGzsCa{@`|BuvAca@_jAhjFjkAjiFl_Fz|IbtCxzIs`@`nExy@bzBvaEnbBl|@irW~_G}aGrfBqj@lfFzi@`_GxhFfwAbqDrgApShaHmnA`}P{qNpvBkRzwWegK","url":"/motorcycle-roads/chile/santiago-metropolitan/ride/pie-andino-los-andes-san-felipe"},{"slat":"-33.3643","slon":"-70.4907","elat":"-33.3265","elon":"-70.3621","road_type_name":"Mountainous","road_type_id":"4","length":"18","title":"Ruta G21 Farellones - Mina La Disputada","rating":"4","comments_count":"1","is_long":"0","simplified_polyline":"bosjEbvfmL|q@ubPmxBc_FweD_`@","polyline":"bosjEbvfmL|q@ubPmxBc_FweD_`@","url":"/motorcycle-roads/chile/santiago-metropolitan/ride/ruta-g21-farellones-mina-la-disputada"},{"slat":"-32.8346","slon":"-70.5976","elat":"-32.8907","elon":"-68.8449","road_type_name":"Mountainous","road_type_id":"4","length":"282","title":"Los Andes-Mendoza","rating":"4","comments_count":"1","is_long":"1","simplified_polyline":"d_lgE`r{mLaMalGztDglKkl@ccCjdAupJxpFqiH`jCmqAcmBcwGoq@m_NcdEwpIpZmuAomAk@b}@y_@asAac@|q@cZqwAux@xh@mhD}zImwDrvBoqJg^az@vu@y|UpaGcnV_aBaxAecDsaK}{E}tHqv@ooF{aIy{Gam@ouBusPufIsdA}rC|@{|IqcE}dI|M_hAjzDrDdqCftAxdEpY~fBk}B~lJufDx_FxJ`_DcdCrfAeD`~CgyEt_Bvc@byB{cAfkDhd@zr@mkAiYc`BrhAgg@|AsfAdgBobAbmBbDjhBmeEzkBae@|vCziAh~F_pDjqCemH_v@snKpyCqg^z}AkZ}dNiiAudUgpGmT|xAuvDoh@_LhwA","polyline":"d_lgE`r{mLaMalGztDglKkl@ccCjdAupJxpFqiH`jCmqAcmBcwGoq@m_NcdEwpIpZmuAomAk@b}@y_@asAac@|q@cZqwAux@xh@mhD}zImwDrvBoqJg^az@vu@y|UpaGcnV_aBaxAecDsaK}{E}tHqv@ooF{aIy{Gam@ouBusPufIsdA}rC|@{|IqcE}dI|M_hAjzDrDdqCftAxdEpY~fBk}B~lJufDx_FxJ`_DcdCrfAeD`~CgyEt_Bvc@byB{cAfkDhd@zr@mkAiYc`BrhAgg@|AsfAdgBobAbmBbDjhBmeEzkBae@|vCziAh~F_pDjqCemH_v@snKpyCqg^z}AkZ}dNiiAudUgpGmT|xAuvDoh@_LhwA","url":"/motorcycle-roads/chile/valparaiso/ride/los-andes-mendoza"},{"slat":"-33.2795","slon":"-70.7548","elat":"-33.0983","elon":"-70.9267","road_type_name":"Rural","road_type_id":"1","length":"39","title":"Santiago - Til Til (inicio Cuesta la Dormida)","rating":"5","comments_count":"1","is_long":"0","simplified_polyline":"h|bjEvhznLd`ArpBmiAnzAk`@n{J`dAdpCsjGxbIagBnDg{Bk`AqrA}kByoDsPocCbjC{mGfcA","polyline":"h|bjEvhznLd`ArpBmiAnzAk`@n{J`dAdpCsjGxbIagBnDg{Bk`AqrA}kByoDsPocCbjC{mGfcA","url":"/motorcycle-roads/chile/santiago-metropolitan/ride/santiago-til-til-inicio-cuesta-la-dormida"},{"slat":"-33.4046","slon":"-70.7828","elat":"-33.3696","elon":"-70.6741","road_type_name":"Rural","road_type_id":"1","length":"38","title":"Lo echevers, Noviciado, Aeropuerto","rating":"4","comments_count":"1","is_long":"0","simplified_polyline":"~i{jEhw_oLwgEjKhCty@teAdZaWnhHcqKedAldI__Jbp@s`Ey~@_pHrUwyC","polyline":"~i{jEhw_oLwgEjKhCty@teAdZaWnhHcqKedAldI__Jbp@s`Ey~@_pHrUwyC","url":"/motorcycle-roads/chile/santiago-metropolitan/ride/lo-echevers-noviciado-aeropuerto"},{"slat":"-20.2355","slon":"-70.1518","elat":"-20.2358","elon":"-70.1517","road_type_name":"Rural","road_type_id":"1","length":"395","title":"Ruta Salar del Guasco","rating":"4","comments_count":"1","is_long":"1","simplified_polyline":"vfozBrodkL`c@}tBk{BcF`tKa~Cw}CibEyHqjGsuBupEuFgmCmmCgxIyf@wqXvtI}\\~gK}nE|p@s`QjsIkvBz|EmuFh~AwdL`cIgpYhaC_rEyPsq@tcAm^m`@ut@}gAdXylBk~CxlBj~Cj}@}Wtj@pu@kcAh]xPtq@iaC|qEklMrrh@c|E{`FowKqxFk~@}iC_fFoZo~Ag}BmkEk|Axn@ueHag@{tFlkEksCqbDeqEntAejM}lA{rF|iA}`BfuHhSvIqnWxp@kxDvxCt`EfyCveIbmDzeEt_FxaMp}Ix}JrgEznHp}@uW~j@lt@ucAl^xPtq@iaC|qEacIfpYi~AvdL{|EluFurIztB{cAxjQwuJffEikIhg@cZxoCtw@vqSlwChpK_rArhK~hCnzBrj@~{G_~EzxBfmBcS}M`oC","polyline":"vfozBrodkL`c@}tBk{BcF`tKa~Cw}CibEyHqjGsuBupEuFgmCmmCgxIyf@wqXvtI}\\~gK}nE|p@s`QjsIkvBz|EmuFh~AwdL`cIgpYhaC_rEyPsq@tcAm^m`@ut@}gAdXylBk~CxlBj~Cj}@}Wtj@pu@kcAh]xPtq@iaC|qEklMrrh@c|E{`FowKqxFk~@}iC_fFoZo~Ag}BmkEk|Axn@ueHag@{tFlkEksCqbDeqEntAejM}lA{rF|iA}`BfuHhSvIqnWxp@kxDvxCt`EfyCveIbmDzeEt_FxaMp}Ix}JrgEznHp}@uW~j@lt@ucAl^xPtq@iaC|qEacIfpYi~AvdL{|EluFurIztB{cAxjQwuJffEikIhg@cZxoCtw@vqSlwChpK_rArhK~hCnzBrj@~{G_~EzxBfmBcS}M`oC","url":"/motorcycle-roads/chile/tarapaca/ride/ruta-salar-del-guasco"},{"slat":"-30.6023","slon":"-71.2025","elat":"-30.6035","elon":"-71.2022","road_type_name":"Rural","road_type_id":"1","length":"102","title":"Ovalle - Alcones - Chalinga - Ovalle","rating":"4","comments_count":"1","is_long":"0","simplified_polyline":"h_xyDtvqqL~u@f{Br~BhI|w@`qBlnDbak@hpBvOlk@ldCt|@dCpbIvwIt_F{vAlr@u}EgvA{xF{dEwwDhzF{pEwM_{EgtA{_DmDs`O{kE`CggCy~AelKagCgmCmGkClwAgeDqeAgc@szA","polyline":"h_xyDtvqqL~u@f{Br~BhI|w@`qBlnDbak@hpBvOlk@ldCt|@dCpbIvwIt_F{vAlr@u}EgvA{xF{dEwwDhzF{pEwM_{EgtA{_DmDs`O{kE`CggCy~AelKagCgmCmGkClwAgeDqeAgc@szA","url":"/motorcycle-roads/chile/coquimbo/ride/ovalle-alcones-chalinga-ovalle"},{"slat":"-30.6037","slon":"-71.2027","elat":"-30.1966","elon":"-71.4314","road_type_name":"Rural","road_type_id":"1","length":"73","title":"Ovalle - Guanaqueros","rating":"5","comments_count":"1","is_long":"0","simplified_polyline":"|gxyDfxqqL_pRauJ{c^`kR_jLlkAmpNor@fsAxlIqC~bIbbCj~JEdeA}wBc^soAzTsE`w@","polyline":"|gxyDfxqqL_pRauJ{c^`kR_jLlkAmpNor@fsAxlIqC~bIbbCj~JEdeA}wBc^soAzTsE`w@","url":"/motorcycle-roads/chile/coquimbo/ride/ovalle-guanaqueros"},{"slat":"-30.6059","slon":"-71.1953","elat":"-30.6948","elon":"-70.9586","road_type_name":"Mountainous","road_type_id":"4","length":"28","title":"Ovalle - Monte Patria","rating":"5","comments_count":"1","is_long":"0","simplified_polyline":"dvxyDxipqL}tAqqDl`@waDx`Ga~Clm@q{FtkBcgBlpC_dHthAk~E}V}hB","polyline":"dvxyDxipqL}tAqqDl`@waDx`Ga~Clm@q{FtkBcgBlpC_dHthAk~E}V}hB","url":"/motorcycle-roads/chile/coquimbo/ride/ovalle-monte-patria"}]