[{"slat":"25.0406","slon":"121.296","elat":"25.1034","elon":"121.291","road_type_name":"Mountainous","road_type_id":"4","length":"141","title":"Taiwan North Coast - Yangmingshan National Park - Luchu","rating":"4","comments_count":"1","is_long":"0","simplified_polyline":"mvywCgsicVgwDdaAwqEgb@klAzsBki@{dKscFy|PzkAgvBnsCmi@cSmy@qjGtDwdDp}A}zHwtAihBchCzJsoCgsCuoBcmAcoIx~B__G|cDgkBfwDfQlYrjDhjFrgCu\\h`Axi@tk@oo@dm@fn@f@_NdzA|`Fa]zEj{Awx@s@|}AnyEd`BiEqn@jnFh\\~i@{nC|p@mlAlxBheF|aQ}B~sEzhAkg@vq@`}A","polyline":"mvywCgsicVgwDdaAwqEgb@klAzsBki@{dKscFy|PzkAgvBnsCmi@cSmy@qjGtDwdDp}A}zHwtAihBchCzJsoCgsCuoBcmAcoIx~B__G|cDgkBfwDfQlYrjDhjFrgCu\\h`Axi@tk@oo@dm@fn@f@_NdzA|`Fa]zEj{Awx@s@|}AnyEd`BiEqn@jnFh\\~i@{nC|p@mlAlxBheF|aQ}B~sEzhAkg@vq@`}A","url":"/motorcycle-roads/china/taiwan-islands/ride/taiwan-north-coast-yangmingshan-national-park-luchu"},{"slat":"24.1555","slon":"121.621","elat":"23.9878","elon":"121.02","road_type_name":"Rural","road_type_id":"1","length":"133","title":"Taroko","rating":"5","comments_count":"1","is_long":"0","simplified_polyline":"{{nrCkreeVgg@xWfU`hAur@dG~p@dgHmcApoDvRnz@_r@vaAexDlh@jxCsHelCtuInNt|@~c@qy@eRl_Alv@csA~UnaB`}@o\\{|@t|AdCzkCjaAwFpQwmBtp@fqCehBjsEbq@vJso@b~@rw@b|DtkCvpBuV|SpsB_N`a@`gAb_BlD|iA|aM~pAh`C`cBfgAlhGzz@ja@b]si@nr@`rAzAnbEviLa{@pmAdg@pxB","polyline":"{{nrCkreeVgg@xWfU`hAur@dG~p@dgHmcApoDvRnz@_r@vaAexDlh@jxCsHelCtuInNt|@~c@qy@eRl_Alv@csA~UnaB`}@o\\{|@t|AdCzkCjaAwFpQwmBtp@fqCehBjsEbq@vJso@b~@rw@b|DtkCvpBuV|SpsB_N`a@`gAb_BlD|iA|aM~pAh`C`cBfgAlhGzz@ja@b]si@nr@`rAzAnbEviLa{@pmAdg@pxB","url":"/motorcycle-roads/china/taiwan-islands/ride/taroko"},{"slat":"23.7758","slon":"120.869","elat":"23.4387","elon":"120.606","road_type_name":"Mountainous","road_type_id":"4","length":"140","title":"Yushan and Alishan","rating":"4","comments_count":"1","is_long":"0","simplified_polyline":"ic_pC_gu`V|mCby@xgFzCroM}zFbxEj[nkCjfCtnBl^quCmfFheCmaBzjAv`AjWut@pxB|L}hDfiAjkDh@so@nRth@~c@|lCoOzyBtiBsv@jo@zl@ty@ogAfe@xqAzTo@~}@mgBf~BwvAyMhYxyBkq@fD|Ttp@fw@{^q^pZpw@hGaj@`sAj{@_EmTbyC`nA`t@wLpdAhjCnjAezBdq@jx@n_@aSrlA~~I|eHnjAyZitAhpAwuAmJ}NlxA","polyline":"ic_pC_gu`V|mCby@xgFzCroM}zFbxEj[nkCjfCtnBl^quCmfFheCmaBzjAv`AjWut@pxB|L}hDfiAjkDh@so@nRth@~c@|lCoOzyBtiBsv@jo@zl@ty@ogAfe@xqAzTo@~}@mgBf~BwvAyMhYxyBkq@fD|Ttp@fw@{^q^pZpw@hGaj@`sAj{@_EmTbyC`nA`t@wLpdAhjCnjAezBdq@jx@n_@aSrlA~~I|eHnjAyZitAhpAwuAmJ}NlxA","url":"/motorcycle-roads/china/taiwan-islands/ride/yushan-and-alishan"},{"slat":"23.8719","slon":"120.92","elat":"23.8717","elon":"120.923","road_type_name":"Rural","road_type_id":"1","length":"29","title":"Sun Moon Lake Lap","rating":"5","comments_count":"1","is_long":"0","simplified_polyline":"mfupCiw`aV|iAqcCraBpaBwq@de@|v@zVe}@ra@jbBca@bf@~{@ciAxeAmuBeNweAuoB","polyline":"mfupCiw`aV|iAqcCraBpaBwq@de@|v@zVe}@ra@jbBca@bf@~{@ciAxeAmuBeNweAuoB","url":"/motorcycle-roads/china/taiwan-islands/ride/sun-moon-lake-lap"},{"slat":"22.3923","slon":"114.277","elat":"22.3922","elon":"114.277","road_type_name":"Mountainous","road_type_id":"4","length":"32","title":"Sai Kung : Momentary Respite","rating":"4","comments_count":"1","is_long":"0","simplified_polyline":"qntgCqtnxTplF`eDloAsm@bl@pjEq]q^olBfr@lDzo@bhCkZup@}pFogArm@grFwgD","polyline":"qntgCqtnxTplF`eDloAsm@bl@pjEq]q^olBfr@lDzo@bhCkZup@}pFogArm@grFwgD","url":"/motorcycle-roads/china/hong-kong/ride/sai-kung-momentary-respite"},{"slat":"22.4355","slon":"114.2","elat":"22.4356","elon":"114.2","road_type_name":"Urban","road_type_id":"3","length":"9","title":"Science Circuit","rating":"4","comments_count":"1","is_long":"0","simplified_polyline":"{||gCuw_xTbw@{NsyBdtD|`AeaD","polyline":"{||gCuw_xTbw@{NsyBdtD|`AeaD","url":"/motorcycle-roads/china/hong-kong/ride/science-circuit"},{"slat":"22.405","slon":"114.206","elat":"22.461","elon":"114.147","road_type_name":"Urban","road_type_id":"3","length":"13","title":"Tai Po Road","rating":"3","comments_count":"1","is_long":"0","simplified_polyline":"{~vgCuz`xTgi@mVsr@vsAknAfQ}hAbkBhZfcB_lAtu@h@kl@ot@jgA","polyline":"{~vgCuz`xTgi@mVsr@vsAknAfQ}hAbkBhZfcB_lAtu@h@kl@ot@jgA","url":"/motorcycle-roads/china/hong-kong/ride/tai-po-road"},{"slat":"22.4672","slon":"113.984","elat":"22.4216","elon":"113.941","road_type_name":"Rural","road_type_id":"1","length":"8","title":"Lau Fau Shan","rating":"3","comments_count":"1","is_long":"0","simplified_polyline":"eibhCkeuvThhCplElpBpc@","polyline":"eibhCkeuvThhCplElpBpc@","url":"/motorcycle-roads/china/hong-kong/ride/lau-fau-shan"},{"slat":"22.5277","slon":"114.179","elat":"22.5399","elon":"114.188","road_type_name":"Rural","road_type_id":"1","length":"3","title":"Robins Nest","rating":"4","comments_count":"1","is_long":"0","simplified_polyline":"aiqhCsh}wT|eAbw@","polyline":"aiqhCsh}wT|eAbw@","url":"/motorcycle-roads/china/hong-kong/ride/robins-nest"},{"slat":"22.5331","slon":"114.152","elat":"22.5222","elon":"114.122","road_type_name":"Rural","road_type_id":"1","length":"4","title":"Kong Na Po road","rating":"3","comments_count":"1","is_long":"0","simplified_polyline":"}~ohCkavwTbaAxmD","polyline":"}~ohCkavwTbaAxmD","url":"/motorcycle-roads/china/hong-kong/ride/kong-na-po-road"},{"slat":"22.2298","slon":"114.251","elat":"22.2686","elon":"114.232","road_type_name":"Mountainous","road_type_id":"4","length":"10","title":"Shek Oh Road","rating":"3","comments_count":"1","is_long":"0","simplified_polyline":"}`|fCg~exTxw@bh@l~AemAdeBiJwbAau@bg@mL","polyline":"}`|fCg~exTxw@bh@l~AemAdeBiJwbAau@bg@mL","url":"/motorcycle-roads/china/hong-kong/ride/shek-oh-road"},{"slat":"22.4534","slon":"114.162","elat":"22.5345","elon":"114.208","road_type_name":"Coastal","road_type_id":"2","length":"19","title":"Brides Pool Route","rating":"4","comments_count":"1","is_long":"0","simplified_polyline":"i`ahCeiywTuWkcFwpAuy@~Bg{Bc_Aq}@qyDdz@keBh~C","polyline":"i`ahCeiywTuWkcFwpAuy@~Bg{Bc_Aq}@qyDdz@keBh~C","url":"/motorcycle-roads/china/hong-kong/ride/brides-pool-route"},{"slat":"22.3807","slon":"114.113","elat":"22.4276","elon":"114.108","road_type_name":"Mountainous","road_type_id":"4","length":"10","title":"Route Twisk","rating":"5","comments_count":"1","is_long":"0","simplified_polyline":"efrgCesnwTubA|`Aoe@mp@uiAh^}gAanAaf@b{@","polyline":"efrgCesnwTubA|`Aoe@mp@uiAh^}gAanAaf@b{@","url":"/motorcycle-roads/china/hong-kong/ride/route-twisk"},{"slat":"22.3341","slon":"114.217","elat":"22.3342","elon":"114.218","road_type_name":"Urban","road_type_id":"3","length":"58","title":"Sai Kung, Ma On Shan & Kowloon Peak","rating":"3","comments_count":"1","is_long":"0","simplified_polyline":"}bigCidcxT_o@quF}fAjn@olBu}@phBxz@`mAin@}oBba@keF{fEemEttC`GtxAjuCvcDi_Avn@~c@qRn}JxmKn[gcFcpAmdAo@}|AhfCuV","polyline":"}bigCidcxT_o@quF}fAjn@olBu}@phBxz@`mAin@}oBba@keF{fEemEttC`GtxAjuCvcDi_Avn@~c@qRn}JxmKn[gcFcpAmdAo@}|AhfCuV","url":"/motorcycle-roads/china/hong-kong/ride/sai-kung-ma-on-shan-kowloon-peak"}]