[{"slat":"49.2608","slon":"16.4678","elat":"49.2548","elon":"16.4516","road_type_name":"Rural","road_type_id":"1","length":"3","title":"Twisties","rating":"4","comments_count":"1","is_long":"0","simplified_polyline":"egtkHckocBld@hdB","polyline":"egtkHckocBld@hdB","url":"/motorcycle-roads/czech-republic/western-czech/ride/twisties-1"},{"slat":"50.6259","slon":"15.4938","elat":"50.8244","elon":"15.5033","road_type_name":"Mountainous","road_type_id":"4","length":"37","title":"14 North to Harrachov","rating":"4","comments_count":"1","is_long":"0","simplified_polyline":"gy~sH}aq}Aed@`sDcpBje@qTt~@ukCq_A|@j~@gkAeUcyBvdDsuBvfA{_As{@ogDdiD}sBspBdC}o@uaCx@asCgzCvGe`J","polyline":"gy~sH}aq}Aed@`sDcpBje@qTt~@ukCq_A|@j~@gkAeUcyBvdDsuBvfA{_As{@ogDdiD}sBspBdC}o@uaCx@asCgzCvGe`J","url":"/motorcycle-roads/czech-republic/western-czech/ride/14-north-to-harrachov"},{"slat":"50.1607","slon":"17.1945","elat":"49.9973","elon":"17.4486","road_type_name":"Rural","road_type_id":"1","length":"34","title":"Bruntal","rating":"3","comments_count":"1","is_long":"0","simplified_polyline":"e`dqHei}gBjlDasB|mDm_JtyAan@rcA{dDxL`y@haAceAxu@}zBi^{j@piBcg@t[}|Ej~C}|DnrBmqG","polyline":"e`dqHei}gBjlDasB|mDm_JtyAan@rcA{dDxL`y@haAceAxu@}zBi^{j@piBcg@t[}|Ej~C}|DnrBmqG","url":"/motorcycle-roads/czech-republic/eastern-czech/ride/bruntal"},{"slat":"50.2377","slon":"16.9061","elat":"50.169","elon":"16.9444","road_type_name":"Rural","road_type_id":"1","length":"14","title":"Kladske Sedlo","rating":"4","comments_count":"1","is_long":"0","simplified_polyline":"i`sqHa~dfBhbA{eD}F~vAz}@yi@v|Ab_AtdCyo@dnAmeC","polyline":"i`sqHa~dfBhbA{eD}F~vAz}@yi@v|Ab_AtdCyo@dnAmeC","url":"/motorcycle-roads/poland/dolnoslaskie/ride/kladske-sedlo"},{"slat":"50.9228","slon":"15.0278","elat":"50.869","elon":"14.244","road_type_name":"Rural","road_type_id":"1","length":"85","title":"kunratice novy bor hrensko","rating":"5","comments_count":"1","is_long":"0","simplified_polyline":"uzxuHk`vzAhqBtdAztBo|Cdl@v_Ax|@op@bjArdAhbBqt@zq@_~AvsBleCr_BxZrk@~pBe|CpiHuOl~EdqH|h`@uYjvVg_B~{Dp~AhiEdYzqNu`@fsCu`D`uDeSbrMov@ds@qj@vkFkvAnmBkxBpw@yPbcCwxA~yB","polyline":"uzxuHk`vzAhqBtdAztBo|Cdl@v_Ax|@op@bjArdAhbBqt@zq@_~AvsBleCr_BxZrk@~pBe|CpiHuOl~EdqH|h`@uYjvVg_B~{Dp~AhiEdYzqNu`@fsCu`D`uDeSbrMov@ds@qj@vkFkvAnmBkxBpw@yPbcCwxA~yB","url":"/motorcycle-roads/czech-republic/eastern-czech/ride/kunratice-novy-bor-hrensko"},{"slat":"48.9056","slon":"17.4335","elat":"48.8755","elon":"17.4779","road_type_name":"Rural","road_type_id":"1","length":"6","title":"Turns","rating":"3","comments_count":"1","is_long":"0","simplified_polyline":"k{niHk~kiB`vCkbHfd@~L","polyline":"k{niHk~kiB`vCkbHfd@~L","url":"/motorcycle-roads/czech-republic/eastern-czech/ride/turns"},{"slat":"50.9253","slon":"15.0305","elat":"50.9199","elon":"15.0254","road_type_name":"Rural","road_type_id":"1","length":"82","title":"campingharta krasny les. stuk polen. frydlant","rating":"4","comments_count":"1","is_long":"0","simplified_polyline":"yjyuHktvzAk_Gfa@eXmp@oq@}cGlaBehCel@orDjsBpn@zbAoz@q[miG}vAg~Fo|@hd@ahAsc@cgAsfD{|DkpCnHouAtyD}aB`zBkFcmBg~GbdA_}@znCbfFfgEvbDsKdfH~v@tyDv}AhYhr@ngAlJ}k@hUj}F{tAriCaXjfGkyAvkAdk@||J_m@s_@","polyline":"yjyuHktvzAk_Gfa@eXmp@oq@}cGlaBehCel@orDjsBpn@zbAoz@q[miG}vAg~Fo|@hd@ahAsc@cgAsfD{|DkpCnHouAtyD}aB`zBkFcmBg~GbdA_}@znCbfFfgEvbDsKdfH~v@tyDv}AhYhr@ngAlJ}k@hUj}F{tAriCaXjfGkyAvkAdk@||J_m@s_@","url":"/motorcycle-roads/czech-republic/eastern-czech/ride/campingharta-krasny-les-stuk-polen-frydlant"},{"slat":"50.9253","slon":"15.0306","elat":"50.9191","elon":"15.0232","road_type_name":"Rural","road_type_id":"1","length":"68","title":"campingharta cernousy bogatinia kunratice","rating":"4","comments_count":"1","is_long":"0","simplified_polyline":"ujyuH{tvzAcyHpJ{wAhn@ctBs`Br_@mwE_}KfwFkiA_|C{fH~lFfrB`YfIdqD|}Fy|Bnl@t|CvzEtwAxzArnBfhBvf@zdAa_@f~GzlDtwAycDp_B}{@{AusGidAyiC","polyline":"ujyuH{tvzAcyHpJ{wAhn@ctBs`Br_@mwE_}KfwFkiA_|C{fH~lFfrB`YfIdqD|}Fy|Bnl@t|CvzEtwAxzArnBfhBvf@zdAa_@f~GzlDtwAycDp_B}{@{AusGidAyiC","url":"/motorcycle-roads/czech-republic/eastern-czech/ride/campingharta-cernousy-bogatinia-kunratice"},{"slat":"50.9148","slon":"15.0825","elat":"50.9247","elon":"15.0284","road_type_name":"Rural","road_type_id":"1","length":"287","title":"campingharta novi bor. roudnice nad labem tanvald frydlant","rating":"5","comments_count":"1","is_long":"1","simplified_polyline":"mewuHor`{Arx@ujA|XkiGl{C_fH_B{tDzxAwvGxpFgpEh_B}VvrAm_D~kDmeBhr@biChzBhj@lmGswA|uAlpDcSdsCjjGrbBvDvuAcsA|_DxpFloHpiAyVl|@doDiHjjDp_CzwHp|DdpCzcDtzH|eF~{CvtBjgDdtHeJdnF~mIrm@zpPfcDp}Cqx@|zIjQ|xGjyAb{E~dCjhD{FhfBooBxoKy`ErgJfc@fyAw|C|~R{uEbgMxb@`lCo|@byEdVj_CioC|`DohAtrIsrGnrHeOsyByjBkf@_aA}wA_eDkbSinFuTqhHk~Ke_D}hCuoBqUgQuqDsiAwp@qRmfB{`C_n@vd@kzCi{CnEadBwrAxAwrB}lBy{G}Iu`Ifn@g|AinCsbKd_BoaEhX{bWupHua`@lP}uEjeD{vHsy@mkBm|A}UgrBidC{q@~}AibBpt@uiAqdAg}@lp@el@w_A{tBn|Cg|BmkA","polyline":"mewuHor`{Arx@ujA|XkiGl{C_fH_B{tDzxAwvGxpFgpEh_B}VvrAm_D~kDmeBhr@biChzBhj@lmGswA|uAlpDcSdsCjjGrbBvDvuAcsA|_DxpFloHpiAyVl|@doDiHjjDp_CzwHp|DdpCzcDtzH|eF~{CvtBjgDdtHeJdnF~mIrm@zpPfcDp}Cqx@|zIjQ|xGjyAb{E~dCjhD{FhfBooBxoKy`ErgJfc@fyAw|C|~R{uEbgMxb@`lCo|@byEdVj_CioC|`DohAtrIsrGnrHeOsyByjBkf@_aA}wA_eDkbSinFuTqhHk~Ke_D}hCuoBqUgQuqDsiAwp@qRmfB{`C_n@vd@kzCi{CnEadBwrAxAwrB}lBy{G}Iu`Ifn@g|AinCsbKd_BoaEhX{bWupHua`@lP}uEjeD{vHsy@mkBm|A}UgrBidC{q@~}AibBpt@uiAqdAg}@lp@el@w_A{tBn|Cg|BmkA","url":"/motorcycle-roads/czech-republic/eastern-czech/ride/campingharta-novi-bor-roudnice-nad-labem-tanvald-frydlant"},{"slat":"50.8007","slon":"14.6498","elat":"49.7126","elon":"15.0095","road_type_name":"Rural","road_type_id":"1","length":"176","title":"trávník","rating":"2","comments_count":"1","is_long":"0","simplified_polyline":"iaauHaflxAt`HttExgClfFxtFcaLrhDeG~vAvfBnjB~|GxgByrB||CvsHlyFleA|fAboAhzD}sHdm@v^vtA{`DzlHs_FvSvZb}@wgEaNw`Ip_HmbFfb@ebEriAi}A{U{vL_~@wvDnsEctBvmFmiFrlFar@jgEo`KjuEopAtlAs}EdkBw|BhyBv_@niCifAncEwkH~lHhV~dGilHx|HrtO~~@to@j`B_MhwC`zBf{A`@tnBrgCdjBf\\vgE~}D~mB_n@rmBpm@x{AhgAnaAzlEj}CzoAzpCid@rf@imF","polyline":"iaauHaflxAt`HttExgClfFxtFcaLrhDeG~vAvfBnjB~|GxgByrB||CvsHlyFleA|fAboAhzD}sHdm@v^vtA{`DzlHs_FvSvZb}@wgEaNw`Ip_HmbFfb@ebEriAi}A{U{vL_~@wvDnsEctBvmFmiFrlFar@jgEo`KjuEopAtlAs}EdkBw|BhyBv_@niCifAncEwkH~lHhV~dGilHx|HrtO~~@to@j`B_MhwC`zBf{A`@tnBrgCdjBf\\vgE~}D~mB_n@rmBpm@x{AhgAnaAzlEj}CzoAzpCid@rf@imF","url":"/motorcycle-roads/czech-republic/western-czech/ride/travnik"},{"slat":"50.0315","slon":"14.2266","elat":"50.0346","elon":"14.2248","road_type_name":"Cruiser","road_type_id":"8","length":"166","title":"Zdice-P?íbram-Davle-Rudná","rating":"1","comments_count":"1","is_long":"0","simplified_polyline":"{wjpHisyuAhd@hqCriEdnGjsGdgVx}Dv{FvcBr}Fi|@}nBbn@taB~s@{KbjC_yEbnGhnEpXs_Axy@nv@h~DgiAzfAo|ChdBwX~kBgnBvy@viAvlFqRzq@zo@_gAuxAap@qoLf^}_KlpCoiOlIyyQnqBezQetCx~@qtBklBgcCemDuc@ucDin@fZeS__Cw~AafBi_CkX_gBhaBgpNxt@obDpgAjaAbxQg~BdFctClkDshA{r@mSyoBeeGuLuxAnrDn@fjCc|BveAwg@dmGokBvyB|y@xcH","polyline":"{wjpHisyuAhd@hqCriEdnGjsGdgVx}Dv{FvcBr}Fi|@}nBbn@taB~s@{KbjC_yEbnGhnEpXs_Axy@nv@h~DgiAzfAo|ChdBwX~kBgnBvy@viAvlFqRzq@zo@_gAuxAap@qoLf^}_KlpCoiOlIyyQnqBezQetCx~@qtBklBgcCemDuc@ucDin@fZeS__Cw~AafBi_CkX_gBhaBgpNxt@obDpgAjaAbxQg~BdFctClkDshA{r@mSyoBeeGuLuxAnrDn@fjCc|BveAwg@dmGokBvyB|y@xcH","url":"/motorcycle-roads/czech-republic/western-czech/ride/zdice-pribram-davle-rudna"},{"slat":"48.9172","slon":"13.9089","elat":"49.0067","elon":"14.0002","road_type_name":"Rural","road_type_id":"1","length":"16","title":"RTTH - Volary > Prachatice","rating":"3","comments_count":"1","is_long":"0","simplified_polyline":"o`qiHkp{sAuqGmbHsrAmoEep@pf@kXgy@gvAfGsh@a|@","polyline":"o`qiHkp{sAuqGmbHsrAmoEep@pf@kXgy@gvAfGsh@a|@","url":"/motorcycle-roads/czech-republic/western-czech/ride/rtth-volary->-prachatice"},{"slat":"50.5843","slon":"14.3238","elat":"50.6712","elon":"14.175","road_type_name":"Rural","road_type_id":"1","length":"15","title":"RTTH - Ústí roads","rating":"3","comments_count":"1","is_long":"0","simplified_polyline":"_vvsH_qlvAy_DnoGcx@bU}\\ffCizCf`EilCdoH","polyline":"_vvsH_qlvAy_DnoGcx@bU}\\ffCizCf`EilCdoH","url":"/motorcycle-roads/czech-republic/western-czech/ride/rtth-usti-roads"},{"slat":"49.4208","slon":"14.2051","elat":"49.2671","elon":"14.192","road_type_name":"Rural","road_type_id":"1","length":"34","title":"Around Pisek","rating":"3","comments_count":"1","is_long":"0","simplified_polyline":"}nslHgkuuAl}EkfAhgGvY`qCitN|vBknA~rGcRh{@rfNe}B`oF","polyline":"}nslHgkuuAl}EkfAhgGvY`qCitN|vBknA~rGcRh{@rfNe}B`oF","url":"/motorcycle-roads/czech-republic/western-czech/ride/around-pisek"},{"slat":"49.0528","slon":"14.945","elat":"48.795","elon":"14.7856","road_type_name":"Rural","road_type_id":"1","length":"40","title":"Trebonsko","rating":"3","comments_count":"1","is_long":"0","simplified_polyline":"}qkjHs~ezArpJdwE`wE{nC`w@jsArHnpHh_Es{@bnH|RflApdJxbKnwE","polyline":"}qkjHs~ezArpJdwE`wE{nC`w@jsArHnpHh_Es{@bnH|RflApdJxbKnwE","url":"/motorcycle-roads/czech-republic/western-czech/ride/trebonsko"},{"slat":"49.3147","slon":"15.3337","elat":"49.1892","elon":"15.4509","road_type_name":"Rural","road_type_id":"1","length":"18","title":"Horni Cerekev-Telc","rating":"3","comments_count":"1","is_long":"0","simplified_polyline":"sy~kHe_r|AzhBPnoDw{GhvBgZndDklFjyEatD","polyline":"sy~kHe_r|AzhBPnoDw{GhvBgZndDklFjyEatD","url":"/motorcycle-roads/czech-republic/eastern-czech/ride/horni-cerekev-telc"},{"slat":"50.451","slon":"13.7592","elat":"50.2387","elon":"12.8974","road_type_name":"Rural","road_type_id":"1","length":"101","title":"around Ohre river","rating":"4","comments_count":"1","is_long":"0","simplified_polyline":"_u|rHqi~rAyKtyDztBnhFozBvxKj|@xdEcFjtDqgAxdDie@~yLnw@X~nChxBwLro@|q@_J`jCrrB`mBepAxm@rcB~}Dxe@iFp`BfxAzyCcv@~kJcpCnqFurAdL{w@xwFtb@|yCkVh_I`oAl_DlEluG`wDdyCnbAjuCo]~`Afc@zrB`eBscAjr@xhA~e@}s@ddB|s@zb@j|BllBmbAz~@tjAxi@iRwLx|EztAvmCcr@bf@zJhzD","polyline":"_u|rHqi~rAyKtyDztBnhFozBvxKj|@xdEcFjtDqgAxdDie@~yLnw@X~nChxBwLro@|q@_J`jCrrB`mBepAxm@rcB~}Dxe@iFp`BfxAzyCcv@~kJcpCnqFurAdL{w@xwFtb@|yCkVh_I`oAl_DlEluG`wDdyCnbAjuCo]~`Afc@zrB`eBscAjr@xhA~e@}s@ddB|s@zb@j|BllBmbAz~@tjAxi@iRwLx|EztAvmCcr@bf@zJhzD","url":"/motorcycle-roads/czech-republic/western-czech/ride/around-ohre-river"},{"slat":"49.4525","slon":"13.426","elat":"49.437","elon":"13.3954","road_type_name":"Rural","road_type_id":"1","length":"3","title":"RTTH country road","rating":"4","comments_count":"1","is_long":"0","simplified_polyline":"utylHug}pAr_Bj~D","polyline":"utylHug}pAr_Bj~D","url":"/motorcycle-roads/czech-republic/western-czech/ride/rtth-country-road"},{"slat":"49.1006","slon":"13.6662","elat":"49.062","elon":"13.7352","road_type_name":"Rural","road_type_id":"1","length":"17","title":"Stachy - Vimperk (CKC)","rating":"3","comments_count":"1","is_long":"0","simplified_polyline":"}}tjHydlrAp_ApkDliBt^sOu`Cnt@r]vwBuzAnOg}AqhA}gBg]}qF","polyline":"}}tjHydlrAp_ApkDliBt^sOu`Cnt@r]vwBuzAnOg}AqhA}gBg]}qF","url":"/motorcycle-roads/czech-republic/western-czech/ride/stachy-vimperk-ckc"},{"slat":"50.9376","slon":"14.5528","elat":"50.8025","elon":"14.4407","road_type_name":"Rural","road_type_id":"1","length":"23","title":"Krasna Lipa towards Decin","rating":"5","comments_count":"1","is_long":"0","simplified_polyline":"}w{uHwiywAoFz|@t_DjzEbgCaYps@m}@djCjlGlwAlMxwAw{AbyA~nCfHbjDdvAfA","polyline":"}w{uHwiywAoFz|@t_DjzEbgCaYps@m}@djCjlGlwAlMxwAw{AbyA~nCfHbjDdvAfA","url":"/motorcycle-roads/czech-republic/western-czech/ride/krasna-lipa-towards-decin"},{"slat":"50.4598","slon":"14.4755","elat":"50.5315","elon":"14.5156","road_type_name":"Rural","road_type_id":"1","length":"11","title":"libechov-Duba","rating":"4","comments_count":"1","is_long":"0","simplified_polyline":"am~rHsdjwAiaAjQos@{oAagFwk@}e@_uC{y@w[","polyline":"am~rHsdjwAiaAjQos@{oAagFwk@}e@_uC{y@w[","url":"/motorcycle-roads/czech-republic/western-czech/ride/libechov-duba-1"},{"slat":"50.4736","slon":"14.7794","elat":"50.4894","elon":"14.8379","road_type_name":"Rural","road_type_id":"1","length":"5","title":"Bikers heaven #1 : Plužná","rating":"4","comments_count":"1","is_long":"0","simplified_polyline":"{casHiseyAlLymBinB}|F","polyline":"{casHiseyAlLymBinB}|F","url":"/motorcycle-roads/czech-republic/western-czech/ride/pluzna"},{"slat":"50.9158","slon":"15.0434","elat":"50.8972","elon":"15.0561","road_type_name":"Rural","road_type_id":"1","length":"81","title":"Camping harta bily potok jozef odull frydlant","rating":"5","comments_count":"2","is_long":"0","simplified_polyline":"}twuH}byzAyOwmFxxAekAvXuhGt{C{fHbi@kbKx|G_zGleBo\\ti@}rBp{B{fBdyAac@`vA|uEijEdyMbd@zqCaeBjyJ~`AzaD}tA|rBxp@dsIaqDnj@_wAm`B_q@z}AobBrt@iiAsdAu}@hp@yxBgoC","polyline":"}twuH}byzAyOwmFxxAekAvXuhGt{C{fHbi@kbKx|G_zGleBo\\ti@}rBp{B{fBdyAac@`vA|uEijEdyMbd@zqCaeBjyJ~`AzaD}tA|rBxp@dsIaqDnj@_wAm`B_q@z}AobBrt@iiAsdAu}@hp@yxBgoC","url":"/motorcycle-roads/czech-republic/eastern-czech/ride/camping-harta-bily-potok-jozef-odull-frydlant"},{"slat":"49.4409","slon":"12.9433","elat":"49.5669","elon":"13.3229","road_type_name":"Rural","road_type_id":"1","length":"37","title":"Domazlice - Prescice","rating":"3","comments_count":"1","is_long":"0","simplified_polyline":"qlwlHw}~mAynAakAodAk|QatCmpJi|J{iCgbAiqKbCmhSsl@gbC","polyline":"qlwlHw}~mAynAakAodAk|QatCmpJi|J{iCgbAiqKbCmhSsl@gbC","url":"/motorcycle-roads/czech-republic/western-czech/ride/domazlice-prescice"},{"slat":"50.2505","slon":"17.3686","elat":"50.2167","elon":"17.2145","road_type_name":"Mountainous","road_type_id":"4","length":"17","title":"453 : Jesenik","rating":"4","comments_count":"1","is_long":"0","simplified_polyline":"aquqHih_iB~{AhfDkO`y@`_Ajq@xs@xpL|yAt}AiiAx{C","polyline":"aquqHih_iB~{AhfDkO`y@`_Ajq@xs@xpL|yAt}AiiAx{C","url":"/motorcycle-roads/czech-republic/eastern-czech/ride/453-jesenik"},{"slat":"49.6386","slon":"14.6567","elat":"49.6437","elon":"14.8406","road_type_name":"Rural","road_type_id":"1","length":"17","title":"Votice - Lounovice","rating":"3.67","comments_count":"3","is_long":"0","simplified_polyline":"y~}mHaumxAmzAa`Mb|@q|A~x@owHxFojCi}A{f@jWuqB","polyline":"y~}mHaumxAmzAa`Mb|@q|A~x@owHxFojCi}A{f@jWuqB","url":"/motorcycle-roads/czech-republic/western-czech/ride/votice-lounovice"},{"slat":"49.9243","slon":"14.1878","elat":"50.0295","elon":"13.8646","road_type_name":"Rural","road_type_id":"1","length":"37","title":"Karljstein to Krivoklat","rating":"5","comments_count":"1","is_long":"0","simplified_polyline":"k}uoH__ruAcl@{A{Opw@bQbhGkfAas@cr@vsAul@e\\gK~lHqqDjpCtIvmBu{ArpGdbAntKep@pgG}wB`uDcaAzJ","polyline":"k}uoH__ruAcl@{A{Opw@bQbhGkfAas@cr@vsAul@e\\gK~lHqqDjpCtIvmBu{ArpGdbAntKep@pgG}wB`uDcaAzJ","url":"/motorcycle-roads/czech-republic/western-czech/ride/karljstein-to-krivoklat"},{"slat":"50.5026","slon":"14.2985","elat":"50.5406","elon":"14.5352","road_type_name":"Rural","road_type_id":"1","length":"21","title":"269 : Giv Vrutice - Dubá","rating":"3","comments_count":"1","is_long":"0","simplified_polyline":"uyfsHutgvAif@}yAihAdPw^os@_R}xX}qBqxGxj@}sF","polyline":"uyfsHutgvAif@}yAihAdPw^os@_R}xX}qBqxGxj@}sF","url":"/motorcycle-roads/czech-republic/western-czech/ride/269-giv-vrutice-duba"},{"slat":"50.4516","slon":"13.1625","elat":"50.4051","elon":"13.2248","road_type_name":"Mountainous","road_type_id":"4","length":"9","title":"224 : Verné?ov","rating":"4","comments_count":"1","is_long":"0","simplified_polyline":"yy|rHm{ioAj`As}@ro@sjEvoDgyB","polyline":"yy|rHm{ioAj`As}@ro@sjEvoDgyB","url":"/motorcycle-roads/czech-republic/western-czech/ride/224-vernerov"},{"slat":"50.316","slon":"13.8249","elat":"50.2592","elon":"13.7484","road_type_name":"Rural","road_type_id":"1","length":"13","title":"Brloh - Rocov - Solopysky","rating":"3","comments_count":"1","is_long":"0","simplified_polyline":"uibrHcfksAtcAwQbvApwEnzD|Xpm@~|Akb@t`D","polyline":"uibrHcfksAtcAwQbvApwEnzD|Xpm@~|Akb@t`D","url":"/motorcycle-roads/czech-republic/western-czech/ride/brloh-rocov-solopysky"},{"slat":"50.8854","slon":"15.0418","elat":"50.8335","elon":"15.0505","road_type_name":"Rural","road_type_id":"1","length":"8","title":"Frydland : Mníšek - Zámek Frýdlant","rating":"4","comments_count":"1","is_long":"0","simplified_polyline":"mpquHkyxzAbj@|`Af}@mp@jiArdA`bB_t@bl@cwA","polyline":"mpquHkyxzAbj@|`Af}@mp@jiArdA`bB_t@bl@cwA","url":"/motorcycle-roads/czech-republic/eastern-czech/ride/frydland-mnisek-zamek-frydlant"},{"slat":"49.1854","slon":"13.4955","elat":"49.1618","elon":"13.2849","road_type_name":"Rural","road_type_id":"1","length":"20","title":"190 /145 : Hartmanice","rating":"3","comments_count":"1","is_long":"0","simplified_polyline":"mmekHk{jqAdf@oMviA~}Hz~@dSeW|`HvzAjxLwbBreG","polyline":"mmekHk{jqAdf@oMviA~}Hz~@dSeW|`HvzAjxLwbBreG","url":"/motorcycle-roads/czech-republic/western-czech/ride/190-145-hartmanice"},{"slat":"49.1645","slon":"13.581","elat":"49.1459","elon":"13.57","road_type_name":"Rural","road_type_id":"1","length":"3","title":"Kasperk","rating":"4","comments_count":"1","is_long":"0","simplified_polyline":"{lakHup{qAtpAiDta@ziA","polyline":"{lakHup{qAtpAiDta@ziA","url":"/motorcycle-roads/czech-republic/western-czech/ride/kasperk"},{"slat":"48.995","slon":"13.6543","elat":"49.1364","elon":"13.5044","road_type_name":"Rural","road_type_id":"1","length":"25","title":"Borova Lada - Rejstejn","rating":"3","comments_count":"1","is_long":"0","simplified_polyline":"cm`jH{{irA{`C|pMqhErOe`B~pD{e@gt@okAGe}DtwHmiAuj@ah@jxA_Zyb@","polyline":"cm`jH{{irA{`C|pMqhErOe`B~pD{e@gt@okAGe}DtwHmiAuj@ah@jxA_Zyb@","url":"/motorcycle-roads/czech-republic/western-czech/ride/borova-lada-rejstejn"},{"slat":"49.0354","slon":"13.7593","elat":"48.9932","elon":"13.6665","road_type_name":"Rural","road_type_id":"1","length":"10","title":"Vimperk - Borova Lada","rating":"4","comments_count":"1","is_long":"0","simplified_polyline":"ifhjH_i~rAv~@xi@`gE|vO","polyline":"ifhjH_i~rAv~@xi@`gE|vO","url":"/motorcycle-roads/czech-republic/western-czech/ride/vimperk-borova-lada"},{"slat":"49.8495","slon":"14.2708","elat":"49.793","elon":"14.2889","road_type_name":"Rural","road_type_id":"1","length":"8","title":"Novy Knin - Mnistek Pod Brdy","rating":"3","comments_count":"1","is_long":"0","simplified_polyline":"{fgoHejbvArg@mm@~zEfCr{A}cA","polyline":"{fgoHejbvArg@mm@~zEfCr{A}cA","url":"/motorcycle-roads/czech-republic/western-czech/ride/novy-knin-mnistek-pod-brdy"},{"slat":"50.0784","slon":"14.0589","elat":"50.0702","elon":"14.0221","road_type_name":"Rural","road_type_id":"1","length":"3","title":"Horny Bezdekov-Bratronice","rating":"3","comments_count":"1","is_long":"0","simplified_polyline":"g}spH{zxtAfs@ndF","polyline":"g}spH{zxtAfs@ndF","url":"/motorcycle-roads/czech-republic/western-czech/ride/horny-bezdekov-bratronice"},{"slat":"49.3982","slon":"14.6424","elat":"49.4278","elon":"14.6505","road_type_name":"Rural","road_type_id":"1","length":"130","title":"Tabor a dolu","rating":"4","comments_count":"1","is_long":"0","simplified_polyline":"kbolH{zjxAfxEzmKxo@{XvpG|kFjiElrAjbB_xB~`Atd@`Xl{Ib`CjyKmuChLeoMlmK}eGioCgyBpnCeu@qd@m}Bpb@{aGi]mpBvyEo{Ar[ceAzaE}_BzkArLhbD_wB{_@k~BfrDkfDmk@ip@|kA{iA_nCwLcuDrpAo_AvaCghGjcKesEhdIhM|cEys^gl@siFnc@mmP","polyline":"kbolH{zjxAfxEzmKxo@{XvpG|kFjiElrAjbB_xB~`Atd@`Xl{Ib`CjyKmuChLeoMlmK}eGioCgyBpnCeu@qd@m}Bpb@{aGi]mpBvyEo{Ar[ceAzaE}_BzkArLhbD_wB{_@k~BfrDkfDmk@ip@|kA{iA_nCwLcuDrpAo_AvaCghGjcKesEhdIhM|cEys^gl@siFnc@mmP","url":"/motorcycle-roads/czech-republic/western-czech/ride/tabor-a-dolu"},{"slat":"50.4098","slon":"14.4519","elat":"50.8741","elon":"14.2434","road_type_name":"Rural","road_type_id":"1","length":"117","title":"Epic Roads: Janov","rating":"3","comments_count":"1","is_long":"0","simplified_polyline":"yttrHisewAypDckCagElLet@cpA{gFkl@qe@auCk`Aya@k~@whCgbCbSadD}eA{tA`nCegA{Zvn@uiHgs@onB}sBl~A}jBy}G_cDk`CfpBylM{bCyc@i_Ei|DebIlCiQxdAozCf_BqqBv}JeoCn^rw@rzJmk@|_B}r@e]e~EdkAc`@nqKpiBlyDsAr`Fj_BlzEik@reLof@{ZoI|kB_bAbkAeh@xxInh@nfD","polyline":"yttrHisewAypDckCagElLet@cpA{gFkl@qe@auCk`Aya@k~@whCgbCbSadD}eA{tA`nCegA{Zvn@uiHgs@onB}sBl~A}jBy}G_cDk`CfpBylM{bCyc@i_Ei|DebIlCiQxdAozCf_BqqBv}JeoCn^rw@rzJmk@|_B}r@e]e~EdkAc`@nqKpiBlyDsAr`Fj_BlzEik@reLof@{ZoI|kB_bAbkAeh@xxInh@nfD","url":"/motorcycle-roads/czech-republic/western-czech/ride/epic-roads-janov"},{"slat":"50.5368","slon":"15.2298","elat":"50.4975","elon":"15.1689","road_type_name":"Rural","road_type_id":"1","length":"14","title":"Hrubá Skála","rating":"4","comments_count":"1","is_long":"0","simplified_polyline":"gomsHup}{Ah^fp@yrAjqEhbBfzDtxAkwBb`@bzBjlAscA","polyline":"gomsHup}{Ah^fp@yrAjqEhbBfzDtxAkwBb`@bzBjlAscA","url":"/motorcycle-roads/czech-republic/eastern-czech/ride/hruba-skala"},{"slat":"50.7404","slon":"14.9138","elat":"50.8369","elon":"15.036","road_type_name":"Rural","road_type_id":"1","length":"20","title":"592 : Kryštofovo Údolí","rating":"3","comments_count":"1","is_long":"0","simplified_polyline":"afutHky_zAehAiHgy@sxCwlArk@gqAqeEqb@|r@geCpG{xA}aDmu@ovI","polyline":"afutHky_zAehAiHgy@sxCwlArk@gqAqeEqb@|r@geCpG{xA}aDmu@ovI","url":"/motorcycle-roads/czech-republic/eastern-czech/ride/592-krystofovo-udoli"},{"slat":"50.7379","slon":"15.0111","elat":"50.736","elon":"14.9414","road_type_name":"Mountainous","road_type_id":"4","length":"15","title":"Ješt?d","rating":"5","comments_count":"1","is_long":"0","simplified_polyline":"wvttHszrzAce@xiEjuAmx@kuAlx@nkA`_CyYtgB","polyline":"wvttHszrzAce@xiEjuAmx@kuAlx@nkA`_CyYtgB","url":"/motorcycle-roads/czech-republic/eastern-czech/ride/jested"},{"slat":"49.712","slon":"16.2632","elat":"49.2899","elon":"16.2286","road_type_name":"Rural","road_type_id":"1","length":"64","title":"Poli?ka - Velká Bíteš","rating":"5","comments_count":"1","is_long":"0","simplified_polyline":"{ilnHmkgbBzcCy]xyDp`AzlAyV~w@bkEjlBf_Dzf@npExyDz|JnjDn}EtmAgw@|xDpEbwEgrDhsAyiCtmApKl}@ilAnp@q@j^fgBxnGz~AddEomBxpF_iKvj@~IfwB}dDvKeoA","polyline":"{ilnHmkgbBzcCy]xyDp`AzlAyV~w@bkEjlBf_Dzf@npExyDz|JnjDn}EtmAgw@|xDpEbwEgrDhsAyiCtmApKl}@ilAnp@q@j^fgBxnGz~AddEomBxpF_iKvj@~IfwB}dDvKeoA","url":"/motorcycle-roads/czech-republic/western-czech/ride/policka-velka-bites"},{"slat":"50.6497","slon":"15.1601","elat":"50.6402","elon":"15.1837","road_type_name":"Rural","road_type_id":"1","length":"3","title":"Frydstejn","rating":"5","comments_count":"1","is_long":"0","simplified_polyline":"yoctHu}o{Avz@mrC","polyline":"yoctHu}o{Avz@mrC","url":"/motorcycle-roads/czech-republic/eastern-czech/ride/frydstejn"},{"slat":"50.31","slon":"13.5489","elat":"50.1769","elon":"13.6377","road_type_name":"Rural","road_type_id":"1","length":"18","title":"Route through hops : Zatec - Svojetin","rating":"3","comments_count":"1","is_long":"0","simplified_polyline":"}darHwkuqAzgEuiAnoAiqBhsBbb@bmAg}AtdA`U~iAo|DtrEkcC","polyline":"}darHwkuqAzgEuiAnoAiqBhsBbb@bmAg}AtdA`U~iAo|DtrEkcC","url":"/motorcycle-roads/czech-republic/western-czech/ride/route-through-hops-zatec-svojetin"},{"slat":"50.37","slon":"13.2763","elat":"50.3244","elon":"13.3437","road_type_name":"Rural","road_type_id":"1","length":"8","title":"Kadan - Petipsy","rating":"3","comments_count":"1","is_long":"0","simplified_polyline":"}zlrHs~_pA~yGegL","polyline":"}zlrHs~_pA~yGegL","url":"/motorcycle-roads/czech-republic/western-czech/ride/kadan-petipsy"},{"slat":"49.3615","slon":"18.2908","elat":"49.3814","elon":"18.4072","road_type_name":"Rural","road_type_id":"1","length":"10","title":"487 : Velké Karlovice","rating":"3","comments_count":"1","is_long":"0","simplified_polyline":"_~glH_lsnBo{B{tU","polyline":"_~glH_lsnBo{B{tU","url":"/motorcycle-roads/czech-republic/eastern-czech/ride/487-velke-karlovice"},{"slat":"49.4767","slon":"14.3735","elat":"49.5664","elon":"14.5253","road_type_name":"Rural","road_type_id":"1","length":"18","title":"Pr?ice - Milevsko","rating":"3.5","comments_count":"2","is_long":"0","simplified_polyline":"em~lH{hvvAct@ibBwtDwoAc`A{pAk{@ezGgmAy{Cs`AsYix@{xE","polyline":"em~lH{hvvAct@ibBwtDwoAc`A{pAk{@ezGgmAy{Cs`AsYix@{xE","url":"/motorcycle-roads/czech-republic/western-czech/ride/prcice-milevsko"},{"slat":"50.526","slon":"15.5826","elat":"50.5273","elon":"15.5772","road_type_name":"Rural","road_type_id":"1","length":"1","title":"Corners near Horka u Staré Paky","rating":"4","comments_count":"1","is_long":"0","simplified_polyline":"ujksHonb~AwFha@","polyline":"ujksHonb~AwFha@","url":"/motorcycle-roads/czech-republic/northern-czech/ride/corners-near-horka-u-stare-paky"},{"slat":"49.2938","slon":"14.1452","elat":"49.0527","elon":"14.1849","road_type_name":"Rural","road_type_id":"1","length":"34","title":"Pisek - Netolice","rating":"3.5","comments_count":"2","is_long":"0","simplified_polyline":"muzkHqviuA|lBneA|}@teC~|El~@|yDpkDlvEzFzqAxmA`bC_`CthAvZnlCulDr|D_kGdzAghF","polyline":"muzkHqviuA|lBneA|}@teC~|El~@|yDpkDlvEzFzqAxmA`bC_`CthAvZnlCulDr|D_kGdzAghF","url":"/motorcycle-roads/czech-republic/western-czech/ride/pisek-netolice"},{"slat":"50.014","slon":"14.3764","elat":"50.0171","elon":"14.3593","road_type_name":"Urban","road_type_id":"3","length":"2","title":"Slivenec","rating":"3","comments_count":"2","is_long":"0","simplified_polyline":"gkgpHg|vvAyQviB","polyline":"gkgpHg|vvAyQviB","url":"/motorcycle-roads/czech-republic/western-czech/ride/slivenec"},{"slat":"50.5392","slon":"15.3813","elat":"50.6073","elon":"15.4997","road_type_name":"Rural","road_type_id":"1","length":"16","title":"Lomnice - Jilemnice","rating":"3","comments_count":"1","is_long":"0","simplified_polyline":"o}msHqc{|AqbA_nB}{BiGnQ_v@cgBsnBgQucDanA{Tss@qlG","polyline":"o}msHqc{|AqbA_nB}{BiGnQ_v@cgBsnBgQucDanA{Tss@qlG","url":"/motorcycle-roads/czech-republic/eastern-czech/ride/lomnice-jilemnice"},{"slat":"50.5905","slon":"15.1743","elat":"50.5367","elon":"15.3685","road_type_name":"Rural","road_type_id":"1","length":"17","title":"Turnov - Lomnice","rating":"2","comments_count":"1","is_long":"0","simplified_polyline":"}axsHqwr{Abi@i`Fc\\qhCzfAylAnoAk|LncBu_G|hAucA","polyline":"}axsHqwr{Abi@i`Fc\\qhCzfAylAnoAk|LncBu_G|hAucA","url":"/motorcycle-roads/czech-republic/eastern-czech/ride/turnov-lomnice"},{"slat":"50.7519","slon":"15.3579","elat":"50.6391","elon":"15.2787","road_type_name":"Rural","road_type_id":"1","length":"31","title":"Tesarov - Zelezny Brod","rating":"4","comments_count":"1","is_long":"0","simplified_polyline":"onwtH{nv|Apu@r]lq@aeCzmBlr@xXudB||A_@xhCarDnjArKjf@b`Blr@e_@zzCxvEjTjiDe}@yuAsq@t~L","polyline":"onwtH{nv|Apu@r]lq@aeCzmBlr@xXudB||A_@xhCarDnjArKjf@b`Blr@e_@zzCxvEjTjiDe}@yuAsq@t~L","url":"/motorcycle-roads/czech-republic/eastern-czech/ride/tesarov-zelezny-brod"},{"slat":"50.7333","slon":"15.5479","elat":"50.6245","elon":"15.5099","road_type_name":"Rural","road_type_id":"1","length":"16","title":"Misecky","rating":"4","comments_count":"1","is_long":"0","simplified_polyline":"uystH_v{}AruE`}BvuCmq@jy@ffA~e@k^`v@bd@iDhiAfuBom@to@by@","polyline":"uystH_v{}AruE`}BvuCmq@jy@ffA~e@k^`v@bd@iDhiAfuBom@to@by@","url":"/motorcycle-roads/czech-republic/eastern-czech/ride/misecky"},{"slat":"50.6895","slon":"15.5199","elat":"50.7278","elon":"15.4564","road_type_name":"Rural","road_type_id":"1","length":"9","title":"Vitkovice Rokytnice","rating":"5","comments_count":"1","is_long":"0","simplified_polyline":"whktH{fv}A}hBz_@}n@raCmxAdo@vBvwD","polyline":"whktH{fv}A}hBz_@}n@raCmxAdo@vBvwD","url":"/motorcycle-roads/czech-republic/western-czech/ride/vitkovice-rokytnice"},{"slat":"50.6507","slon":"15.2553","elat":"50.7326","elon":"15.3124","road_type_name":"Rural","road_type_id":"1","length":"14","title":"Turnov Tanvald","rating":"4","comments_count":"1","is_long":"0","simplified_polyline":"kvctHcrb|AmtEuwAbSesCiwAmqDweFnz@","polyline":"kvctHcrb|AmtEuwAbSesCiwAmqDweFnz@","url":"/motorcycle-roads/czech-republic/eastern-czech/ride/turnov-tanvald"},{"slat":"50.4632","slon":"14.6113","elat":"50.3861","elon":"14.5422","road_type_name":"Rural","road_type_id":"1","length":"12","title":"Kokorinsky dul","rating":"4","comments_count":"1","is_long":"0","simplified_polyline":"ed_sHqvdxAbzAjvEpeB}c@poA~m@da@ic@pnDlqF","polyline":"ed_sHqvdxAbzAjvEpeB}c@poA~m@da@ic@pnDlqF","url":"/motorcycle-roads/czech-republic/western-czech/ride/kokorinsky-dul"},{"slat":"49.9968","slon":"14.3399","elat":"50.0056","elon":"14.3147","road_type_name":"Mountainous","road_type_id":"4","length":"3","title":"Cikanka","rating":"3.5","comments_count":"2","is_long":"0","simplified_polyline":"m~cpH}wovAyAxyBos@va@","polyline":"m~cpH}wovAyAxyBos@va@","url":"/motorcycle-roads/czech-republic/western-czech/ride/cikanka"},{"slat":"49.9698","slon":"14.4032","elat":"49.9691","elon":"14.3995","road_type_name":"Urban","road_type_id":"3","length":"16","title":"101 / 102 : Zvole","rating":"4","comments_count":"1","is_long":"0","simplified_polyline":"gv~oHsc|vAph@wuHrvDnzD{YfuFk\\opAkcD_O","polyline":"gv~oHsc|vAph@wuHrvDnzD{YfuFk\\opAkcD_O","url":"/motorcycle-roads/czech-republic/western-czech/ride/101-102-zvole"},{"slat":"49.9797","slon":"14.405","elat":"49.9716","elon":"14.4007","road_type_name":"Urban","road_type_id":"3","length":"9","title":"Tocna : Dolní B?ežany","rating":"4","comments_count":"2","is_long":"0","simplified_polyline":"gt`pHio|vAp}Ai`HxE|hEcr@frB","polyline":"gt`pHio|vAp}Ai`HxE|hEcr@frB","url":"/motorcycle-roads/czech-republic/western-czech/ride/tocna-dolni-brezany"},{"slat":"49.9625","slon":"14.2266","elat":"49.9318","elon":"14.2663","road_type_name":"Mountainous","road_type_id":"4","length":"6","title":"Karlik","rating":"3","comments_count":"1","is_long":"0","simplified_polyline":"ch}oH_syuAz~DovF","polyline":"ch}oH_syuAz~DovF","url":"/motorcycle-roads/czech-republic/western-czech/ride/karlik"},{"slat":"49.9833","slon":"14.0711","elat":"50.1304","elon":"13.9505","road_type_name":"Mountainous","road_type_id":"4","length":"25","title":"116 : Beroun - Tuchlovice","rating":"3.5","comments_count":"2","is_long":"0","simplified_polyline":"cmapHql{tAooDtbPuaD~VscB`{Aw{Fqa@agAvc@wzAb`Eay@mcB","polyline":"cmapHql{tAooDtbPuaD~VscB`{Aw{Fqa@agAvc@wzAb`Eay@mcB","url":"/motorcycle-roads/czech-republic/western-czech/ride/116-beroun-tuchlovice"},{"slat":"49.8402","slon":"14.5944","elat":"49.8942","elon":"14.5814","road_type_name":"Mountainous","road_type_id":"4","length":"8","title":"107 : Kamenice - Tynec nS","rating":"4","comments_count":"1","is_long":"0","simplified_polyline":"qleoH}oaxA_gBtdA_gBc|@i_CliA","polyline":"qleoH}oaxA_gBtdA_gBc|@i_CliA","url":"/motorcycle-roads/czech-republic/western-czech/ride/107-kamenice-tynec-ns"},{"slat":"49.7575","slon":"14.6213","elat":"49.7604","elon":"14.6248","road_type_name":"Mountainous","road_type_id":"4","length":"1","title":"114 : Curves near Benesov","rating":"4","comments_count":"1","is_long":"0","simplified_polyline":"ggunHqvfxAuQmT","polyline":"ggunHqvfxAuQmT","url":"/motorcycle-roads/czech-republic/western-czech/ride/114-curves-near-benesov"},{"slat":"49.8694","slon":"13.7583","elat":"50.0332","elon":"13.8717","road_type_name":"Rural","road_type_id":"1","length":"44","title":"Zbiroh - Krivoklat","rating":"3","comments_count":"1","is_long":"0","simplified_polyline":"sckoHcd~rA}eAvm@xT``Dc|B~~CwvAkc@aIlv@qiC~gA_jCka@agB}dBqzBr`Bea@usCqeAkQbi@{bCpbCkkBlRsbEkcBiKo|@izEwcBo{@xPycCq}A_`B","polyline":"sckoHcd~rA}eAvm@xT``Dc|B~~CwvAkc@aIlv@qiC~gA_jCka@agB}dBqzBr`Bea@usCqeAkQbi@{bCpbCkkBlRsbEkcBiKo|@izEwcBo{@xPycCq}A_`B","url":"/motorcycle-roads/czech-republic/western-czech/ride/zbiroh-krivoklat"},{"slat":"49.7081","slon":"12.9969","elat":"49.535","elon":"12.9457","road_type_name":"Rural","road_type_id":"1","length":"21","title":"193 : Kladruby - Horšovský Týn","rating":"4","comments_count":"2","is_long":"0","simplified_polyline":"isknHyiinAftBi^fxC~fAzW~vBfeApr@jgIfc@pkDjpAlvEmI","polyline":"isknHyiinAftBi^fxC~fAzW~vBfeApr@jgIfc@pkDjpAlvEmI","url":"/motorcycle-roads/czech-republic/western-czech/ride/193-kladruby-horsovsky-tyn"},{"slat":"50.6697","slon":"15.0825","elat":"50.6653","elon":"15.0026","road_type_name":"Rural","road_type_id":"1","length":"8","title":"Hodkovice - Cesky Dub","rating":"5","comments_count":"1","is_long":"0","simplified_polyline":"ylgtHwx`{Ay~AfeJzd@bgBrtAdc@","polyline":"ylgtHwx`{Ay~AfeJzd@bgBrtAdc@","url":"/motorcycle-roads/czech-republic/eastern-czech/ride/hodkovice-cesky-dub"},{"slat":"49.6385","slon":"14.6462","elat":"49.6346","elon":"14.8368","road_type_name":"Rural","road_type_id":"1","length":"16","title":"Votice - Lounovice pod Blanikem","rating":"5","comments_count":"1","is_long":"0","simplified_polyline":"o`~mHmrkxA_yAynOj|@mpAtn@_xFjGqlI","polyline":"o`~mHmrkxA_yAynOj|@mpAtn@_xFjGqlI","url":"/motorcycle-roads/czech-republic/western-czech/ride/votice-lounovice-pod-blanikem"},{"slat":"49.9719","slon":"14.3985","elat":"49.9582","elon":"14.5197","road_type_name":"Rural","road_type_id":"1","length":"19","title":"Corners Psary, Liber, Brezany and from Zbraslav ring road","rating":"4","comments_count":"2","is_long":"0","simplified_polyline":"{c_pHqe{vA|q@}rB`MsvGtgEo|Bru@~Snm@_jCsyGwrB","polyline":"{c_pHqe{vA|q@}rB`MsvGtgEo|Bru@~Snm@_jCsyGwrB","url":"/motorcycle-roads/czech-republic/western-czech/ride/corners-psary-liber-brezany-and-from-zbraslav-ring-road"},{"slat":"49.4568","slon":"18.472","elat":"49.4532","elon":"18.5697","road_type_name":"Rural","road_type_id":"1","length":"9","title":"484 : Bila - Turzovka","rating":"5","comments_count":"1","is_long":"0","simplified_polyline":"apzlH}xvoBriA}aCkeAugF|PawF","polyline":"apzlH}xvoBriA}aCkeAugF|PawF","url":"/motorcycle-roads/czech-republic/eastern-czech/ride/484-bila-turzovka"},{"slat":"49.73","slon":"15.6757","elat":"49.8211","elon":"15.544","road_type_name":"Rural","road_type_id":"1","length":"39","title":"Kolem Se?e","rating":"3.33","comments_count":"3","is_long":"0","simplified_polyline":"g{onHmqt~AmdBqwCu}@ffCc~ByhByeAfrAlB}eCacBopFseB~vEup@zuGep@r_AeYyaAys@dKhqDdwGwiBv}B~_@vg@iZ|nCxzAjlC","polyline":"g{onHmqt~AmdBqwCu}@ffCc~ByhByeAfrAlB}eCacBopFseB~vEup@zuGep@r_AeYyaAys@dKhqDdwGwiBv}B~_@vg@iZ|nCxzAjlC","url":"/motorcycle-roads/czech-republic/western-czech/ride/kolem-sece"},{"slat":"50.0616","slon":"15.2299","elat":"50.2018","elon":"15.2942","road_type_name":"Rural","road_type_id":"1","length":"19","title":"Velký osek - M?stec Králové","rating":"4","comments_count":"1","is_long":"0","simplified_polyline":"itppH}p}{Awt@mcBydCav@yfDmeDgp@lGZs|@uwD_M{Kiu@asAsKw}Dtp@","polyline":"itppH}p}{Awt@mcBydCav@yfDmeDgp@lGZs|@uwD_M{Kiu@asAsKw}Dtp@","url":"/motorcycle-roads/czech-republic/western-czech/ride/velky-osek-mestec-kralove"},{"slat":"49.3991","slon":"15.6163","elat":"49.2239","elon":"15.8633","road_type_name":"Rural","road_type_id":"1","length":"35","title":"Jihlava to Trebic","rating":"4","comments_count":"2","is_long":"0","simplified_polyline":"_golHiai~A_{@qvCfeB{fMm]ujIz}D{gAhz@qeCxyF`Al~A}qB|bIamAdbD}kE","polyline":"_golHiai~A_{@qvCfeB{fMm]ujIz}D{gAhz@qeCxyF`Al~A}qB|bIamAdbD}kE","url":"/motorcycle-roads/czech-republic/eastern-czech/ride/jihlava-to-trebic"},{"slat":"50.1549","slon":"17.1794","elat":"50.1008","elon":"17.1248","road_type_name":"Mountainous","road_type_id":"4","length":"16","title":"?ervenohorské sedlo Pass","rating":"4","comments_count":"2","is_long":"0","simplified_polyline":"{{bqHgjzgBqJlq@vnCvr@i~@|F`iDj~AlOob@kBhk@vLsk@|CfbAxZqmAtf@pvD","polyline":"{{bqHgjzgBqJlq@vnCvr@i~@|F`iDj~AlOob@kBhk@vLsk@|CfbAxZqmAtf@pvD","url":"/motorcycle-roads/czech-republic/eastern-czech/ride/cervenohorske-sedlo-pass"},{"slat":"49.0406","slon":"17.388","elat":"48.8129","elon":"16.6542","road_type_name":"Rural","road_type_id":"1","length":"82","title":"South Moravian wine route","rating":"3","comments_count":"1","is_long":"0","simplified_polyline":"kgijHkaciBlaDzuGtxDtkAjyA`oHsmBvpUcfBdqCoNvyDd`FfuE`eBx_Qf|@dmBalAttDpk@jsD~cF`}IuiC~rCra@h}K~Slt@luDiuEh}@`[|uC~eEdsAtoKncAcC|cD|gF","polyline":"kgijHkaciBlaDzuGtxDtkAjyA`oHsmBvpUcfBdqCoNvyDd`FfuE`eBx_Qf|@dmBalAttDpk@jsD~cF`}IuiC~rCra@h}K~Slt@luDiuEh}@`[|uC~eEdsAtoKncAcC|cD|gF","url":"/motorcycle-roads/czech-republic/eastern-czech/ride/south-moravian-wine-route"},{"slat":"49.7961","slon":"14.4678","elat":"49.8452","elon":"14.4057","road_type_name":"Mountainous","road_type_id":"4","length":"14","title":"Slapy Damn Run","rating":"3","comments_count":"1","is_long":"0","simplified_polyline":"iy|nHaxhwA}m@~mBjSduAotAlv@mfAs_@bb@faHe}CawB","polyline":"iy|nHaxhwA}m@~mBjSduAotAlv@mfAs_@bb@faHe}CawB","url":"/motorcycle-roads/czech-republic/western-czech/ride/slapy-damn-run"},{"slat":"49.911","slon":"14.2334","elat":"49.8848","elon":"14.2715","road_type_name":"Rural","road_type_id":"1","length":"7","title":"116 : ?evnice - Mníšek : Nice little run by Revnice","rating":"4","comments_count":"5","is_long":"0","simplified_polyline":"}fsoHe}zuAfs@x\\oMcrApe@n`@`r@ca@rb@mvD","polyline":"}fsoHe}zuAfs@x\\oMcrApe@n`@`r@ca@rb@mvD","url":"/motorcycle-roads/czech-republic/western-czech/ride/116-revnice-mnisek-nice-little-run-by-revnice"},{"slat":"50.7812","slon":"15.4238","elat":"50.4208","elon":"16.1821","road_type_name":"Mountainous","road_type_id":"4","length":"110","title":"Skalne Miasto i okolice","rating":"4","comments_count":"1","is_long":"0","simplified_polyline":"ae}tHukc}AgDdv@zrBdoBzgDciD|`Av{@zsBkfAlwBucDtlAhTQg_A`iC|`AtU__AvsBul@d|@ejI~NiwQse@ysCr|AqbN|{AmkB~a@d`@fdAcv@mvBeyPseAcLt~@wxGt|FwfD{gBufJujDmsFdm@c`Gg{CooDhqFyzB|c@ehAvdDep@pvAc|Ht{AkhClyDid@faBtn@`}E{xApnBrdA","polyline":"ae}tHukc}AgDdv@zrBdoBzgDciD|`Av{@zsBkfAlwBucDtlAhTQg_A`iC|`AtU__AvsBul@d|@ejI~NiwQse@ysCr|AqbN|{AmkB~a@d`@fdAcv@mvBeyPseAcLt~@wxGt|FwfD{gBufJujDmsFdm@c`Gg{CooDhqFyzB|c@ehAvdDep@pvAc|Ht{AkhClyDid@faBtn@`}E{xApnBrdA","url":"/motorcycle-roads/czech-republic/northern-czech/ride/skalne-miasto-i-okolice"},{"slat":"49.4577","slon":"16.973","elat":"49.3019","elon":"16.9709","road_type_name":"Rural","road_type_id":"1","length":"27","title":"Drahanskou vrchovinou z Vyškova na Plumlov","rating":"4","comments_count":"1","is_long":"0","simplified_polyline":"kwzlHg~qfBhf@hwC|pCl}Bei@viDdvAvuDp{BsdA~yBzj@b~GosDhqEc_L","polyline":"kwzlHg~qfBhf@hwC|pCl}Bei@viDdvAvuDp{BsdA~yBzj@b~GosDhqEc_L","url":"/motorcycle-roads/czech-republic/western-czech/ride/drahanskou-vrchovinou-z-vyskova-na-plumlov"},{"slat":"49.2959","slon":"16.7413","elat":"49.2494","elon":"16.6727","road_type_name":"Rural","road_type_id":"1","length":"18","title":"Údolí Svitavy - K?tiny","rating":"4","comments_count":"2","is_long":"0","simplified_polyline":"ab{kHuwdeBnOrnD{{An}BcSljCxk@fzBrwC{|Cv]xlAx}Cow@","polyline":"ab{kHuwdeBnOrnD{{An}BcSljCxk@fzBrwC{|Cv]xlAx}Cow@","url":"/motorcycle-roads/czech-republic/western-czech/ride/udoli-svitavy-krtiny"},{"slat":"49.1736","slon":"16.5452","elat":"49.1732","elon":"16.5491","road_type_name":"Rural","road_type_id":"1","length":"14","title":"Old Grand Prix Brno","rating":"3","comments_count":"3","is_long":"0","simplified_polyline":"ueckHgn~cBcTv}FigC{iAnc@eiHvhBdOdPflA","polyline":"ueckHgn~cBcTv}FigC{iAnc@eiHvhBdOdPflA","url":"/motorcycle-roads/czech-republic/western-czech/ride/old-grand-prix-brno"},{"slat":"49.3296","slon":"16.6044","elat":"49.3476","elon":"16.6517","road_type_name":"Rural","road_type_id":"1","length":"6","title":"Šebrovské zatá?ky","rating":"5","comments_count":"1","is_long":"0","simplified_polyline":"ktalHwajdBjNalFa_C_y@","polyline":"ktalHwajdBjNalFa_C_y@","url":"/motorcycle-roads/czech-republic/western-czech/ride/sebrovske-zatacky"},{"slat":"49.6345","slon":"16.2241","elat":"49.3894","elon":"16.1112","road_type_name":"Rural","road_type_id":"1","length":"38","title":"K?ižanov - Jimramov","rating":"5","comments_count":"1","is_long":"0","simplified_polyline":"kf}mHcx_bBbpHpnU~`Dp`FdzAyv@dtDlHzzEytDbrA{hCznArJx{AqtAlq@zmBfiGfxA","polyline":"kf}mHcx_bBbpHpnU~`Dp`FdzAyv@dtDlHzzEytDbrA{hCznArJx{AqtAlq@zmBfiGfxA","url":"/motorcycle-roads/czech-republic/western-czech/ride/krizanov-jimramov"},{"slat":"49.1867","slon":"17.5369","elat":"49.2104","elon":"17.6609","road_type_name":"Rural","road_type_id":"1","length":"17","title":"Otrokovice - Zlin","rating":"3","comments_count":"1","is_long":"0","simplified_polyline":"_xekHgf`jBts@bKem@seKbgCgtFmxAeVko@ufBcxC_T","polyline":"_xekHgf`jBts@bKem@seKbgCgtFmxAeVko@ufBcxC_T","url":"/motorcycle-roads/czech-republic/eastern-czech/ride/otrokovice-zlin"},{"slat":"49.4437","slon":"18.1381","elat":"49.4173","elon":"17.9647","road_type_name":"Rural","road_type_id":"1","length":"19","title":"Rožnov pod Radhošt?m - Byst?i?ka","rating":"4","comments_count":"1","is_long":"0","simplified_polyline":"k~wlHqpumBpqDxnDaq@heDbd@~cV","polyline":"k~wlHqpumBpqDxnDaq@heDbd@~cV","url":"/motorcycle-roads/czech-republic/eastern-czech/ride/roznov-pod-radhostem-bystricka"},{"slat":"49.3801","slon":"17.7204","elat":"49.2896","elon":"17.7414","road_type_name":"Mountainous","road_type_id":"4","length":"23","title":"Tesák - Troják","rating":"4","comments_count":"1","is_long":"0","simplified_polyline":"{pklHm_dkBtlA{yC_WcvDf_BgWtNouExl@bVp\\g{@~tCd|EfxCaAmZhdB~o@~`D","polyline":"{pklHm_dkBtlA{yC_WcvDf_BgWtNouExl@bVp\\g{@~tCd|EfxCaAmZhdB~o@~`D","url":"/motorcycle-roads/czech-republic/eastern-czech/ride/tesak-trojak"},{"slat":"49.2043","slon":"17.803","elat":"49.0102","elon":"18.0888","road_type_name":"Rural","road_type_id":"1","length":"47","title":"From Zlin to Slovakia","rating":"4","comments_count":"2","is_long":"0","simplified_polyline":"_eikHcgtkBl}IlAt{@uw@}~D_qKxNsxBsdAadG|Noq@fnAtTjnAucAj~@}sIxrFqtB~{DluAzpCmqBlgFi`J","polyline":"_eikHcgtkBl}IlAt{@uw@}~D_qKxNsxBsdAadG|Noq@fnAtTjnAucAj~@}sIxrFqtB~{DluAzpCmqBlgFi`J","url":"/motorcycle-roads/czech-republic/eastern-czech/ride/from-zlin-to-slovakia"},{"slat":"49.1131","slon":"17.772","elat":"49.0798","elon":"17.7125","road_type_name":"Rural","road_type_id":"1","length":"69","title":"Round Luha?ovice","rating":"4","comments_count":"1","is_long":"0","simplified_polyline":"ukwjHyankB_y@ooAxwAceBr_CcnIwHefCtnA{_BtmBhnDtxBny@jIv`Ip{AzuCyl@~cIp|@vzK}s@h~AmhCq[{jBlvBqbA}qAi{@pAasBrcGcwA`AaExlBsaE_fDeaAi~Cfb@ez@|jFuxGjnCad@rmBg~A","polyline":"ukwjHyankB_y@ooAxwAceBr_CcnIwHefCtnA{_BtmBhnDtxBny@jIv`Ip{AzuCyl@~cIp|@vzK}s@h~AmhCq[{jBlvBqbA}qAi{@pAasBrcGcwA`AaExlBsaE_fDeaAi~Cfb@ez@|jFuxGjnCad@rmBg~A","url":"/motorcycle-roads/czech-republic/eastern-czech/ride/round-luhacovice"},{"slat":"49.2185","slon":"17.6732","elat":"48.9585","elon":"17.8833","road_type_name":"Rural","road_type_id":"1","length":"51","title":"Zlin - Žítková","rating":"5","comments_count":"1","is_long":"0","simplified_polyline":"q_lkHqzzjB|xB{rArP{wAzbHcf@vaFyvB`vCvmBr}@aVhEchAuqBsuCfwA{eAw~@_lBb\\imAlzBjkA`vBoc@xjAuaCpnIj\\bt@ul@c{@spCz`DskI","polyline":"q_lkHqzzjB|xB{rArP{wAzbHcf@vaFyvB`vCvmBr}@aVhEchAuqBsuCfwA{eAw~@_lBb\\imAlzBjkA`vBoc@xjAuaCpnIj\\bt@ul@c{@spCz`DskI","url":"/motorcycle-roads/czech-republic/eastern-czech/ride/zlin-zitkova"},{"slat":"49.2132","slon":"17.8578","elat":"49.2479","elon":"17.9967","road_type_name":"Rural","road_type_id":"1","length":"13","title":"Slivovice (local homemade plum brandy) race","rating":"4","comments_count":"1","is_long":"0","simplified_polyline":"{}jkHm{~kBayAs}OqcBifBoXa|E","polyline":"{}jkHm{~kBayAs}OqcBifBoXa|E","url":"/motorcycle-roads/czech-republic/eastern-czech/ride/slivovice-local-homemade-plum-brandy-race"},{"slat":"49.4493","slon":"18.1414","elat":"49.359","elon":"18.0013","road_type_name":"Rural","road_type_id":"1","length":"24","title":"Wallachian heart : Rožnov pod Radhošt?m - Vsetin","rating":"4","comments_count":"1","is_long":"0","simplified_polyline":"ibylHokvmBnuEviE}p@hdDr]`qF|{Ck`Ac_@xqA|`Ac^`sDvxG","polyline":"ibylHokvmBnuEviE}p@hdDr]`qF|{Ck`Ac_@xqA|`Ac^`sDvxG","url":"/motorcycle-roads/czech-republic/eastern-czech/ride/wallachian-heart-roznov-pod-radhostem-vsetin"},{"slat":"49.5025","slon":"18.4151","elat":"49.298","elon":"18.523","road_type_name":"Rural","road_type_id":"1","length":"41","title":"North Moravia to North Slovakia","rating":"5","comments_count":"1","is_long":"0","simplified_polyline":"}mcmHqykoBhnEmvAnqAajFfm@dMxlE~}LQd`DluAiuBvPwmC`eBeQx|AkfG{MsmDljBo^li@w_Cj}@x[tmB_yBp_C{A","polyline":"}mcmHqykoBhnEmvAnqAajFfm@dMxlE~}LQd`DluAiuBvPwmC`eBeQx|AkfG{MsmDljBo^li@w_Cj}@x[tmB_yBp_C{A","url":"/motorcycle-roads/czech-republic/eastern-czech/ride/north-moravia-to-north-slovakia"},{"slat":"50.4893","slon":"14.84","elat":"50.4901","elon":"14.9187","road_type_name":"Rural","road_type_id":"1","length":"7","title":"Bela - Bakov","rating":"4","comments_count":"1","is_long":"0","simplified_polyline":"iedsHolqyAw{@qlCxv@c~I","polyline":"iedsHolqyAw{@qlCxv@c~I","url":"/motorcycle-roads/czech-republic/western-czech/ride/bela-bakov"},{"slat":"50.5385","slon":"14.5406","elat":"50.4235","elon":"14.4679","road_type_name":"Rural","road_type_id":"1","length":"42","title":"Kokorinsko : Želízy - Dubá","rating":"3.5","comments_count":"2","is_long":"0","simplified_polyline":"eymsHk~vwAplAci@r{A}aEpm@j^|sA_`Dj|IyzEcEtf@fbClaA_rA~iFcpAbAdjAnsBmz@`|BeiBqrA}Nd{@zwAlqBfj@|lD|n@c~@~^~}F","polyline":"eymsHk~vwAplAci@r{A}aEpm@j^|sA_`Dj|IyzEcEtf@fbClaA_rA~iFcpAbAdjAnsBmz@`|BeiBqrA}Nd{@zwAlqBfj@|lD|n@c~@~^~}F","url":"/motorcycle-roads/czech-republic/western-czech/ride/kokorinsko-zelizy-duba"},{"slat":"50.5926","slon":"14.0667","elat":"50.5477","elon":"14.1262","road_type_name":"Rural","road_type_id":"1","length":"7","title":"Litomerice - Sebuzin","rating":"4","comments_count":"1","is_long":"0","simplified_polyline":"wjxsHukztAdvDihGjD{lArzAc[","polyline":"wjxsHukztAdvDihGjD{lArzAc[","url":"/motorcycle-roads/czech-republic/western-czech/ride/litomerice-sebuzin"},{"slat":"49.9003","slon":"13.9609","elat":"49.6979","elon":"14.0169","road_type_name":"Rural","road_type_id":"1","length":"28","title":"Zdice - Pribram","rating":"4","comments_count":"1","is_long":"0","simplified_polyline":"cdqoHovetAnvBaoBpm@{zBjmGnnE|Y}_Alx@vv@x~DaiAtgAm}CjcBwWt`BwjBleAzeAbrEuQ","polyline":"cdqoHovetAnvBaoBpm@{zBjmGnnE|Y}_Alx@vv@x~DaiAtgAm}CjcBwWt`BwjBleAzeAbrEuQ","url":"/motorcycle-roads/czech-republic/western-czech/ride/zdice-pribram"},{"slat":"49.4331","slon":"17.7571","elat":"49.4486","elon":"17.6984","road_type_name":"Rural","road_type_id":"1","length":"5","title":"Osicko - Vitonice","rating":"2","comments_count":"1","is_long":"0","simplified_polyline":"c|ulH_dkkBk_B|_CM`lF","polyline":"c|ulH_dkkBk_B|_CM`lF","url":"/motorcycle-roads/czech-republic/eastern-czech/ride/osicko-vitonice"},{"slat":"49.4594","slon":"17.8925","elat":"49.4156","elon":"17.6938","road_type_name":"Rural","road_type_id":"1","length":"18","title":"150 : Branky na Morave - Bystrice pod Hostýnem","rating":"4","comments_count":"2","is_long":"0","simplified_polyline":"g`{lH_selBrjBrgHxz@nfQlbCvtGiXprA","polyline":"g`{lH_selBrjBrgHxz@nfQlbCvtGiXprA","url":"/motorcycle-roads/czech-republic/eastern-czech/ride/150-branky-na-morave-bystrice-pod-hostynem"},{"slat":"49.3611","slon":"18.2827","elat":"49.4388","elon":"18.2328","road_type_name":"Rural","road_type_id":"1","length":"15","title":"481 : Velke Karlovice - Hutisko-Solanec","rating":"4","comments_count":"1","is_long":"0","simplified_polyline":"uyglH{yqnBkfCjb@qk@xbF}kAvMaUmu@aPf|Ae|BlzAw_Ao_B","polyline":"uyglH{yqnBkfCjb@qk@xbF}kAvMaUmu@aPf|Ae|BlzAw_Ao_B","url":"/motorcycle-roads/czech-republic/eastern-czech/ride/481-velke-karlovice-hutisko-solanec"},{"slat":"49.3689","slon":"18.469","elat":"49.4378","elon":"18.2464","road_type_name":"Mountainous","road_type_id":"4","length":"22","title":"E442 / 18 / 35 : Makov (SK) - Poskia (CZ)","rating":"5","comments_count":"2","is_long":"0","simplified_polyline":"wkilHcfvoBsuAd`JgdBvOqQdoCwlB|hD~ApiE{tB~lJd@jiC","polyline":"wkilHcfvoBsuAd`JgdBvOqQdoCwlB|hD~ApiE{tB~lJd@jiC","url":"/motorcycle-roads/slovakia/slovakia/ride/e442-18-35-makov-sk-poskia-cz"},{"slat":"49.1044","slon":"17.3019","elat":"49.1467","elon":"17.2239","road_type_name":"Mountainous","road_type_id":"4","length":"9","title":"Buchlovice - Strilky","rating":"4.5","comments_count":"2","is_long":"0","simplified_polyline":"quujHqhrhB}aCprCe@daCuiBdaBiXvoB","polyline":"quujHqhrhB}aCprCe@daCuiBdaBiXvoB","url":"/motorcycle-roads/czech-republic/western-czech/ride/buchlovice-strilky"},{"slat":"50.5869","slon":"13.9001","elat":"50.5287","elon":"13.9452","road_type_name":"Rural","road_type_id":"1","length":"10","title":"Zalany - Milesov - Kocourov","rating":"4","comments_count":"1","is_long":"0","simplified_polyline":"ciwsHezysA|kCvhCp_FicL","polyline":"ciwsHezysA|kCvhCp_FicL","url":"/motorcycle-roads/czech-republic/western-czech/ride/zalany-milesov-kocourov"},{"slat":"50.6739","slon":"13.7251","elat":"50.6024","elon":"13.591","road_type_name":"Mountainous","road_type_id":"4","length":"36","title":"Hrob - Litvinov","rating":"4","comments_count":"1","is_long":"0","simplified_polyline":"{fhtH_twrAe`Cdr@oQxv@~o@v`Ae}AbhA~`@xlKfdBpoDy|@v~Cn^obAdgAgI`sCdaIp`AueCb_D}iCwOyg@|j@bd@|z@eqB","polyline":"{fhtH_twrAe`Cdr@oQxv@~o@v`Ae}AbhA~`@xlKfdBpoDy|@v~Cn^obAdgAgI`sCdaIp`AueCb_D}iCwOyg@|j@bd@|z@eqB","url":"/motorcycle-roads/czech-republic/western-czech/ride/hrob-litvinov"},{"slat":"50.8636","slon":"14.4527","elat":"50.8735","elon":"14.2389","road_type_name":"Rural","road_type_id":"1","length":"20","title":"Ceske Svycarsko : Hrensko - Rynartice","rating":"3.67","comments_count":"3","is_long":"0","simplified_polyline":"cimuH{wewAz}AzvEik@heLof@{ZoI|kB_bAbkAeh@nyIhm@x`E","polyline":"cimuH{wewAz}AzvEik@heLof@{ZoI|kB_bAbkAeh@nyIhm@x`E","url":"/motorcycle-roads/czech-republic/western-czech/ride/ceske-svycarsko-hrensko-rynartice"},{"slat":"48.8292","slon":"14.3415","elat":"48.8008","elon":"14.3197","road_type_name":"Rural","road_type_id":"1","length":"117","title":"Krumlov - Nove Hrady","rating":"4","comments_count":"2","is_long":"0","simplified_polyline":"g}_iHkapvAyrB{|E{^{bTyyCkvJknByeBc}C{kI~zBwyDk}QshXbiDmdBvdJ~hC|_DujAhZzm@lqCm{@beCglC`cEtk@dzA~pClhCxlAbwAhvOvsDzkKaqAjrQncAbtTibClfAmIl_BqxAph@vCd`AoeBvlAl{@hrDmoD|N","polyline":"g}_iHkapvAyrB{|E{^{bTyyCkvJknByeBc}C{kI~zBwyDk}QshXbiDmdBvdJ~hC|_DujAhZzm@lqCm{@beCglC`cEtk@dzA~pClhCxlAbwAhvOvsDzkKaqAjrQncAbtTibClfAmIl_BqxAph@vCd`AoeBvlAl{@hrDmoD|N","url":"/motorcycle-roads/czech-republic/western-czech/ride/krumlov-nove-hrady"},{"slat":"49.0414","slon":"14.4309","elat":"49.264","elon":"14.1959","road_type_name":"Rural","road_type_id":"1","length":"44","title":"Budejovice - Pisek","rating":"4","comments_count":"1","is_long":"0","simplified_polyline":"skijHumawAy|FdyB}uDuE}jGztFmzD_cBucEkyDkfAzx@gH~~Fa~CtoFfm@`oRuoB`pE","polyline":"skijHumawAy|FdyB}uDuE}jGztFmzD_cBucEkyDkfAzx@gH~~Fa~CtoFfm@`oRuoB`pE","url":"/motorcycle-roads/czech-republic/western-czech/ride/budejovice-pisek"},{"slat":"48.8048","slon":"14.3128","elat":"48.8146","elon":"14.3101","road_type_name":"Rural","road_type_id":"1","length":"80","title":"Lipno Lake Ride : ?eský Krumlov","rating":"3.5","comments_count":"2","is_long":"0","simplified_polyline":"me{hHopjvA~vChdBj|BasBpp@rNtt@}tAvjFq`BpbBsmB|bCpb@di@s{@j{@|[uAacAluCsG~gAraDbFlpE{zAd`ExpAnjF{sA}HofAvrChiAp}DykAflBunE`g@wfC~tDeoCzh@kcB`|BgnCivDiiAijJg_C{_Cmx@kiFe`BanAjQ}{F","polyline":"me{hHopjvA~vChdBj|BasBpp@rNtt@}tAvjFq`BpbBsmB|bCpb@di@s{@j{@|[uAacAluCsG~gAraDbFlpE{zAd`ExpAnjF{sA}HofAvrChiAp}DykAflBunE`g@wfC~tDeoCzh@kcB`|BgnCivDiiAijJg_C{_Cmx@kiFe`BanAjQ}{F","url":"/motorcycle-roads/czech-republic/western-czech/ride/lipno-lake-ride-cesky-krumlov"},{"slat":"50.6939","slon":"13.7699","elat":"50.9509","elon":"13.8554","road_type_name":"Rural","road_type_id":"1","length":"45","title":"Teplice - Heidenau","rating":"4","comments_count":"1","is_long":"0","simplified_polyline":"mcltH}k`sAis@~n@yfAw}Au_Ad}BmMcz@ygApgA{nAiEoiAil@tQ_|B_yBy{@wnAkqCcyA`_AsbAjeDayCrqBicB}sGasA{_AgyCjp@cjAscAad@~SgsBuiHil@~^cVqq@sl@rbA","polyline":"mcltH}k`sAis@~n@yfAw}Au_Ad}BmMcz@ygApgA{nAiEoiAil@tQ_|B_yBy{@wnAkqCcyA`_AsbAjeDayCrqBicB}sGasA{_AgyCjp@cjAscAad@~SgsBuiHil@~^cVqq@sl@rbA","url":"/motorcycle-roads/czech-republic/western-czech/ride/teplice-heidenau"},{"slat":"49.9601","slon":"14.0908","elat":"49.9348","elon":"14.1763","road_type_name":"Rural","road_type_id":"1","length":"12","title":"Beroun - Karlstejn","rating":"4","comments_count":"1","is_long":"0","simplified_polyline":"{y|oHcb_uAlGqyGtl@d\\br@wsA`h@l`A|a@cXwUelF","polyline":"{y|oHcb_uAlGqyGtl@d\\br@wsA`h@l`A|a@cXwUelF","url":"/motorcycle-roads/czech-republic/western-czech/ride/beroun-karlstejn"},{"slat":"50.4008","slon":"13.1772","elat":"50.3973","elon":"12.9633","road_type_name":"Mountainous","road_type_id":"4","length":"25","title":"Klášterec nad Ohrí - Klínovec","rating":"4","comments_count":"2","is_long":"0","simplified_polyline":"mzrrHorloAclApi@ybBrsFxlBfoLrJ~mGlvAnrA}u@fx@aJnaEfR~tAna@cnA","polyline":"mzrrHorloAclApi@ybBrsFxlBfoLrJ~mGlvAnrA}u@fx@aJnaEfR~tAna@cnA","url":"/motorcycle-roads/czech-republic/western-czech/ride/klasterec-nad-ohri-klinovec"},{"slat":"50.8702","slon":"15.2383","elat":"50.7934","elon":"15.3208","road_type_name":"Mountainous","road_type_id":"4","length":"13","title":"290 : Smedava","rating":"4","comments_count":"2","is_long":"0","simplified_polyline":"mrnuHuf_|A|gAiiCv{Em|DveBa]xrAw~C","polyline":"mrnuHuf_|A|gAiiCv{Em|DveBa]xrAw~C","url":"/motorcycle-roads/czech-republic/eastern-czech/ride/290-smedava"},{"slat":"49.3355","slon":"16.5583","elat":"49.3469","elon":"16.651","road_type_name":"Rural","road_type_id":"1","length":"10","title":"Údolí Svitavy","rating":"4","comments_count":"1","is_long":"0","simplified_polyline":"}zblHs`adBfhAweLeTkiB}xBcq@","polyline":"}zblHs`adBfhAweLeTkiB}xBcq@","url":"/motorcycle-roads/czech-republic/western-czech/ride/udoli-svitavy"},{"slat":"50.5352","slon":"16.2284","elat":"50.4922","elon":"16.1916","road_type_name":"Rural","road_type_id":"1","length":"6","title":"Hronov - Police nad Metují","rating":"4","comments_count":"1","is_long":"0","simplified_polyline":"gdmsHkr`bBxpBneBj`AmIxxAthC","polyline":"gdmsHkr`bBxpBneBj`AmIxxAthC","url":"/motorcycle-roads/czech-republic/eastern-czech/ride/hronov-police-nad-metuji"},{"slat":"49.1259","slon":"15.0879","elat":"49.1178","elon":"15.0369","road_type_name":"Rural","road_type_id":"1","length":"69","title":"?eská Kanada","rating":"3.5","comments_count":"2","is_long":"0","simplified_polyline":"e`zjHi}a{AvzA_aFwm@s|LdqDyoQpCayLx~@ejGdtGv|EtxFn~Bkz@`bIzRvtHmtDbqTr_ApxE}jGvdFotIblD","polyline":"e`zjHi}a{AvzA_aFwm@s|LdqDyoQpCayLx~@ejGdtGv|EtxFn~Bkz@`bIzRvtHmtDbqTr_ApxE}jGvdFotIblD","url":"/motorcycle-roads/czech-republic/western-czech/ride/ceska-kanada"},{"slat":"50.5955","slon":"15.8321","elat":"50.4886","elon":"15.8832","road_type_name":"Rural","road_type_id":"1","length":"17","title":"Hráde?ek","rating":"3","comments_count":"1","is_long":"0","simplified_polyline":"k}xsHaes_BxjDluAvaDq_Bh`BaiEr|@lTvwAeuBhn@lfAff@}pA","polyline":"k}xsHaes_BxjDluAvaDq_Bh`BaiEr|@lTvwAeuBhn@lfAff@}pA","url":"/motorcycle-roads/czech-republic/eastern-czech/ride/hradecek"},{"slat":"50.0263","slon":"16.6059","elat":"49.9394","elon":"17.262","road_type_name":"Rural","road_type_id":"1","length":"82","title":"Jablonne Nad Orlici - Bukovice - Bludov - Rymarov","rating":"3","comments_count":"1","is_long":"0","simplified_polyline":"yyipHmljdBfxAy{Fir@__Gw}B}xBbi@{fAi}@u`ClbGmoAhuBugMp~G{iK}o@{sKuaC_xGohCkk@qnAirAojBc|H~c@_sBtbCc`At[{`Ao]ggCyl@tWkr@yp@{Bd_@w^_qBztEgyAd|@obIvwDqiH","polyline":"yyipHmljdBfxAy{Fir@__Gw}B}xBbi@{fAi}@u`ClbGmoAhuBugMp~G{iK}o@{sKuaC_xGohCkk@qnAirAojBc|H~c@_sBtbCc`At[{`Ao]ggCyl@tWkr@yp@{Bd_@w^_qBztEgyAd|@obIvwDqiH","url":"/motorcycle-roads/czech-republic/eastern-czech/ride/jablonne-nad-orlici-bukovice-bludov-rymarov"},{"slat":"50.4086","slon":"14.449","elat":"50.5397","elon":"14.5351","road_type_name":"Rural","road_type_id":"1","length":"19","title":"Lib?chov - Dubá","rating":"4","comments_count":"3","is_long":"0","simplified_polyline":"oktrHmbewAiVo}@_cDq}A_fErLau@gpAagFwk@af@guCalBwsB","polyline":"oktrHmbewAiVo}@_cDq}A_fErLau@gpAagFwk@af@guCalBwsB","url":"/motorcycle-roads/czech-republic/western-czech/ride/libechov-duba"},{"slat":"49.9531","slon":"14.755","elat":"49.9659","elon":"14.8059","road_type_name":"Rural","road_type_id":"1","length":"5","title":"Struharov : Forest Ride","rating":"4","comments_count":"1","is_long":"0","simplified_polyline":"an{oHaz`yAub@{uH}j@qE","polyline":"an{oHaz`yAub@{uH}j@qE","url":"/motorcycle-roads/czech-republic/western-czech/ride/struharov-forest-ride"},{"slat":"50.1686","slon":"16.5489","elat":"50.2999","elon":"16.3579","road_type_name":"Rural","road_type_id":"1","length":"30","title":"311 : Destne v Orlickych horach - Bartosovice v Orlickych horach ( Behind Eagle Mountains )","rating":"4","comments_count":"1","is_long":"0","simplified_polyline":"ypeqHeh_dBywFs_AysDtrCii@bdEsvElvD_tGp~N|tCzbC{HvwA","polyline":"ypeqHeh_dBywFs_AysDtrCii@bdEsvElvD_tGp~N|tCzbC{HvwA","url":"/motorcycle-roads/czech-republic/eastern-czech/ride/311-destne-v-orlickych-horach-bartosovice-v-orlickych-horach-behind-eagle-mountains"},{"slat":"49.2955","slon":"13.3053","elat":"49.1547","elon":"13.26","road_type_name":"Rural","road_type_id":"1","length":"23","title":"Bešiny - Žl.Ruda","rating":"3","comments_count":"2","is_long":"0","simplified_polyline":"e`{kHmsepAjrAbe@~@n|@lh@erApaDs[fLfcAl~Ad_A~eC_hCxaAoE|Lli@lh@gk@zlCvrBjrAz|D","polyline":"e`{kHmsepAjrAbe@~@n|@lh@erApaDs[fLfcAl~Ad_A~eC_hCxaAoE|Lli@lh@gk@zlCvrBjrAz|D","url":"/motorcycle-roads/czech-republic/western-czech/ride/besiny-zl-ruda"},{"slat":"49.2871","slon":"14.1387","elat":"48.647","elon":"14.4335","road_type_name":"Rural","road_type_id":"1","length":"127","title":"Písek - Volary - Dolní Dvo?išt? ( 140 / 141 / 39 / 163 / 162 / 163 )","rating":"3.67","comments_count":"3","is_long":"0","simplified_polyline":"wmykHaihuApeAfXr{@bdCf_Fz_AryDjkDnvEzFzqAxmAr_Dq`CztFjxEpiCdz@vxAf}ApB~dBbU{eBvcC~qBrqBoPfn@ndBnwAyFtXny@`n@kh@btAfpEntE|wDdhBnbFhbAhKx~E{pCp~FwtIt`AtFbkAsgAdi@{|BfgFyuG|mByvLl_BawBfcCmb@xyCobEhmAuCedBycIlg@qgPplDrjCbyD_lDcFieEwhAieDlPutFoxAio@gg@wxA","polyline":"wmykHaihuApeAfXr{@bdCf_Fz_AryDjkDnvEzFzqAxmAr_Dq`CztFjxEpiCdz@vxAf}ApB~dBbU{eBvcC~qBrqBoPfn@ndBnwAyFtXny@`n@kh@btAfpEntE|wDdhBnbFhbAhKx~E{pCp~FwtIt`AtFbkAsgAdi@{|BfgFyuG|mByvLl_BawBfcCmb@xyCobEhmAuCedBycIlg@qgPplDrjCbyD_lDcFieEwhAieDlPutFoxAio@gg@wxA","url":"/motorcycle-roads/czech-republic/western-czech/ride/pisek-volary-dolni-dvoriste-140-141-39-163-162-163"},{"slat":"50.4062","slon":"12.9374","elat":"50.4873","elon":"13.2793","road_type_name":"Mountainous","road_type_id":"4","length":"33","title":"Krusnohorsky hreben","rating":"4","comments_count":"1","is_long":"0","simplified_polyline":"w}srH}y}mAdKmlJrv@}v@ewAotAqsAmcTisEks@hg@ynFc}@snH{eDydJ","polyline":"w}srH}y}mAdKmlJrv@}v@ewAotAqsAmcTisEks@hg@ynFc}@snH{eDydJ","url":"/motorcycle-roads/czech-republic/western-czech/ride/krusnohorsky-hreben"},{"slat":"49.8741","slon":"13.8936","elat":"50.0332","elon":"13.8689","road_type_name":"Mountainous","road_type_id":"4","length":"21","title":"Krivoklat Castle : Žebrák - Kñvoklát","rating":"3.67","comments_count":"3","is_long":"0","simplified_polyline":"y`loHcqxsAsiAfhAihAyo@yqF`gDygKohEswBdpDmxAoM","polyline":"y`loHcqxsAsiAfhAihAyo@yqF`gDygKohEswBdpDmxAoM","url":"/motorcycle-roads/czech-republic/western-czech/ride/krivoklat-castle-zebrak-knvoklat"},{"slat":"50.8258","slon":"15.5219","elat":"50.7238","elon":"15.4281","road_type_name":"Mountainous","road_type_id":"4","length":"64","title":"Szklarska Poreba-Hrabaov-and back","rating":"4","comments_count":"1","is_long":"0","simplified_polyline":"e}euHmqv}Au@dnM`nAjuBxgEdd@eC|o@vsBlpBzgDciD|`Av{@btBqfA`xBedDplAlT}@k~@~iCp`AxUk_AzmBua@l~@snG}p@ocAcdCdj@mb@ilB_r@d]y{@igAqdBzGre@f]wOriAyh@o\\_lAxn@co@xaCoxAto@l_@dhJ","polyline":"e}euHmqv}Au@dnM`nAjuBxgEdd@eC|o@vsBlpBzgDciD|`Av{@btBqfA`xBedDplAlT}@k~@~iCp`AxUk_AzmBua@l~@snG}p@ocAcdCdj@mb@ilB_r@d]y{@igAqdBzGre@f]wOriAyh@o\\_lAxn@co@xaCoxAto@l_@dhJ","url":"/motorcycle-roads/poland/dolnoslaskie/ride/szklarska-poreba-hrabaov-and-back"},{"slat":"50.7588","slon":"15.8657","elat":"50.6767","elon":"15.7985","road_type_name":"Mountainous","road_type_id":"4","length":"17","title":"368 / 252 : Przelecz Okraj","rating":"4","comments_count":"1","is_long":"0","simplified_polyline":"cwxtHq{y_BnhAja@oTjaDhlBp_GnkDkrArgA|m@xz@cl@~j@vr@","polyline":"cwxtHq{y_BnhAja@oTjaDhlBp_GnkDkrArgA|m@xz@cl@~j@vr@","url":"/motorcycle-roads/poland/malopolska/ride/368-252-przelecz-okraj"},{"slat":"50.0856","slon":"12.837","elat":"49.945","elon":"12.7117","road_type_name":"Rural","road_type_id":"1","length":"25","title":"230 : Becov Nad Teplou - Mariánské Lázné","rating":"4.5","comments_count":"4","is_long":"0","simplified_polyline":"oiupHigjmA|\\htAf{Ciu@d\\ht@|mA_Quy@h~DxvMnaHhzAbvBh@fmAli@uUnc@~z@","polyline":"oiupHigjmA|\\htAf{Ciu@d\\ht@|mA_Quy@h~DxvMnaHhzAbvBh@fmAli@uUnc@~z@","url":"/motorcycle-roads/czech-republic/western-czech/ride/230-becov-nad-teplou-marianske-lazne"},{"slat":"50.212","slon":"12.8257","elat":"50.0902","elon":"12.8409","road_type_name":"Rural","road_type_id":"1","length":"18","title":"20/E49 : Tasovice - Becov nad Teplou","rating":"3","comments_count":"3","is_long":"0","simplified_polyline":"{_nqHs~gmAntAi|ApA_sBvKt{Av`C}Wd}A~g@huAesAv|IdzA","polyline":"{_nqHs~gmAntAi|ApA_sBvKt{Av`C}Wd}A~g@huAesAv|IdzA","url":"/motorcycle-roads/czech-republic/western-czech/ride/20-e49-tasovice-becov-nad-teplou"}]