[{"slat":"47.5371","slon":"19.0298","elat":"47.5247","elon":"19.0358","road_type_name":"Mountainous","road_type_id":"4","length":"2","title":"Romania","rating":"3","comments_count":"1","is_long":"0","simplified_polyline":"ipcaHsvcsBhjAei@","polyline":"ipcaHsvcsBhjAei@","url":"/motorcycle-roads/hungary/western-hungary-budapest/ride/romania"},{"slat":"47.584","slon":"19.0192","elat":"47.584","elon":"19.0192","road_type_name":"Rural","road_type_id":"1","length":"0","title":"Esztergom.","rating":"3","comments_count":"1","is_long":"0","simplified_polyline":"{ulaH}rasB??","polyline":"{ulaH}rasB??","url":"/motorcycle-roads/hungary/western-hungary-budapest/ride/esztergom-1"},{"slat":"47.584","slon":"19.0192","elat":"47.584","elon":"19.0192","road_type_name":"Rural","road_type_id":"1","length":"0","title":"Esztergom.","rating":"3","comments_count":"1","is_long":"0","simplified_polyline":"{ulaH}rasB??","polyline":"{ulaH}rasB??","url":"/motorcycle-roads/hungary/western-hungary-budapest/ride/esztergom"},{"slat":"46.7864","slon":"18.9152","elat":"45.8724","elon":"18.4663","road_type_name":"Rural","road_type_id":"1","length":"128","title":"Dunaföldvár Villány","rating":"4","comments_count":"1","is_long":"0","simplified_polyline":"y}p|GskmrBjyH|jEhqHka@p_I|aAnnDpoDpsRhjJ`nKnlAppFb|JjoT`fE|pGe@jiHybFxsIq@xzFypEpdDqNzpAjl@hnDpvGndB`bHbzC~cApeAvdPsFpnJbxBt[f_Asl@~cC|zC`P`wAlaJa}Avh@f~A","polyline":"y}p|GskmrBjyH|jEhqHka@p_I|aAnnDpoDpsRhjJ`nKnlAppFb|JjoT`fE|pGe@jiHybFxsIq@xzFypEpdDqNzpAjl@hnDpvGndB`bHbzC~cApeAvdPsFpnJbxBt[f_Asl@~cC|zC`P`wAlaJa}Avh@f~A","url":"/motorcycle-roads/hungary/western-hungary-budapest/ride/dunafoldvar-villany"},{"slat":"46.9553","slon":"17.7829","elat":"46.9593","elon":"17.8655","road_type_name":"Rural","road_type_id":"1","length":"51","title":"Balatonfüred-Tótvázsony-Nagyvázsony-Zánka-Pécsely","rating":"4","comments_count":"1","is_long":"0","simplified_polyline":"q|q}GadpkBhcBp`@jk@bbGpgAtzArmF{}Ctk@hvJgsAhhBubAodAyxApi@_nCyeBaj@dMwb@auAuvFkEczDwwNbmAu]hgDo{EpbAcOlx@{rF","polyline":"q|q}GadpkBhcBp`@jk@bbGpgAtzArmF{}Ctk@hvJgsAhhBubAodAyxApi@_nCyeBaj@dMwb@auAuvFkEczDwwNbmAu]hgDo{EpbAcOlx@{rF","url":"/motorcycle-roads/hungary/western-hungary-budapest/ride/balatonfured-totvazsony-nagyvazsony-zanka-pecsely"},{"slat":"47.2584","slon":"17.553","elat":"47.1568","elon":"17.6487","road_type_name":"Rural","road_type_id":"1","length":"16","title":"Forest roads","rating":"3","comments_count":"1","is_long":"0","simplified_polyline":"ocm_HkjcjBjqB_tEdqE}}Cy\\wt@x{@wbBjuGkjA","polyline":"ocm_HkjcjBjqB_tEdqE}}Cy\\wt@x{@wbBjuGkjA","url":"/motorcycle-roads/hungary/western-hungary-budapest/ride/forest-roads"},{"slat":"46.1937","slon":"18.928","elat":"46.1675","elon":"18.1351","road_type_name":"Cruiser","road_type_id":"8","length":"92","title":"Vaskút-Orf?","rating":"3","comments_count":"1","is_long":"0","simplified_polyline":"ma}xGc{orBo`@~vR_m@tlA~u@zqCo~@`fSgiBv{EomAl}@}LtpC_oBrhBiPdqBkyCx|AqkAlyDnkB`xBw{BnrBv}BhqHvqAbcZx}JjqAvaAuuBfn@sBbPtaEwp@lgD|eBbiFkeDllF|aAjyA{BnjBz|@}RxrAfmC","polyline":"ma}xGc{orBo`@~vR_m@tlA~u@zqCo~@`fSgiBv{EomAl}@}LtpC_oBrhBiPdqBkyCx|AqkAlyDnkB`xBw{BnrBv}BhqHvqAbcZx}JjqAvaAuuBfn@sBbPtaEwp@lgD|eBbiFkeDllF|aAjyA{BnjBz|@}RxrAfmC","url":"/motorcycle-roads/hungary/western-hungary-budapest/ride/vaskut-orfű"},{"slat":"47.8795","slon":"18.781","elat":"47.8133","elon":"19.0809","road_type_name":"Rural","road_type_id":"1","length":"55","title":"Danube Bend","rating":"4","comments_count":"1","is_long":"0","simplified_polyline":"{mfcHscsqBvoGiwIfmDo~KdxF_|Boe@k|C_eHukF_{CliGuV}UwtBpyB{_@{x@qt@jZoL{aI`yD{iFvrBxmBn`Aq|@vnAgfL","polyline":"{mfcHscsqBvoGiwIfmDo~KdxF_|Boe@k|C_eHukF_{CliGuV}UwtBpyB{_@{x@qt@jZoL{aI`yD{iFvrBxmBn`Aq|@vnAgfL","url":"/motorcycle-roads/hungary/western-hungary-budapest/ride/danube-bend"},{"slat":"46.2073","slon":"18.6884","elat":"46.2982","elon":"18.6812","road_type_name":"Rural","road_type_id":"1","length":"19","title":"Szálka","rating":"4","comments_count":"1","is_long":"0","simplified_polyline":"qx_yG}`aqBcjBdaFomAl}@cNfsCqdBxeB}fDkhGob@csDm~@}o@","polyline":"qx_yG}`aqBcjBdaFomAl}@cNfsCqdBxeB}fDkhGob@csDm~@}o@","url":"/motorcycle-roads/hungary/western-hungary-budapest/ride/szalka"},{"slat":"46.8547","slon":"17.5237","elat":"46.8808","elon":"17.6693","road_type_name":"Rural","road_type_id":"1","length":"13","title":"7313 : Káptalantóti - Zánka","rating":"4","comments_count":"1","is_long":"0","simplified_polyline":"aj~|Guq}iBsBy|Bc_DijGv@edO","polyline":"aj~|Guq}iBsBy|Bc_DijGv@edO","url":"/motorcycle-roads/hungary/western-hungary-budapest/ride/7313-kaptalantoti-zanka"},{"slat":"46.9523","slon":"17.6013","elat":"46.8298","elon":"17.6347","road_type_name":"Rural","road_type_id":"1","length":"34","title":"North Balaton","rating":"4","comments_count":"1","is_long":"0","simplified_polyline":"akq}GiwljBjcEr`It{CodCn`@s_Cvx@lX]gzBsuBynDf_Awj@sSe[`w@|FzPnaGfjC`]~b@gg@`Zxj@pqCadCy\\mxA","polyline":"akq}GiwljBjcEr`It{CodCn`@s_Cvx@lX]gzBsuBynDf_Awj@sSe[`w@|FzPnaGfjC`]~b@gg@`Zxj@pqCadCy\\mxA","url":"/motorcycle-roads/hungary/western-hungary-budapest/ride/north-balaton"},{"slat":"46.0732","slon":"18.1874","elat":"46.239","elon":"18.3066","road_type_name":"Mountainous","road_type_id":"4","length":"72","title":"Best of Mecsek : Pécs - Komló - Magyaregregy","rating":"3","comments_count":"1","is_long":"0","simplified_polyline":"itexGid_nB}gCbI_aAtbA_H__Akz@tBoqCx`H|N~}AsxA_tAwdAnm@{rBkqD_y@tXg@ctBm`AksAbeDqnFiiA{gBrBi|Abj@qx@bNji@z]w\\lwAfyCleFkpCqfFfpCivAcyC{]v\\cNki@ub@xr@wd@u\\rn@ieDoSukEmmBt`CqwEii@","polyline":"itexGid_nB}gCbI_aAtbA_H__Akz@tBoqCx`H|N~}AsxA_tAwdAnm@{rBkqD_y@tXg@ctBm`AksAbeDqnFiiA{gBrBi|Abj@qx@bNji@z]w\\lwAfyCleFkpCqfFfpCivAcyC{]v\\cNki@ub@xr@wd@u\\rn@ieDoSukEmmBt`CqwEii@","url":"/motorcycle-roads/hungary/western-hungary-budapest/ride/best-of-mecsek-pecs-komlo-magyaregregy"},{"slat":"47.677","slon":"18.3464","elat":"48.8367","elon":"18.9977","road_type_name":"Rural","road_type_id":"1","length":"221","title":"Szomód - Besztercebánya","rating":"5","comments_count":"1","is_long":"1","simplified_polyline":"k|~aHch~nB_a@`\\`nAfxAf~@ao@mm@kuJ~pDqcLxjCg|Bl_@}_D}|Diy@wSyaB`aAigBaA_bBsnC{dBkLorCyjDoQqvAaaAuIehAugB~Ng_CwsC{_Ao}FszEgiH{m@wFmS|nBibDtd@a`EgnAqjA__CuaBsXalDhCevFr}AqqHgtEcj@ieC}`E}o@_fBbf@sl@yaBs{B`pAv`B{cJuyHo`Ci`Ilq@}tIobNqbD{vBctB}`DqdDhL}jA`_BwsCyTiiBnjG}hAx{@{xAlXo`E{pBkbCsImvCniEot@_j@ky@fuA{`Ai}@lWynEmcB{@uwAqxAqwAqhGwpGcK_{@axLahFgdHi{Fb@aoB{fAo~D~B_kAkj@mxDvg@geDig@mwAfeAgtB|yKslBzbAuo@fpEmGgn@ww@tr@sXpvB","polyline":"k|~aHch~nB_a@`\\`nAfxAf~@ao@mm@kuJ~pDqcLxjCg|Bl_@}_D}|Diy@wSyaB`aAigBaA_bBsnC{dBkLorCyjDoQqvAaaAuIehAugB~Ng_CwsC{_Ao}FszEgiH{m@wFmS|nBibDtd@a`EgnAqjA__CuaBsXalDhCevFr}AqqHgtEcj@ieC}`E}o@_fBbf@sl@yaBs{B`pAv`B{cJuyHo`Ci`Ilq@}tIobNqbD{vBctB}`DqdDhL}jA`_BwsCyTiiBnjG}hAx{@{xAlXo`E{pBkbCsImvCniEot@_j@ky@fuA{`Ai}@lWynEmcB{@uwAqxAqwAqhGwpGcK_{@axLahFgdHi{Fb@aoB{fAo~D~B_kAkj@mxDvg@geDig@mwAfeAgtB|yKslBzbAuo@fpEmGgn@ww@tr@sXpvB","url":"/motorcycle-roads/hungary/western-hungary-budapest/ride/szomod-besztercebanya"},{"slat":"48.0673","slon":"20.753","elat":"47.6848","elon":"18.3543","road_type_name":"Rural","road_type_id":"1","length":"364","title":"Szomód - Börzsöny - Mátra - Miskolc Tapolca","rating":"4","comments_count":"1","is_long":"1","simplified_polyline":"}ckdHait}Bsx@}tBotAli@vQdoHopAdd@lAhjBseBtkFxv@vrDpxDbjArh@~}Clq@QyKx}CxeAlsDsj@phBfz@fa@an@zk@xIdjCjxAk|@}LrqAtRsl@zgDzjCjwCvh@|kBniGhfFthHl~GeNzGdfL|j@b`CgjAfoGddB~cF}hCdiCmgCjNgZlfG}`AphCtgA`dFdXbhN`tAfkApNs`A~pBnlDowAxa@qqA|`Ci@hwIzwAdU~g@tgAglAhnDdr@nfCqfDvkGsf@ncKoaGkeIuq@ciGkxCimAewAdQsdEbtFweBiE}wBjjKrFdkCuvClqC_{BdeH|Xv_MhmGhyEhh@hfL_`@lqZee@bkAdyArxBnR~tCf|Aj{@mLryBpnBpxIq{@`~Gu`BpfCxbBlqDqc@dbLvc@hpC{}@bnBaGtlD~gHxsJzqEttQznPzo@`Vv}BxpBnZflAb`C`}D|mArfDmd@~QonBzl@zGd|E`jHf_AzzFz~BjsCriByMxHfhA`uAz_AbkDbQrLvrC|nCjdBocAxmF`c@jsAddD|OllDtyD`iAqpBmn@lEka@}oBja@|oBfo@yC{iA|nBi~CedDy~@bpEuaF~_E}v@keDb[lgDtsA|o@ovBfrGby@vtJcgA`ZouAwuAqG{oA","polyline":"}ckdHait}Bsx@}tBotAli@vQdoHopAdd@lAhjBseBtkFxv@vrDpxDbjArh@~}Clq@QyKx}CxeAlsDsj@phBfz@fa@an@zk@xIdjCjxAk|@}LrqAtRsl@zgDzjCjwCvh@|kBniGhfFthHl~GeNzGdfL|j@b`CgjAfoGddB~cF}hCdiCmgCjNgZlfG}`AphCtgA`dFdXbhN`tAfkApNs`A~pBnlDowAxa@qqA|`Ci@hwIzwAdU~g@tgAglAhnDdr@nfCqfDvkGsf@ncKoaGkeIuq@ciGkxCimAewAdQsdEbtFweBiE}wBjjKrFdkCuvClqC_{BdeH|Xv_MhmGhyEhh@hfL_`@lqZee@bkAdyArxBnR~tCf|Aj{@mLryBpnBpxIq{@`~Gu`BpfCxbBlqDqc@dbLvc@hpC{}@bnBaGtlD~gHxsJzqEttQznPzo@`Vv}BxpBnZflAb`C`}D|mArfDmd@~QonBzl@zGd|E`jHf_AzzFz~BjsCriByMxHfhA`uAz_AbkDbQrLvrC|nCjdBocAxmF`c@jsAddD|OllDtyD`iAqpBmn@lEka@}oBja@|oBfo@yC{iA|nBi~CedDy~@bpEuaF~_E}v@keDb[lgDtsA|o@ovBfrGby@vtJcgA`ZouAwuAqG{oA","url":"/motorcycle-roads/hungary/western-hungary-budapest/ride/szomod-borzsony-matra-miskolc-tapolca"},{"slat":"47.4215","slon":"18.2428","elat":"47.4687","elon":"18.3048","road_type_name":"Rural","road_type_id":"1","length":"9","title":"Vertes 2 : Pusztavám","rating":"4","comments_count":"1","is_long":"0","simplified_polyline":"q_m`Hw`jnByb@mbCw|DckG{cA|J","polyline":"q_m`Hw`jnByb@mbCw|DckG{cA|J","url":"/motorcycle-roads/hungary/western-hungary-budapest/ride/vertes-2-pusztavam"},{"slat":"47.4239","slon":"18.4159","elat":"47.3463","elon":"18.4017","road_type_name":"Rural","road_type_id":"1","length":"11","title":"Vertes : Gánt","rating":"3","comments_count":"1","is_long":"0","simplified_polyline":"mnm`HmzkoBlv@h_A|hAa]vzCt{DbgEaeC","polyline":"mnm`HmzkoBlv@h_A|hAa]vzCt{DbgEaeC","url":"/motorcycle-roads/hungary/western-hungary-budapest/ride/vertes-gant"},{"slat":"48.1054","slon":"20.6227","elat":"48.155","elon":"20.4968","road_type_name":"Rural","road_type_id":"1","length":"24","title":"Lillafüred to Mályinka","rating":"3","comments_count":"1","is_long":"0","simplified_polyline":"wqrdHyzz|BwiAxpIgg@klAeVhbAqIf|CjmA~kGir@caBiDty@ug@oG|ZnlCmrAzK_vAuhA","polyline":"wqrdHyzz|BwiAxpIgg@klAeVhbAqIf|CjmA~kGir@caBiDty@ug@oG|ZnlCmrAzK_vAuhA","url":"/motorcycle-roads/hungary/eastern-hungary-nograd/ride/lillafured-to-malyinka"},{"slat":"47.642","slon":"18.3379","elat":"47.6422","elon":"18.3382","road_type_name":"Rural","road_type_id":"1","length":"218","title":"Tata-Esztergom-Salka-Parasapuszta-Salka-Komárom-Tata","rating":"4","comments_count":"1","is_long":"1","simplified_polyline":"iaxaH{r|nBm}@lsAiiCeBadCtlBi~Cz}EwsBc|UilBkoHrm@ytIskAaqIrjBmdVcd@wlDszEgiH_n@{F_S|nBmeDjd@a}D_nAglAa`C{pBoZ}Uy}BooPep@gqEgtQa_HcqI]moE\\loE`_HbqIfqEftQnoPdp@|Ux}BtrBr[ljA|~B`}D~mAdsAcTkMtzBd~BpqHvG~yHrrDn}NijBb|LrdEt_Nhr@bcOaeDzaV`[ruGtzHv|AvzG~fDjlDkRviEw~VsaCoaFgg@_mG{xB_pDry@gxB","polyline":"iaxaH{r|nBm}@lsAiiCeBadCtlBi~Cz}EwsBc|UilBkoHrm@ytIskAaqIrjBmdVcd@wlDszEgiH_n@{F_S|nBmeDjd@a}D_nAglAa`C{pBoZ}Uy}BooPep@gqEgtQa_HcqI]moE\\loE`_HbqIfqEftQnoPdp@|Ux}BtrBr[ljA|~B`}D~mAdsAcTkMtzBd~BpqHvG~yHrrDn}NijBb|LrdEt_Nhr@bcOaeDzaV`[ruGtzHv|AvzG~fDjlDkRviEw~VsaCoaFgg@_mG{xB_pDry@gxB","url":"/motorcycle-roads/hungary/western-hungary-budapest/ride/tata-esztergom-salka-parasapuszta-salka-komarom-tata"},{"slat":"47.5375","slon":"18.4554","elat":"47.5049","elon":"18.9087","road_type_name":"Rural","road_type_id":"1","length":"42","title":"Tatabánya - Budakeszi (Motorway M1 Alternative)","rating":"4","comments_count":"1","is_long":"0","simplified_polyline":"_scaH{osoBxiAesAff@kxJnqDewGscAynJetEupFg~@adE`s@ioL|dDe~Fy^g|Bl~AknFaY_jF","polyline":"_scaH{osoBxiAesAff@kxJnqDewGscAynJetEupFg~@adE`s@ioL|dDe~Fy^g|Bl~AknFaY_jF","url":"/motorcycle-roads/hungary/western-hungary-budapest/ride/tatabanya-budakeszi-motorway-m1-alternative"},{"slat":"47.4705","slon":"18.8291","elat":"47.2522","elon":"18.6255","road_type_name":"Rural","road_type_id":"1","length":"48","title":"Vértes : Velence - Biatorbágy","rating":"3","comments_count":"1","is_long":"0","simplified_polyline":"{ov`Hcr|qBt[peCv{@cBoI|xBfuA~vFYjqGtnAr_DlFdoHep@pxB~hBrpChnOz~@b`DxjB_\\ndAzpIirItw@qfC","polyline":"{ov`Hcr|qBt[peCv{@cBoI|xBfuA~vFYjqGtnAr_DlFdoHep@pxB~hBrpChnOz~@b`DxjB_\\ndAzpIirItw@qfC","url":"/motorcycle-roads/hungary/western-hungary-budapest/ride/vertes-velence-biatorbagy"},{"slat":"46.9549","slon":"17.7849","elat":"46.9188","elon":"17.7211","road_type_name":"Rural","road_type_id":"1","length":"8","title":"Bakony : Pécsely - Dörgicse","rating":"4","comments_count":"1","is_long":"0","simplified_polyline":"yzq}G}rpkBpaBlo@vk@dcG~oAvwA","polyline":"yzq}G}rpkBpaBlo@vk@dcG~oAvwA","url":"/motorcycle-roads/hungary/western-hungary-budapest/ride/bakony-pecsely-dorgicse"},{"slat":"48.0806","slon":"20.6989","elat":"47.9765","elon":"20.422","road_type_name":"Mountainous","road_type_id":"4","length":"43","title":"Eger - Miskolc (Bukki Nemzeti Park)","rating":"5","comments_count":"2","is_long":"0","simplified_polyline":"qwmdHuui}BpnAzzBvZuOqo@dpE~bApuD{d@d~GboA|kFsj@phBfz@fa@an@zk@hd@foAeZlx@`yA{z@sL|qAjR}l@lhDdkCnbCfWrhBdrF","polyline":"qwmdHuui}BpnAzzBvZuOqo@dpE~bApuD{d@d~GboA|kFsj@phBfz@fa@an@zk@hd@foAeZlx@`yA{z@sL|qAjR}l@lhDdkCnbCfWrhBdrF","url":"/motorcycle-roads/hungary/eastern-hungary-nograd/ride/eger-miskolc-bukki-nemzeti-park"},{"slat":"46.2735","slon":"18.3958","elat":"46.1599","elon":"18.1389","road_type_name":"Mountainous","road_type_id":"4","length":"46","title":"Mecsek : Váralja - Orf?","rating":"4","comments_count":"1","is_long":"0","simplified_polyline":"_ylyGo|goBzs@tgOxzJrmAnnBk_ClRjjEqp@xdD|eBbiFceDpnFl`AjsAf@btB~x@uXnsB|qDjoByeAAy~@u|AdfA","polyline":"_ylyGo|goBzs@tgOxzJrmAnnBk_ClRjjEqp@xdD|eBbiFceDpnFl`AjsAf@btB~x@uXnsB|qDjoByeAAy~@u|AdfA","url":"/motorcycle-roads/hungary/western-hungary-budapest/ride/mecsek-varalja-orfű"},{"slat":"47.3158","slon":"17.9907","elat":"47.3324","elon":"17.6691","road_type_name":"Rural","road_type_id":"1","length":"43","title":"Zirc - Pápa","rating":"4","comments_count":"1","is_long":"0","simplified_polyline":"qjx_HwyxlBh[`bIv{A~~Cr|Cv}Axn@faDna@sPrk@dzArvB~e@ze@veFm^tdE}|A~^ag@niBo@peFctA~rA_mA_QceFxlDexAdI_T~mB","polyline":"qjx_HwyxlBh[`bIv{A~~Cr|Cv}Axn@faDna@sPrk@dzArvB~e@ze@veFm^tdE}|A~^ag@niBo@peFctA~rA_mA_QceFxlDexAdI_T~mB","url":"/motorcycle-roads/hungary/western-hungary-budapest/ride/zirc-papa"},{"slat":"47.5761","slon":"18.4807","elat":"47.708","elon":"18.6283","road_type_name":"Rural","road_type_id":"1","length":"25","title":"Tarjan - Bajna","rating":"4","comments_count":"3","is_long":"0","simplified_polyline":"iikaHsmxoBavDqiBgsA{lB}}BpCec@{pA|aAatFgmCs`BeNstCqgDgNgxAubA}DsdAec@tK","polyline":"iikaHsmxoBavDqiBgsA{lB}}BpCec@{pA|aAatFgmCs`BeNstCqgDgNgxAubA}DsdAec@tK","url":"/motorcycle-roads/hungary/western-hungary-budapest/ride/tarjan-bajna"},{"slat":"47.7607","slon":"18.955","elat":"47.6853","elon":"19.0585","road_type_name":"Rural","road_type_id":"1","length":"16","title":"Lepence - ring","rating":"4","comments_count":"1","is_long":"0","simplified_polyline":"cgobHmeurBrc@dfAfnAbH`{AytAts@wdI|fAcd@niCatG","polyline":"cgobHmeurBrc@dfAfnAbH`{AytAts@wdI|fAcd@niCatG","url":"/motorcycle-roads/hungary/western-hungary-budapest/ride/lepence-ring"},{"slat":"47.7508","slon":"18.7811","elat":"47.6528","elon":"18.9871","road_type_name":"Rural","road_type_id":"1","length":"23","title":"Pilis - Esztergom","rating":"4","comments_count":"1","is_long":"0","simplified_polyline":"skmbHifsqBl}BotIrdAc_A\\wzBd}DozFxw@ksEliD{cH","polyline":"skmbHifsqBl}BotIrdAc_A\\wzBd}DozFxw@ksEliD{cH","url":"/motorcycle-roads/hungary/western-hungary-budapest/ride/pilis-esztergom"},{"slat":"47.9313","slon":"19.7432","elat":"47.8878","elon":"19.9726","road_type_name":"Rural","road_type_id":"1","length":"30","title":"Matraszentistvan","rating":"4","comments_count":"1","is_long":"0","simplified_polyline":"{qpcHybowBls@krFzqAarArsAgyEu\\vw@sZqiC`lAswDs`CavAh@iwItrA_bCfgAWpCix@","polyline":"{qpcHybowBls@krFzqAarArsAgyEu\\vw@sZqiC`lAswDs`CavAh@iwItrA_bCfgAWpCix@","url":"/motorcycle-roads/hungary/eastern-hungary-nograd/ride/matraszentistvan"},{"slat":"48.0984","slon":"20.6217","elat":"47.979","elon":"20.4322","road_type_name":"Rural","road_type_id":"1","length":"36","title":"Bükk","rating":"4","comments_count":"2","is_long":"0","simplified_polyline":"ueqdHgrz|Br`Cli@zg@~|C`r@t@aLt|CneAhpDoj@`kBfz@fa@an@fn@nIdgCtxAw{@eLbrAtRsl@tgDtjCnbCfWpxAttD","polyline":"ueqdHgrz|Br`Cli@zg@~|C`r@t@aLt|CneAhpDoj@`kBfz@fa@an@fn@nIdgCtxAw{@eLbrAtRsl@tgDtjCnbCfWpxAttD","url":"/motorcycle-roads/hungary/eastern-hungary-nograd/ride/bukk"},{"slat":"48.1433","slon":"19.9625","elat":"48.1157","elon":"19.8666","road_type_name":"Rural","road_type_id":"1","length":"13","title":"Cered - Zagyvarona","rating":"5","comments_count":"1","is_long":"0","simplified_polyline":"w~ydHc~yxBduAt_ClJtkK|Rpj@n}@cXmFjx@","polyline":"w~ydHc~yxBduAt_ClJtkK|Rpj@n}@cXmFjx@","url":"/motorcycle-roads/hungary/eastern-hungary-nograd/ride/cered-zagyvarona"},{"slat":"48.0973","slon":"20.7748","elat":"48.0996","elon":"20.7744","road_type_name":"Rural","road_type_id":"1","length":"167","title":"Miskolc-Aggtelek-Miskolc","rating":"4","comments_count":"1","is_long":"0","simplified_polyline":"y~pdHeqx}BgAmdAmtBeXmuKn`EueFzqFyfByaAgbIdmAck@_mAqj@vgCpj@wgCw|@sdByqDbdBq~AohB|V|b@cdDpuAclB{oAuiDbpAagBayAa}AdHgaBz|Hmx@h@eOxcCdOycC_lDfAcDzuEndBddEmd@vvAbf@chAhc@bnCa\\nzGw{@}]bj@dg@cjAlzApkBm{An}Ah|D{ZrjBj`B`}C~rBe`@daEmcEfq@vpBoWzs@~wAzDtxBpxCrrCtvKtkDd|@}Hwa@r|A|rAvaA_|OnaCmhMgXsiEhqBspMvvEqrItb@ivCnsEimEfuKgaElcBjMpCpqA","polyline":"y~pdHeqx}BgAmdAmtBeXmuKn`EueFzqFyfByaAgbIdmAck@_mAqj@vgCpj@wgCw|@sdByqDbdBq~AohB|V|b@cdDpuAclB{oAuiDbpAagBayAa}AdHgaBz|Hmx@h@eOxcCdOycC_lDfAcDzuEndBddEmd@vvAbf@chAhc@bnCa\\nzGw{@}]bj@dg@cjAlzApkBm{An}Ah|D{ZrjBj`B`}C~rBe`@daEmcEfq@vpBoWzs@~wAzDtxBpxCrrCtvKtkDd|@}Hwa@r|A|rAvaA_|OnaCmhMgXsiEhqBspMvvEqrItb@ivCnsEimEfuKgaElcBjMpCpqA","url":"/motorcycle-roads/hungary/eastern-hungary-nograd/ride/miskolc-aggtelek-miskolc"},{"slat":"47.6115","slon":"17.6818","elat":"47.1359","elon":"17.9511","road_type_name":"Rural","road_type_id":"1","length":"62","title":"Györ - Veszprem","rating":"5","comments_count":"2","is_long":"0","simplified_polyline":"}craHop|jBfsFmeBdnNqzNj_VkpQdxCla@`dAwaBjzB|v@bkBerAtpBzjB`zBwd@`Jbc@zhBm`CzoD}hApkAm_BvuLeuD","polyline":"}craHop|jBfsFmeBdnNqzNj_VkpQdxCla@`dAwaBjzB|v@bkBerAtpBzjB`zBwd@`Jbc@zhBm`CzoD}hApkAm_BvuLeuD","url":"/motorcycle-roads/hungary/western-hungary-budapest/ride/gyor-veszprem"},{"slat":"47.9079","slon":"20.3663","elat":"47.8913","elon":"20.3729","road_type_name":"Rural","road_type_id":"1","length":"112","title":"Eger round trip via Gyöngyös","rating":"4","comments_count":"2","is_long":"0","simplified_polyline":"i_lcHgxh{BcxAphGpVxzAccBjqBx^ddEmt@lqB|q@~yBkWnyB`mAtyC{ZveGy`AbeCjhAvoFrVv}MxuAvmAhMmbA|{@`mAyQxk@~rBm@hSm{@`|@r_BjoAvCxe@byAztBc~AhhI~kG`Z{rFe}As^oqDouNk`AqMcj@maGje@c_Ca`D{oDjd@ehGws@shEtq@s]tv@kvJwdEyjGywAIcr@kxG","polyline":"i_lcHgxh{BcxAphGpVxzAccBjqBx^ddEmt@lqB|q@~yBkWnyB`mAtyC{ZveGy`AbeCjhAvoFrVv}MxuAvmAhMmbA|{@`mAyQxk@~rBm@hSm{@`|@r_BjoAvCxe@byAztBc~AhhI~kG`Z{rFe}As^oqDouNk`AqMcj@maGje@c_Ca`D{oDjd@ehGws@shEtq@s]tv@kvJwdEyjGywAIcr@kxG","url":"/motorcycle-roads/hungary/eastern-hungary-nograd/ride/eger-round-trip-via-gyongyos"},{"slat":"46.0911","slon":"18.1865","elat":"46.1336","elon":"18.1537","road_type_name":"Mountainous","road_type_id":"4","length":"9","title":"Pecs - Orfü","rating":"4.33","comments_count":"3","is_long":"0","simplified_polyline":"mdixGw`_nBo|A~jAsEcaA{x@pBuiBp_E","polyline":"mdixGw`_nBo|A~jAsEcaA{x@pBuiBp_E","url":"/motorcycle-roads/hungary/western-hungary-budapest/ride/pecs-orfu"},{"slat":"48.0649","slon":"20.6239","elat":"47.9828","elon":"20.4367","road_type_name":"Mountainous","road_type_id":"4","length":"32","title":"Bukki National Park","rating":"4","comments_count":"3","is_long":"0","simplified_polyline":"{tjdHob{|BeJj`IzpAjhFqp@fmAz`A`~@_o@nj@bDjuAh_@sEwZb{@dyAo|@_MbrAlS_m@tgDdkChbChVzbAvvC","polyline":"{tjdHob{|BeJj`IzpAjhFqp@fmAz`A`~@_o@nj@bDjuAh_@sEwZb{@dyAo|@_MbrAlS_m@tgDdkChbChVzbAvvC","url":"/motorcycle-roads/hungary/eastern-hungary-nograd/ride/bukki-national-park"}]