[{"slat":"32.8723","slon":"35.2499","elat":"32.898","elon":"35.2674","road_type_name":"Rural","road_type_id":"1","length":"7","title":"ziv","rating":"3","comments_count":"1","is_long":"0","simplified_polyline":"sexgE}~fvE|w@|~@z{CeiAxAr`AwkAzx@","polyline":"sexgE}~fvE|w@|~@z{CeiAxAr`AwkAzx@","url":"/motorcycle-roads/israel/israel/ride/ziv"},{"slat":"32.8628","slon":"35.2687","elat":"32.8959","elon":"35.2611","road_type_name":"Urban","road_type_id":"3","length":"7","title":"?????? ??????","rating":"2","comments_count":"1","is_long":"0","simplified_polyline":"eoqgEmlgvEoJgaAka@hpB}gCfc@mWsb@","polyline":"eoqgEmlgvEoJgaAka@hpB}gCfc@mWsb@","url":"/motorcycle-roads/israel/israel/ride/"},{"slat":"31.6634","slon":"34.6165","elat":"31.6476","elon":"34.5678","road_type_name":"Rural","road_type_id":"1","length":"307","title":"????? ??????","rating":"5","comments_count":"1","is_long":"1","simplified_polyline":"kkg`Eo`hrEnhBgqKq@u`H`oFajJxrBa~GfrD{_Cv`EgsOvyEoTb}DffBpeB~|BzqStmFhhFkyEnwA_lCkjAosJu|Cg~HcaDk}CtHaqIj|A{r@rsBnd@nbCkeBzxGvn@n_@wfMyc@cyAnw@_`@zcAinElyCsM|{Ea_H|eB_{E~hAaMwI}zA`_Aq`@s`AwrBzhBomAxyKmu@ziCzhD|wFluBh_BznCnIb}E_bCtwBzOfmAa}A|TesAlxBa_ApqFxd@blZssFpeK}gAxd@a}BioCwaAsI_sDdtDqnEviB}iEdbNghAdzJidFkEsoFe|Ja_CxCspCzoC{rFe_AiKhpByqCf}DwyA~pGg`ChiAbIjvF}jCjp@s_DtuCwkApgDem@ntGoyB~|BvfCzqCcpHlc@_fE`lBwrFaiCgOjbBqkBbK","polyline":"kkg`Eo`hrEnhBgqKq@u`H`oFajJxrBa~GfrD{_Cv`EgsOvyEoTb}DffBpeB~|BzqStmFhhFkyEnwA_lCkjAosJu|Cg~HcaDk}CtHaqIj|A{r@rsBnd@nbCkeBzxGvn@n_@wfMyc@cyAnw@_`@zcAinElyCsM|{Ea_H|eB_{E~hAaMwI}zA`_Aq`@s`AwrBzhBomAxyKmu@ziCzhD|wFluBh_BznCnIb}E_bCtwBzOfmAa}A|TesAlxBa_ApqFxd@blZssFpeK}gAxd@a}BioCwaAsI_sDdtDqnEviB}iEdbNghAdzJidFkEsoFe|Ja_CxCspCzoC{rFe_AiKhpByqCf}DwyA~pGg`ChiAbIjvF}jCjp@s_DtuCwkApgDem@ntGoyB~|BvfCzqCcpHlc@_fE`lBwrFaiCgOjbBqkBbK","url":"/motorcycle-roads/israel/israel/ride/motorcycle-ride-4"},{"slat":"31.7746","slon":"35.0145","elat":"31.7529","elon":"35.0042","road_type_name":"Rural","road_type_id":"1","length":"41","title":"?????? ?? ???? / Ashkelon Nes Harim","rating":"5","comments_count":"1","is_long":"0","simplified_polyline":"{`}`EawutEa^m|Fzp@yyD_kA}uDlwAqyFiIliCzeB~eBs`@flChcBdlBzcAqw@dJb_@wjBziCxi@bgFmcA|cB","polyline":"{`}`EawutEa^m|Fzp@yyD_kA}uDlwAqyFiIliCzeB~eBs`@flChcBdlBzcAqw@dJb_@wjBziCxi@bgFmcA|cB","url":"/motorcycle-roads/israel/israel/ride/ashkelon-nes-harim"},{"slat":"31.5784","slon":"34.5734","elat":"31.3824","elon":"34.7902","road_type_name":"Rural","road_type_id":"1","length":"216","title":"??? ?? ???? ??????? ???? ?? ????","rating":"5","comments_count":"1","is_long":"1","simplified_polyline":"ctv_Ewr_rE`d\\}cDp_KinCvxEamF~OqpF`pE}tAjsFqxGbeB}AzeD}zWzlEyvNbsEgnBttDisD`tEnzCvgGgnJhk@}}Dct@ukV~_AgsFfrAwvBp|AmTkOwmA~aCuwBsJg`Fo}AckCowFeuB_kCwiDyyKlu@{hBnmAr`AvrBa_Ap`@vI|zA_iA`M}eB~zE}{E`_HmyCrM{cAhnE{w@ba@dd@fyAouBxmn@}oFtmIgdJ`lHm^bhC_wAzqA`~@fkCc~@rT","polyline":"ctv_Ewr_rE`d\\}cDp_KinCvxEamF~OqpF`pE}tAjsFqxGbeB}AzeD}zWzlEyvNbsEgnBttDisD`tEnzCvgGgnJhk@}}Dct@ukV~_AgsFfrAwvBp|AmTkOwmA~aCuwBsJg`Fo}AckCowFeuB_kCwiDyyKlu@{hBnmAr`AvrBa_Ap`@vI|zA_iA`M}eB~zE}{E`_HmyCrM{cAhnE{w@ba@dd@fyAouBxmn@}oFtmIgdJ`lHm^bhC_wAzqA`~@fkCc~@rT","url":"/motorcycle-roads/israel/israel/ride/motorcycle-ride-3"},{"slat":"31.6637","slon":"34.6155","elat":"31.6188","elon":"34.5809","road_type_name":"Rural","road_type_id":"1","length":"109","title":"?????? ???? ????? ??????","rating":"4","comments_count":"1","is_long":"0","simplified_polyline":"}kg`EazgrE`iBwwKq@s`H`oFajJ`tB{_HnqD{~Bf`EmrOvyEoTb}DffBpeB~|BtyK~aDmWtzB_~D|bHea@l`D}`CxjAvI`uFymCnr@gbDzyCy}BjpIdHteBoyB~|BxaDlaCmyL~tAwwA|jAe}DmiB","polyline":"}kg`EazgrE`iBwwKq@s`H`oFajJ`tB{_HnqD{~Bf`EmrOvyEoTb}DffBpeB~|BtyK~aDmWtzB_~D|bHea@l`D}`CxjAvI`uFymCnr@gbDzyCy}BjpIdHteBoyB~|BxaDlaCmyL~tAwwA|jAe}DmiB","url":"/motorcycle-roads/israel/israel/ride/motorcycle-ride-1"},{"slat":"31.8277","slon":"34.6725","elat":"31.7887","elon":"34.668","road_type_name":"Rural","road_type_id":"1","length":"185","title":"The Northern Negev and Lachish Plains","rating":"4","comments_count":"1","is_long":"0","simplified_polyline":"_lgaEq~rrEyRg}B|x@acB{CmkBnaD}jKisB}}WzdCeaL`nB_~B|iDfxDlfFf~Arz@lfBlwCqQreAf}AhtEdgAtcC~eBl{Cl}G`OrzBvfC}yAfwD{gOn~Bkp@vrDfr@jeDjfD`xGrhCnzK~kBkeFjbInvBngJ~~DfiGzQjeBaSnvFeeFprF}qJjgC{hNnnAq}J_~I}{J{{Bi_E_Ekt@jz@ipHz_A}h@js@}rCyuAkx@edBmbEoK","polyline":"_lgaEq~rrEyRg}B|x@acB{CmkBnaD}jKisB}}WzdCeaL`nB_~B|iDfxDlfFf~Arz@lfBlwCqQreAf}AhtEdgAtcC~eBl{Cl}G`OrzBvfC}yAfwD{gOn~Bkp@vrDfr@jeDjfD`xGrhCnzK~kBkeFjbInvBngJ~~DfiGzQjeBaSnvFeeFprF}qJjgC{hNnnAq}J_~I}{J{{Bi_E_Ekt@jz@ipHz_A}h@js@}rCyuAkx@edBmbEoK","url":"/motorcycle-roads/israel/israel/ride/the-northern-negev-and-lachish-plains"},{"slat":"32.615","slon":"35.2998","elat":"32.6047","elon":"35.2899","road_type_name":"Rural","road_type_id":"1","length":"115","title":"a Short ´Flight´ over the Izrael Valley","rating":"5","comments_count":"1","is_long":"0","simplified_polyline":"ocafE{nmvEg{HsjRumDa{DszCweA`S}_JzhAky@uhAsgBcd@g_H`zBknBpeGhhAldC~zB~zFfcAqcAd|C~rApc@krAsa@lj@wgAqZa\\`s@ix@zkEy\\neFdqAntDdaExrCpm@eGruAeyDxeCgb@tvBp_Bda@sp@|^fvBdvB_Sw\\meCrl@_j@jdDq~Fd}KwsDjvCwmBdV","polyline":"ocafE{nmvEg{HsjRumDa{DszCweA`S}_JzhAky@uhAsgBcd@g_H`zBknBpeGhhAldC~zB~zFfcAqcAd|C~rApc@krAsa@lj@wgAqZa\\`s@ix@zkEy\\neFdqAntDdaExrCpm@eGruAeyDxeCgb@tvBp_Bda@sp@|^fvBdvB_Sw\\meCrl@_j@jdDq~Fd}KwsDjvCwmBdV","url":"/motorcycle-roads/israel/israel/ride/a-short-flight-over-the-izrael-valley"},{"slat":"30.6101","slon":"34.8087","elat":"29.552","elon":"34.9461","road_type_name":"Desert","road_type_id":"5","length":"158","title":"Mizpe To EIlat - Crator to Sea","rating":"4","comments_count":"1","is_long":"0","simplified_polyline":"aqyyDgnmsE{qA_{@iB{kCpyDgkHxk@y]xq@d|@ro@_Ljc@}iCrqEweAhbAi}BvcBgf@fz@v}A~Tmt@nq@by@lkS_eCv`BwoA`pD`{A~uAkl@~Gs_AvsBbB`hCybF`JgkB|_AsPtsDtCrhGjxAxxI}eBvaJfvBr_Ggl@aRjqA|oHdyIb_KdcFp|DxrGv{K`gDz~Ecp@tsEqcCtmEluAlhFq[ltFe{A|y@ycA~_FdX|aBpz@xhAmiBhdAlJtxAkjBxsAicGwZiV","polyline":"aqyyDgnmsE{qA_{@iB{kCpyDgkHxk@y]xq@d|@ro@_Ljc@}iCrqEweAhbAi}BvcBgf@fz@v}A~Tmt@nq@by@lkS_eCv`BwoA`pD`{A~uAkl@~Gs_AvsBbB`hCybF`JgkB|_AsPtsDtCrhGjxAxxI}eBvaJfvBr_Ggl@aRjqA|oHdyIb_KdcFp|DxrGv{K`gDz~Ecp@tsEqcCtmEluAlhFq[ltFe{A|y@ycA~_FdX|aBpz@xhAmiBhdAlJtxAkjBxsAicGwZiV","url":"/motorcycle-roads/israel/israel/ride/mizpe-to-eilat-crator-to-sea"},{"slat":"32.734","slon":"35.0393","elat":"32.7341","elon":"35.0394","road_type_name":"Mountainous","road_type_id":"4","length":"78","title":"Carmel mountain scenic twister","rating":"5","comments_count":"1","is_long":"0","simplified_polyline":"elxfEcrztE_gBnx@{HirC{]ns@zF{s@o{@fF`zFknGf`ImgAxpJgxEtyArpCzSbzEalEdg@uh@|pA~~ChhBtqDxgMq|@rgDqvV{pCoEuoCy_CasD|FufB","polyline":"elxfEcrztE_gBnx@{HirC{]ns@zF{s@o{@fF`zFknGf`ImgAxpJgxEtyArpCzSbzEalEdg@uh@|pA~~ChhBtqDxgMq|@rgDqvV{pCoEuoCy_CasD|FufB","url":"/motorcycle-roads/israel/israel/ride/carmel-mountain-scenic-twister"},{"slat":"30.6106","slon":"34.8056","elat":"30.2771","elon":"35.021","road_type_name":"Desert","road_type_id":"5","length":"59","title":"The Ramon Crater","rating":"5","comments_count":"1","is_long":"0","simplified_polyline":"isyyDi~lsEuoAejAyBwiCzzDkoHxi@y\\jt@||@fm@mKpb@aiCttEohAvnAmeCvvAe]~y@x}AhUst@ro@jy@hoRy|B|{BexAfnDn|A`yAam@lIu`AduBr@ddCy|ErNctB","polyline":"isyyDi~lsEuoAejAyBwiCzzDkoHxi@y\\jt@||@fm@mKpb@aiCttEohAvnAmeCvvAe]~y@x}AhUst@ro@jy@hoRy|B|{BexAfnDn|A`yAam@lIu`AduBr@ddCy|ErNctB","url":"/motorcycle-roads/israel/israel/ride/the-ramon-crater"},{"slat":"31.7438","slon":"34.8632","elat":"31.6941","elon":"34.7604","road_type_name":"Rural","road_type_id":"1","length":"82","title":"Nir Banim - Beit Shemesh - Tsur Hadasa Loop : A Morning Blast of twists and Sweepers","rating":"5","comments_count":"1","is_long":"0","simplified_polyline":"ubw`EogxsEiXylBzwCcvEtpBwt@fWewBa{@oeByqCyj@s}CmdChrBofEsi@ghFrbDa`Fh~AleM~fCpsCwGfyHn{@vBj_@j`AcjCnkCtkAjg@hVb{Cx{GtgA~h@xlEkXbpFge@kDqzA|uE{vAih@gsDbhA","polyline":"ubw`EogxsEiXylBzwCcvEtpBwt@fWewBa{@oeByqCyj@s}CmdChrBofEsi@ghFrbDa`Fh~AleM~fCpsCwGfyHn{@vBj_@j`AcjCnkCtkAjg@hVb{Cx{GtgA~h@xlEkXbpFge@kDqzA|uE{vAih@gsDbhA","url":"/motorcycle-roads/israel/israel/ride/nir-banim-beit-shemesh-tsur-hadasa-loop-a-morning-blast-of-twists-and-sweepers"},{"slat":"31.2504","slon":"35.1892","elat":"31.1525","elon":"34.9885","road_type_name":"Desert","road_type_id":"5","length":"149","title":"Crarors and Canyons","rating":"5","comments_count":"1","is_long":"0","simplified_polyline":"krv}Dm{wuE{YcjCzw@ca@|bAamEjzC{Nb|Em_HffBi{ExhAwLoJqyAp_Ay`@u`AosBpeBmlA`lH}cAteCjTjuBxaDnwFduB~gApnAr[doDzoEvhA|tB}PxqBfeD`gKnhA|lDncBfiAiScbJdlRudEbzBaaBsy@q\\l`@yK{}@qx@|OpMxfA_~BnzDijAdbHlrBtuAkz@bxGuoDh{Fah@lbGut@_aE}qLilK}qBbrBqcEc~C}wDxtDqY_[","polyline":"krv}Dm{wuE{YcjCzw@ca@|bAamEjzC{Nb|Em_HffBi{ExhAwLoJqyAp_Ay`@u`AosBpeBmlA`lH}cAteCjTjuBxaDnwFduB~gApnAr[doDzoEvhA|tB}PxqBfeD`gKnhA|lDncBfiAiScbJdlRudEbzBaaBsy@q\\l`@yK{}@qx@|OpMxfA_~BnzDijAdbHlrBtuAkz@bxGuoDh{Fah@lbGut@_aE}qLilK}qBbrBqcEc~C}wDxtDqY_[","url":"/motorcycle-roads/israel/israel/ride/crarors-and-canyons"},{"slat":"32.7076","slon":"35.6867","elat":"32.9955","elon":"35.5859","road_type_name":"Rural","road_type_id":"1","length":"105","title":"Golan Heights Circle","rating":"5","comments_count":"1","is_long":"0","simplified_polyline":"cqtfEo}rxE|eBjo@rgAigAfZf`A_uDhwMqbFrh@wgChtBegDtn@e}DfpDemAY}xH{dGiiAnnA{^ov@ij@~h@asGjEkhEauBitCu~Ili@iy@akAut@do@wdBecFitIg{AkoFasEpiBojGek@_DgbFbvBym@rc@d~@hjDmoBukBucF~mDo`@","polyline":"cqtfEo}rxE|eBjo@rgAigAfZf`A_uDhwMqbFrh@wgChtBegDtn@e}DfpDemAY}xH{dGiiAnnA{^ov@ij@~h@asGjEkhEauBitCu~Ili@iy@akAut@do@wdBecFitIg{AkoFasEpiBojGek@_DgbFbvBym@rc@d~@hjDmoBukBucF~mDo`@","url":"/motorcycle-roads/israel/israel/ride/golan-heights-circle"},{"slat":"31.7756","slon":"35.0082","elat":"31.7752","elon":"35.0071","road_type_name":"Mountainous","road_type_id":"4","length":"68","title":"The Jerusalem Coridor Circle Run!","rating":"5","comments_count":"1","is_long":"0","simplified_polyline":"yg}`EgnttErTehCul@i|Cxp@qyD}jAuvD~qA{bDyOamAtKjcCrdBnbB{`@`kCjh@n~@p_Ahp@z_Akx@dRnt@hw@qfEbmAdkOdqChsD{J|nHqlBnIaj@e{AghFc`BydDwdE","polyline":"yg}`EgnttErTehCul@i|Cxp@qyD}jAuvD~qA{bDyOamAtKjcCrdBnbB{`@`kCjh@n~@p_Ahp@z_Akx@dRnt@hw@qfEbmAdkOdqChsD{J|nHqlBnIaj@e{AghFc`BydDwdE","url":"/motorcycle-roads/israel/israel/ride/the-jerusalem-coridor-circle-run"},{"slat":"33.1198","slon":"35.5687","elat":"33.0748","elon":"35.1223","road_type_name":"Mountainous","road_type_id":"4","length":"63","title":"Israel Northern Route","rating":"5","comments_count":"2","is_long":"0","simplified_polyline":"uuciEu_bxEb_Bn\\_fAp_@hChjEvm@zT_^`v@nkAmQ`fBljAhFxuGngAtx@lXw_Bz_A}CnmA|mHboBzsAmdAvnG{{@}L}u@~~@wGxiDuyB~xG`E`bCjgBhfBcwAvqJiJncK","polyline":"uuciEu_bxEb_Bn\\_fAp_@hChjEvm@zT_^`v@nkAmQ`fBljAhFxuGngAtx@lXw_Bz_A}CnmA|mHboBzsAmdAvnG{{@}L}u@~~@wGxiDuyB~xG`E`bCjgBhfBcwAvqJiJncK","url":"/motorcycle-roads/israel/israel/ride/israel-northern-route"},{"slat":"32.9907","slon":"35.4862","elat":"33.2377","elon":"35.5756","road_type_name":"Mountainous","road_type_id":"4","length":"41","title":"Naftali Hights Route","rating":"4","comments_count":"1","is_long":"0","simplified_polyline":"cojhEu{qwEs_AsZchA|wAytCl`@_fCuoEilAeHkLu`DwyCyxCycBrEbEbf@}aBee@qoFdQ_kIluAglBkgF","polyline":"cojhEu{qwEs_AsZchA|wAytCl`@_fCuoEilAeHkLu`DwyCyxCycBrEbEbf@}aBee@qoFdQ_kIluAglBkgF","url":"/motorcycle-roads/israel/israel/ride/naftali-hights-route"},{"slat":"31.6737","slon":"34.6077","elat":"31.6477","elon":"34.5938","road_type_name":"Desert","road_type_id":"5","length":"307","title":"Ashqelon ded see","rating":"4","comments_count":"2","is_long":"1","simplified_polyline":"kei`EehfrEioMaeGqz@gfB{mCuQwfGcfFg@}bCz_DirKocBgkV}zCclM`bAeo@~pCw_Jdy@goUssA__GmAuwEfe@saBzvBew@gb@ojA~Ye~Ai_ByjAugCotNjlAgl@dgAesClGmrNzmCw}@jwBfwAtgCh{E`yFxr@r{GdqDjvGb`Bx}D}_A`tBhlBd|OAr`GryBh}Bo}@t`S|DltAnUnh@nrArrCyDtvE|yAbkJkw@tfDdc@oz@pr@nJpyAyhAvLamGjaM}oAjoA_}BaHoeAdoEmw@b`@nc@r|A{tB~jn@woFtmIgfJ`oHuYb~Bc_Dx{FezH~nBvI`uFymCnr@gbDzyCi}BrnItGlgBoyB~|BvfCzqCcpHlc@_fE`lBkoJm~D","polyline":"kei`EehfrEioMaeGqz@gfB{mCuQwfGcfFg@}bCz_DirKocBgkV}zCclM`bAeo@~pCw_Jdy@goUssA__GmAuwEfe@saBzvBew@gb@ojA~Ye~Ai_ByjAugCotNjlAgl@dgAesClGmrNzmCw}@jwBfwAtgCh{E`yFxr@r{GdqDjvGb`Bx}D}_A`tBhlBd|OAr`GryBh}Bo}@t`S|DltAnUnh@nrArrCyDtvE|yAbkJkw@tfDdc@oz@pr@nJpyAyhAvLamGjaM}oAjoA_}BaHoeAdoEmw@b`@nc@r|A{tB~jn@woFtmIgfJ`oHuYb~Bc_Dx{FezH~nBvI`uFymCnr@gbDzyCi}BrnItGlgBoyB~|BvfCzqCcpHlc@_fE`lBkoJm~D","url":"/motorcycle-roads/israel/israel/ride/ashqelon-ded-see"}]