[{"slat":"19.871","slon":"102.113","elat":"19.7705","elon":"101.999","road_type_name":"Rural","road_type_id":"1","length":"25","title":"waterval","rating":"3","comments_count":"1","is_long":"0","simplified_polyline":"g_hxBo_gnRrhEnsHhfA|TpZp{Bsp@jhBfr@bqAbzG~qE~qB}jB","polyline":"g_hxBo_gnRrhEnsHhfA|TpZp{Bsp@jhBfr@bqAbzG~qE~qB}jB","url":"/motorcycle-roads/laos/laos/ride/waterval"},{"slat":"19.8824","slon":"102.151","elat":"19.8907","elon":"102.223","road_type_name":"Rural","road_type_id":"1","length":"10","title":"olifanten","rating":"2","comments_count":"1","is_long":"0","simplified_polyline":"ydjxByinnRf[{kKmqAis@","polyline":"ydjxByinnRf[{kKmqAis@","url":"/motorcycle-roads/laos/laos/ride/olifanten"},{"slat":"20.6556","slon":"101.979","elat":"20.2007","elon":"101.424","road_type_name":"Rural","road_type_id":"1","length":"97","title":"dag 2 muang xai","rating":"2","comments_count":"1","is_long":"0","simplified_polyline":"efa}ByxlmRvvJpqFfsA~|BhwAyA~nGvvD~aClyC~fGlwDhzIrwMx|Dz`DxjCnbIpeKhbIrl@`wBtbN`vNnuHdvD|s@`pGuaDd{@{_@p{BeeChs@","polyline":"efa}ByxlmRvvJpqFfsA~|BhwAyA~nGvvD~aClyC~fGlwDhzIrwMx|Dz`DxjCnbIpeKhbIrl@`wBtbN`vNnuHdvD|s@`pGuaDd{@{_@p{BeeChs@","url":"/motorcycle-roads/laos/laos/ride/dag-2-muang-xai"},{"slat":"19.7791","slon":"102.017","elat":"19.8702","elon":"102.13","road_type_name":"Rural","road_type_id":"1","length":"23","title":"waterval pradang","rating":"3","comments_count":"1","is_long":"0","simplified_polyline":"ebvwBcdtmRchDl|AseBev@us@uhBxr@soAoJswAivAey@}cEwgH[opB","polyline":"ebvwBcdtmRchDl|AseBev@us@uhBxr@soAoJswAivAey@}cEwgH[opB","url":"/motorcycle-roads/laos/laos/ride/waterval-pradang"},{"slat":"20.9293","slon":"101.418","elat":"20.4672","elon":"101.421","road_type_name":"Rural","road_type_id":"1","length":"79","title":"Muang Xay","rating":"3","comments_count":"1","is_long":"0","simplified_polyline":"isv~Bac_jR~nC}hC|rBbYUaqEpnAml@joEbwBjs@_gAxzEgOlrD|wAr]tfBfcDndC~}@oU}d@}r@nqA~B~{CeuB|o@lXjx@{dBzaBzSh^ihA~|Ajq@veAmf@t{LtvAvu@ee@``JfhFtcDjC","polyline":"isv~Bac_jR~nC}hC|rBbYUaqEpnAml@joEbwBjs@_gAxzEgOlrD|wAr]tfBfcDndC~}@oU}d@}r@nqA~B~{CeuB|o@lXjx@{dBzaBzSh^ihA~|Ajq@veAmf@t{LtvAvu@ee@``JfhFtcDjC","url":"/motorcycle-roads/laos/laos/ride/muang-xay"},{"slat":"19.9015","slon":"102.159","elat":"20.6807","elon":"101.986","road_type_name":"Rural","road_type_id":"1","length":"190","title":"Sang Ha","rating":"3","comments_count":"1","is_long":"0","simplified_polyline":"__nxBa}onRgeB_lBsbC}dIe|BggBmgHyKeiE}yBezGtJ{uCtkDaiC|p@lbDtjFyr@lwCzyBj|Aj@l|C}~@tS}p@_r@ey@nx@gfKqaG`ZjwCkrHvgCbmCvvDnJb|BleBvo@yWbo@v}BddHs@zcBu~Azx@rAjzI_lCpW_`Bso@k|Ey`Hc}KauAko@wlBqzBsbAwiFbj@eoEkfAoh@hyAekArSuTh}BmxAfc@yaJi}Ds|EhwBqWdgBu}BfuAwiAjkDspG_mFwmHigB","polyline":"__nxBa}onRgeB_lBsbC}dIe|BggBmgHyKeiE}yBezGtJ{uCtkDaiC|p@lbDtjFyr@lwCzyBj|Aj@l|C}~@tS}p@_r@ey@nx@gfKqaG`ZjwCkrHvgCbmCvvDnJb|BleBvo@yWbo@v}BddHs@zcBu~Azx@rAjzI_lCpW_`Bso@k|Ey`Hc}KauAko@wlBqzBsbAwiFbj@eoEkfAoh@hyAekArSuTh}BmxAfc@yaJi}Ds|EhwBqWdgBu}BfuAwiAjkDspG_mFwmHigB","url":"/motorcycle-roads/laos/laos/ride/sang-ha"},{"slat":"20.1322","slon":"100.736","elat":"19.8748","elon":"101.098","road_type_name":"Rural","road_type_id":"1","length":"87","title":"Pak Beng","rating":"3","comments_count":"1","is_long":"0","simplified_polyline":"c{zyBi~yeRv|Ag}C{LawDrxDkkCzaAepDiS}fFqy@is@gSuyC|sBudAhm@{nCnfBqdAnN}zEu_A}aAhlBqaEEetBmnAi|CpfA{zBv_BhUxmBcoEbgA_Ff}@o|AldAlo@vkDov@hdAcpCl~F~uC`\\v`EnpBp|A","polyline":"c{zyBi~yeRv|Ag}C{LawDrxDkkCzaAepDiS}fFqy@is@gSuyC|sBudAhm@{nCnfBqdAnN}zEu_A}aAhlBqaEEetBmnAi|CpfA{zBv_BhUxmBcoEbgA_Ff}@o|AldAlo@vkDov@hdAcpCl~F~uC`\\v`EnpBp|A","url":"/motorcycle-roads/laos/laos/ride/pak-beng-moto"},{"slat":"20.2499","slon":"100.429","elat":"20.1476","elon":"100.696","road_type_name":"Rural","road_type_id":"1","length":"53","title":"Pha Oudom","rating":"2","comments_count":"1","is_long":"0","simplified_polyline":"s`rzBs}}cR`q@}|DtiC{[~sBvk@niAmqD~oCw~CyuGs_Hzb@qb@h}C`]XusB`rCgeBzkDbJjqBoq@sgCssHf^k{Fix@g{A","polyline":"s`rzBs}}cR`q@}|DtiC{[~sBvk@niAmqD~oCw~CyuGs_Hzb@qb@h}C`]XusB`rCgeBzkDbJjqBoq@sgCssHf^k{Fix@g{A","url":"/motorcycle-roads/laos/laos/ride/pha-oudom-moto"},{"slat":"20.8888","slon":"101.353","elat":"20.2742","elon":"100.467","road_type_name":"Rural","road_type_id":"1","length":"153","title":"Huay Xai","rating":"3","comments_count":"1","is_long":"0","simplified_polyline":"cyn~BgoriRrrAnsExmBngAhNhaA~mDlnAlpAleD|nE~mC|r@|cCldFrkFxhHbhQfNzzB~tD|Hz^{oAlyBcdAv_FljC``CryBun@`q@jhDzoBp~@r{FbuAnSbr@`iBrnBvOn{DvhHl~ChRlrB|wBrAznAtxCvrBbrExtLjaAlV|bAhiHwbBxqFllAtcJ{rApb@itBtdGlaKhiLt|@y]bvDp`Crx@niAnKjsC","polyline":"cyn~BgoriRrrAnsExmBngAhNhaA~mDlnAlpAleD|nE~mC|r@|cCldFrkFxhHbhQfNzzB~tD|Hz^{oAlyBcdAv_FljC``CryBun@`q@jhDzoBp~@r{FbuAnSbr@`iBrnBvOn{DvhHl~ChRlrB|wBrAznAtxCvrBbrExtLjaAlV|bAhiHwbBxqFllAtcJ{rApb@itBtdGlaKhiLt|@y]bvDp`Crx@niAnKjsC","url":"/motorcycle-roads/laos/laos/ride/Huay-xai-moto"},{"slat":"20.6654","slon":"101.979","elat":"20.6031","elon":"102.608","road_type_name":"Rural","road_type_id":"1","length":"107","title":"Nong Khiaw - Muang Xay","rating":"2","comments_count":"1","is_long":"0","simplified_polyline":"gec}BivlmRlmCdShyCi{BpAiv@hn@fUf]ekAat@cxDx_De`HliAyO@w_Hls@knAs[avAtu@ogA}tA_jB~O{qBdw@~Jpm@qv@imCi~JfjAabAaaAkoGbaAoFaMesBapAm_Bp{@qs@qKmvEaaDgfFonDo~@ai@}yCrlA{hFvdCujDg`@mhC|hCwmAja@guA","polyline":"gec}BivlmRlmCdShyCi{BpAiv@hn@fUf]ekAat@cxDx_De`HliAyO@w_Hls@knAs[avAtu@ogA}tA_jB~O{qBdw@~Jpm@qv@imCi~JfjAabAaaAkoGbaAoFaMesBapAm_Bp{@qs@qKmvEaaDgfFonDo~@ai@}yCrlA{hFvdCujDg`@mhC|hCwmAja@guA","url":"/motorcycle-roads/laos/laos/ride/nong-khiaw-muang-xay"},{"slat":"20.5762","slon":"102.603","elat":"19.9246","elon":"102.193","road_type_name":"Rural","road_type_id":"1","length":"131","title":"Luang Prabang - Nongkhiaw","rating":"2","comments_count":"1","is_long":"0","simplified_polyline":"}{q|BcwfqRc{@j|B{hC~mAdb@zcCqbD~dFcp@nvD|f@~sCnpDj`Ab`DbmFrbGvtFf_G~|Ap{AzdBj|EtNdx@j_AfwIvmAllA}cC{g@wlF|eDs}GhiIcZnfC|jG~sAro@xmCheFtrFrr@zaClrAjcFzIx|HtzHhtH{WtiE|yBbjHtLf{BjgBjxAhzE","polyline":"}{q|BcwfqRc{@j|B{hC~mAdb@zcCqbD~dFcp@nvD|f@~sCnpDj`Ab`DbmFrbGvtFf_G~|Ap{AzdBj|EtNdx@j_AfwIvmAllA}cC{g@wlF|eDs}GhiIcZnfC|jG~sAro@xmCheFtrFrr@zaClrAjcFzIx|HtzHhtH{WtiE|yBbjHtLf{BjgBjxAhzE","url":"/motorcycle-roads/laos/laos/ride/Luang-Prabang-Nongkhiaw"},{"slat":"20.6409","slon":"101.976","elat":"20.59","elon":"102.581","road_type_name":"Rural","road_type_id":"1","length":"102","title":"13 / 1C : Muang Xai - Nong Khiaw","rating":"3","comments_count":"1","is_long":"0","simplified_polyline":"}r~|BgglmR`vC{vBf@mt@bo@hRb]_jA{k@_nErwCwiGliAyO@w_Hls@knAs[avAtu@ogAe_Aun@aVmqBhQwz@~dBa_@amC{hKfkAwpAqaAsaGbaAoFaMesBapAm_Bp{@qs@kQqkFgyC_nE{sD{eAue@uuCrlA{hFvdCujDcb@cdClsBmbA","polyline":"}r~|BgglmR`vC{vBf@mt@bo@hRb]_jA{k@_nErwCwiGliAyO@w_Hls@knAs[avAtu@ogAe_Aun@aVmqBhQwz@~dBa_@amC{hKfkAwpAqaAsaGbaAoFaMesBapAm_Bp{@qs@kQqkFgyC_nE{sD{eAue@uuCrlA{hFvdCujDcb@cdClsBmbA","url":"/motorcycle-roads/laos/laos/ride/13-1C-Muang-Xai-Nong-Khiaw"},{"slat":"19.9013","slon":"102.157","elat":"20.638","elon":"102.556","road_type_name":"Rural","road_type_id":"1","length":"131","title":"Pak Bak","rating":"2","comments_count":"1","is_long":"0","simplified_polyline":"w}mxBulonRofBk|BuaCkcI}yBcgBamHaNuiEwyBwtHlWqxHqxH{gFiLqzBooAkvFss@anCcdFguAqq@idCmjGwlI~ZqdDtzGng@~lFklA|dCuxIknAmv@s~@ivEiMgpBgmBkpF{uAgcG_uFm_DklFqrDqcAwb@wjE`jAauD`uBq~B`VaqByh@}k@","polyline":"w}mxBulonRofBk|BuaCkcI}yBcgBamHaNuiEwyBwtHlWqxHqxH{gFiLqzBooAkvFss@anCcdFguAqq@idCmjGwlI~ZqdDtzGng@~lFklA|dCuxIknAmv@s~@ivEiMgpBgmBkpF{uAgcG_uFm_DklFqrDqcAwb@wjE`jAauD`uBq~B`VaqByh@}k@","url":"/motorcycle-roads/laos/laos/ride/pak-bak"},{"slat":"20.133","slon":"100.729","elat":"19.8765","elon":"101.1","road_type_name":"Rural","road_type_id":"1","length":"87","title":"Pak Tha - Pak Beng","rating":"3","comments_count":"1","is_long":"0","simplified_polyline":"ch{yBiwxeRziBmcEsMg}Dh`EmkC|{@aqDyf@swApRykC{z@qm@gSuzCfsBgeA`j@klCrjB_gAxJamFw|@qo@nmBsdEmBcxBylAytCpgA}|B~|A|WvoBqqEpgA}D|aAq`BvkAvs@f`Dcw@~dAgpCh~F|vCxZx~D~jB~oA","polyline":"ch{yBiwxeRziBmcEsMg}Dh`EmkC|{@aqDyf@swApRykC{z@qm@gSuzCfsBgeA`j@klCrjB_gAxJamFw|@qo@nmBsdEmBcxBylAytCpgA}|B~|A|WvoBqqEpgA}D|aAq`BvkAvs@f`Dcw@~dAgpCh~F|vCxZx~D~jB~oA","url":"/motorcycle-roads/laos/laos/ride/Pak-tha-pak-beng"},{"slat":"20.8757","slon":"101.332","elat":"20.2766","elon":"100.474","road_type_name":"Rural","road_type_id":"1","length":"150","title":"Luang Namtha - Huay Xai","rating":"2","comments_count":"1","is_long":"0","simplified_polyline":"gjl~BufniRl]bgBnqAjj@pOfaAfqD|pAptAzhD~iEjjCnl@vyBdlFrwFfeH`bQhTtbCtqD|Bp_@qqAdvBaaAhzF~}CbeBncBon@dr@|hDdpBfq@lmFhfB~f@ji@r~AnsBpUjyDzdHrbDxWlkBrmBjEtvAn{CptBxqEjvL`aAvTrbAdjH{bB~qFllArbJssAtb@esBfeGzaKvhLhy@o_@v{D|cCd{@znD","polyline":"gjl~BufniRl]bgBnqAjj@pOfaAfqD|pAptAzhD~iEjjCnl@vyBdlFrwFfeH`bQhTtbCtqD|Bp_@qqAdvBaaAhzF~}CbeBncBon@dr@|hDdpBfq@lmFhfB~f@ji@r~AnsBpUjyDzdHrbDxWlkBrmBjEtvAn{CptBxqEjvL`aAvTrbAdjH{bB~qFllArbJssAtb@esBfeGzaKvhLhy@o_@v{D|cCd{@znD","url":"/motorcycle-roads/laos/laos/ride/Luang-Namtha-Huay-Xai"},{"slat":"20.9093","slon":"101.394","elat":"20.7032","elon":"101.982","road_type_name":"Rural","road_type_id":"1","length":"116","title":"Luang Namtha - Muang Xai","rating":"2","comments_count":"1","is_long":"0","simplified_polyline":"{as~BelziRgxAu[mwBuwCcqHwuPk|@kL_iDmgFbG}q@iwCobCvPkvF{eAydDtxEab@`nB_mAr}@tUhlGibD~x@i`Bc@apC`bBeiCdsDmyBtgB}Fpj@mgCtpA{_@qg@_MlyBob@TczFn_G_j@`gBsjBdKciGt_D{bC~V}xAh_Ccl@rzAlUnmBslAblAqzAsb@sb@","polyline":"{as~BelziRgxAu[mwBuwCcqHwuPk|@kL_iDmgFbG}q@iwCobCvPkvF{eAydDtxEab@`nB_mAr}@tUhlGibD~x@i`Bc@apC`bBeiCdsDmyBtgB}Fpj@mgCtpA{_@qg@_MlyBob@TczFn_G_j@`gBsjBdKciGt_D{bC~V}xAh_Ccl@rzAlUnmBslAblAqzAsb@sb@","url":"/motorcycle-roads/laos/laos/ride/Luang-Namtha-Muang-Xai"},{"slat":"20.6317","slon":"101.988","elat":"19.908","elon":"102.169","road_type_name":"Rural","road_type_id":"1","length":"180","title":"Luang Prabang","rating":"2","comments_count":"1","is_long":"0","simplified_polyline":"yr||BuunmRttAkg@vC}u@zl@dTf\\apAqr@kwDt`Ds{GjdAqMrBo_Hfq@cmA}XyxApt@ojAc~@yk@eU{qB~Ngx@lfBu`@qmC{iKlkA{pA}_AicGv|@aBgJ}uBooAoaBty@ym@oHcsE`_G`tFv~Fv|A`wAxbB`bFhQjv@n~@`yIrnAnlAkdCwg@_mFtdDc{GpkIq[heCpjGhuAlq@nlCncFzuFvs@b~BdqAxdFnJhzHryHvtHmWtiEvyBziHjL`{BxeBh~Dl|J","polyline":"yr||BuunmRttAkg@vC}u@zl@dTf\\apAqr@kwDt`Ds{GjdAqMrBo_Hfq@cmA}XyxApt@ojAc~@yk@eU{qB~Ngx@lfBu`@qmC{iKlkA{pA}_AicGv|@aBgJ}uBooAoaBty@ym@oHcsE`_G`tFv~Fv|A`wAxbB`bFhQjv@n~@`yIrnAnlAkdCwg@_mFtdDc{GpkIq[heCpjGhuAlq@nlCncFzuFvs@b~BdqAxdFnJhzHryHvtHmWtiEvyBziHjL`{BxeBh~Dl|J","url":"/motorcycle-roads/laos/laos/ride/luang-prabang"},{"slat":"19.8954","slon":"102.127","elat":"19.7386","elon":"101.709","road_type_name":"Rural","road_type_id":"1","length":"70","title":"pakbeng naar pradang","rating":"3","comments_count":"1","is_long":"0","simplified_polyline":"m|lxBywinRi@d_DwaAnqBtbGfsGseDxzPzyAdwA`d@n`CjyA{Kpr@v{@xsA|AzjExdEm_@~q@~k@tgCus@l^nk@hq@ms@vd@pqBbfJvbF|_DzfBrgE","polyline":"m|lxBywinRi@d_DwaAnqBtbGfsGseDxzPzyAdwA`d@n`CjyA{Kpr@v{@xsA|AzjExdEm_@~q@~k@tgCus@l^nk@hq@ms@vd@pqBbfJvbF|_DzfBrgE","url":"/motorcycle-roads/laos/laos/ride/pakbeng-naar-pradang"},{"slat":"19.8706","slon":"102.031","elat":"19.8953","elon":"102.126","road_type_name":"Gravel","road_type_id":"7","length":"13","title":"Pak Long","rating":"2","comments_count":"1","is_long":"0","simplified_polyline":"oahxBuxvmR~MqeBcmFoeFd{@eyA|GsmD","polyline":"oahxBuxvmR~MqeBcmFoeFd{@eyA|GsmD","url":"/motorcycle-roads/laos/laos/ride/Pak-Long"},{"slat":"20.1335","slon":"100.739","elat":"19.8058","elon":"101.704","road_type_name":"Rural","road_type_id":"1","length":"194","title":"Ban Kham - Luang Prabang","rating":"2","comments_count":"1","is_long":"0","simplified_polyline":"czzyBylzeRz{A}mC{JebEp}DofC|{@aqDebBetLztB{cAlj@cjCbcBi~@bO{sFm{@_k@lmBkfF{nA_xF`nAe~BnxAx\\xjBqlExnAwMjz@cxAjwB~k@duByp@zbA_oCvy@py@vz@{UdjCvrBtZt|DflHfnHlqD_kHhqCci@veFjrAnr@w[pc@`dB~pBns@oIfu@t`Erj@rWeyCv{MsnBmx@_sBjn@ugBgx@m`Avj@knCowAqeAix@keDz\\y`Bk{BuIyvAs{E|YufBaiAouAkjAtFutBo`Ebh@e_Ew[eoAraAkYjg@a}Bye@ib@dTsvBlfFyiK_nA{dD`f@oiA","polyline":"czzyBylzeRz{A}mC{JebEp}DofC|{@aqDebBetLztB{cAlj@cjCbcBi~@bO{sFm{@_k@lmBkfF{nA_xF`nAe~BnxAx\\xjBqlExnAwMjz@cxAjwB~k@duByp@zbA_oCvy@py@vz@{UdjCvrBtZt|DflHfnHlqD_kHhqCci@veFjrAnr@w[pc@`dB~pBns@oIfu@t`Erj@rWeyCv{MsnBmx@_sBjn@ugBgx@m`Avj@knCowAqeAix@keDz\\y`Bk{BuIyvAs{E|YufBaiAouAkjAtFutBo`Ebh@e_Ew[eoAraAkYjg@a}Bye@ib@dTsvBlfFyiK_nA{dD`f@oiA","url":"/motorcycle-roads/laos/laos/ride/Ban-Kham-Luang-Prabang"}]