[{"slat":"27.6919","slon":"85.3292","elat":"28.2084","elon":"83.9568","road_type_name":"Rural","road_type_id":"1","length":"204","title":"Kathmandu - Pokhara","rating":"4","comments_count":"1","is_long":"1","simplified_polyline":"sp_hDczxgOwh@huDheAxxE{NvfGafD|}Cxx@mU{lA~bE~YvoBspDfiFmg@lqL}wAiDscBxzDmgBtfAgVhfEguAfuAznBh|EmeAlyEpm@|iCsi@hdBfg@pr@qlAtpA~h@j|@mt@xkA`x@lsE{m@vz@lsBflEevC|jK_zDvi@ymC`hF_b@tjEbkCfnEkuBd~AkjE~s@i^`_E__AhMqwCvwH}`@fmEo{Cx_DkkAnpMlCfuFthAvw@qFnfI}dDnbKmVfhDofBrlB_YrlCwxBnjA{dCj]{bHeoCo`IvbF}|CpkDqhAbjDmRtgBl{@`u@e~@rtB","polyline":"sp_hDczxgOwh@huDheAxxE{NvfGafD|}Cxx@mU{lA~bE~YvoBspDfiFmg@lqL}wAiDscBxzDmgBtfAgVhfEguAfuAznBh|EmeAlyEpm@|iCsi@hdBfg@pr@qlAtpA~h@j|@mt@xkA`x@lsE{m@vz@lsBflEevC|jK_zDvi@ymC`hF_b@tjEbkCfnEkuBd~AkjE~s@i^`_E__AhMqwCvwH}`@fmEo{Cx_DkkAnpMlCfuFthAvw@qFnfI}dDnbKmVfhDofBrlB_YrlCwxBnjA{dCj]{bHeoCo`IvbF}|CpkDqhAbjDmRtgBl{@`u@e~@rtB","url":"/motorcycle-roads/nepal/nepal/ride/kathmandu-pokhara"},{"slat":"28.3737","slon":"83.5679","elat":"28.3488","elon":"83.5675","road_type_name":"Mountainous","road_type_id":"4","length":"180","title":"Beni - Jomson - Muktinath","rating":"5","comments_count":"1","is_long":"0","simplified_polyline":"gvdlDwz`}NmzCe|D{fEmAcwCsiD__ImgEskB}CeyExsCigCm_AojEnRcpE`gHm_DxMkzEelGcrAqcEqrHcoEy}CyoKgdCuZotBabBjrBesLosBzpL~uB`bBhbCrYbzChnKlpHfmEtbBjvE`zEdgGfrC{PfsEgjHtfEoTdkC~aAhzEeuCjfB|Aj~HxgEvtC~hDxkEpCzkBzvAbd@~lBdgD_D","polyline":"gvdlDwz`}NmzCe|D{fEmAcwCsiD__ImgEskB}CeyExsCigCm_AojEnRcpE`gHm_DxMkzEelGcrAqcEqrHcoEy}CyoKgdCuZotBabBjrBesLosBzpL~uB`bBhbCrYbzChnKlpHfmEtbBjvE`zEdgGfrC{PfsEgjHtfEoTdkC~aAhzEeuCjfB|Aj~HxgEvtC~hDxkEpCzkBzvAbd@~lBdgD_D","url":"/motorcycle-roads/nepal/nepal/ride/beni-jomson-muktinath-2"},{"slat":"27.8127","slon":"85.2496","elat":"27.775","elon":"85.3611","road_type_name":"Trail","road_type_id":"6","length":"44","title":"Kathmandu Off Road","rating":"5","comments_count":"1","is_long":"0","simplified_polyline":"cdwhDghigO|i@k}Ch`B~y@cR{pAjgAn_@hk@s_@xp@_}BhcE}k@adAcpB_eBgh@{tBxb@{tBs`@aGriAykAjMxkAkMhEuhAnpA}Hgc@{p@~gAoa@xh@acB","polyline":"cdwhDghigO|i@k}Ch`B~y@cR{pAjgAn_@hk@s_@xp@_}BhcE}k@adAcpB_eBgh@{tBxb@{tBs`@aGriAykAjMxkAkMhEuhAnpA}Hgc@{p@~gAoa@xh@acB","url":"/motorcycle-roads/nepal/nepal/ride/kathmandu-off-road"}]