[{"slat":"25.0551","slon":"55.4188","elat":"23.2288","elon":"57.2002","road_type_name":"Mountainous","road_type_id":"4","length":"493","title":"Jabal shams","rating":"5","comments_count":"1","is_long":"1","simplified_polyline":"iq|wCo~fqIhdIakHrs[}uQ~g^ocLhiGurL|}B{uBdpMsrEv|`@i~G`gBj_@rqHv{FvwCg|A|pKhgBrKklEvkCcVHrb@tiNurFrbOkdCv|Dsd@faEn^meLs|j@pr@afBddDbZzfG_bDvxDszFl~LcfFuyJahAeVwuIi~@{d@y{Ao`GpL}hDjdBkfDwc@uwBbvBqaFbBigB|_Exe@`gDdaBrbGiaAlaC|mBvnJ~@fzBqwBrcB_PhbP_fRi\\c~CblAavCtpKumChtE{nFn|IswDrrGhaDtoB{`At{N~mDvVmmCb~GyhQcfEkeNvqCelPk^s~Clv@ujClxCijAb}B|_AboByI|r@kw@`aBr}DpmL~cFr|RmhEfWcwE~pG}wQps@_eAhzDogAemA{lRcy@scCpR}mCb~AimAtiAugD_lC_OQynC{qAy{As}J_~EgdAdeB_hBjm@yaBdmEufBp^irBye@qhDdlCwnDtyNofDftEmuApRmrAq_A_yA`Y}fCoiA{g@kmA|xBgYsf@mbDtbAkN","polyline":"iq|wCo~fqIhdIakHrs[}uQ~g^ocLhiGurL|}B{uBdpMsrEv|`@i~G`gBj_@rqHv{FvwCg|A|pKhgBrKklEvkCcVHrb@tiNurFrbOkdCv|Dsd@faEn^meLs|j@pr@afBddDbZzfG_bDvxDszFl~LcfFuyJahAeVwuIi~@{d@y{Ao`GpL}hDjdBkfDwc@uwBbvBqaFbBigB|_Exe@`gDdaBrbGiaAlaC|mBvnJ~@fzBqwBrcB_PhbP_fRi\\c~CblAavCtpKumChtE{nFn|IswDrrGhaDtoB{`At{N~mDvVmmCb~GyhQcfEkeNvqCelPk^s~Clv@ujClxCijAb}B|_AboByI|r@kw@`aBr}DpmL~cFr|RmhEfWcwE~pG}wQps@_eAhzDogAemA{lRcy@scCpR}mCb~AimAtiAugD_lC_OQynC{qAy{As}J_~EgdAdeB_hBjm@yaBdmEufBp^irBye@qhDdlCwnDtyNofDftEmuApRmrAq_A_yA`Y}fCoiA{g@kmA|xBgYsf@mbDtbAkN","url":"/motorcycle-roads/united-arab-emirates/united-arab-emirates/ride/jabal-shams"},{"slat":"25.0551","slon":"55.4188","elat":"23.7065","elon":"56.7889","road_type_name":"Mountainous","road_type_id":"4","length":"390","title":"Al Hajer route","rating":"5","comments_count":"1","is_long":"1","simplified_polyline":"iq|wCo~fqIhxJeqI|zYimPhr^siLdfGqrLpzBmqBbyLkjEh{a@ogH`sKb|GzxCc|AzoKdgBbM}lEzgCkVrAlc@tiNurFxeOeeC~yD_d@z_Ej_@qdLu|j@rr@ufBveDvYheGsaDvxDszFl~LcfF_zJihAsTcqI}}@we@g~AegGrMqfDddBkfDyc@{vBbvBqaFbBigB|_Exe@`gDdaBrbGiaAlaC|mBfoJx@fvBkuBfjBcUd_P{bRy\\kzChfA}sC`tKwqCviEmeFhrDqrBdxDwoAreA`WlNmeGr{GwpFmpE{qH}aGyqC{jG}zPdDa}AesCvEgxBthAyHkjBdmAsrDqfGmtDm|Et~C{{AvaCsnF`UooEbaC_|Cgo@gzDdcDqYf}@|bB~cCtO~mBn`CqP`oA`q@fVlxDvs@`kAnq@}E","polyline":"iq|wCo~fqIhxJeqI|zYimPhr^siLdfGqrLpzBmqBbyLkjEh{a@ogH`sKb|GzxCc|AzoKdgBbM}lEzgCkVrAlc@tiNurFxeOeeC~yD_d@z_Ej_@qdLu|j@rr@ufBveDvYheGsaDvxDszFl~LcfF_zJihAsTcqI}}@we@g~AegGrMqfDddBkfDyc@{vBbvBqaFbBigB|_Exe@`gDdaBrbGiaAlaC|mBfoJx@fvBkuBfjBcUd_P{bRy\\kzChfA}sC`tKwqCviEmeFhrDqrBdxDwoAreA`WlNmeGr{GwpFmpE{qH}aGyqC{jG}zPdDa}AesCvEgxBthAyHkjBdmAsrDqfGmtDm|Et~C{{AvaCsnF`UooEbaC_|Cgo@gzDdcDqYf}@|bB~cCtO~mBn`CqP`oA`q@fVlxDvs@`kAnq@}E","url":"/motorcycle-roads/united-arab-emirates/united-arab-emirates/ride/al-hajer-route"},{"slat":"23.5237","slon":"58.6338","elat":"23.5825","elon":"58.5457","road_type_name":"Rural","road_type_id":"1","length":"13","title":"Yiti - Ruwi","rating":"5","comments_count":"1","is_long":"0","simplified_polyline":"{mqnCa|zdJ}oEpkLy}CrxB","polyline":"{mqnCa|zdJ}oEpkLy}CrxB","url":"/motorcycle-roads/oman/oman/ride/yiti-ruwi"},{"slat":"26.0627","slon":"56.0892","elat":"26.095","elon":"56.333","road_type_name":"Coastal","road_type_id":"2","length":"66","title":"Khasab Coastal Road","rating":"5","comments_count":"1","is_long":"0","simplified_polyline":"wka~CmyiuIqqMwpHsuCkfE}mLipBaT}kCg}@a[`uAxHtoAidA`dCdOkhBa`A|lAeaBhnFpwAx|D{rBznElCheDywJcHksAerBj@}Soo@","polyline":"wka~CmyiuIqqMwpHsuCkfE}mLipBaT}kCg}@a[`uAxHtoAidA`dCdOkhBa`A|lAeaBhnFpwAx|D{rBznElCheDywJcHksAerBj@}Soo@","url":"/motorcycle-roads/oman/oman/ride/khasab-coastal-road"},{"slat":"23.0888","slon":"57.3192","elat":"23.1614","elon":"57.4216","road_type_name":"Rural","road_type_id":"1","length":"22","title":"Mountain ride","rating":"4","comments_count":"1","is_long":"0","simplified_polyline":"eo|kCiaz|IgdBcqFrx@mlEo}@}nBeyCv_@eaAseC__CvR","polyline":"eo|kCiaz|IgdBcqFrx@mlEo}@}nBeyCv_@eaAseC__CvR","url":"/motorcycle-roads/oman/oman/ride/mountain-ride"}]