[{"slat":"23.5237","slon":"58.6338","elat":"23.5825","elon":"58.5457","road_type_name":"Rural","road_type_id":"1","length":"13","title":"Yiti - Ruwi","rating":"5","comments_count":"1","is_long":"0","simplified_polyline":"{mqnCa|zdJ}oEpkLy}CrxB","polyline":"{mqnCa|zdJ}oEpkLy}CrxB","url":"/motorcycle-roads/oman/oman/ride/yiti-ruwi"},{"slat":"26.0627","slon":"56.0892","elat":"26.095","elon":"56.333","road_type_name":"Coastal","road_type_id":"2","length":"66","title":"Khasab Coastal Road","rating":"5","comments_count":"1","is_long":"0","simplified_polyline":"wka~CmyiuIqqMwpHsuCkfE}mLipBaT}kCg}@a[`uAxHtoAidA`dCdOkhBa`A|lAeaBhnFpwAx|D{rBznElCheDywJcHksAerBj@}Soo@","polyline":"wka~CmyiuIqqMwpHsuCkfE}mLipBaT}kCg}@a[`uAxHtoAidA`dCdOkhBa`A|lAeaBhnFpwAx|D{rBznElCheDywJcHksAerBj@}Soo@","url":"/motorcycle-roads/oman/oman/ride/khasab-coastal-road"},{"slat":"23.0888","slon":"57.3192","elat":"23.1614","elon":"57.4216","road_type_name":"Rural","road_type_id":"1","length":"22","title":"Mountain ride","rating":"4","comments_count":"1","is_long":"0","simplified_polyline":"eo|kCiaz|IgdBcqFrx@mlEo}@}nBeyCv_@eaAseC__CvR","polyline":"eo|kCiaz|IgdBcqFrx@mlEo}@}nBeyCv_@eaAseC__CvR","url":"/motorcycle-roads/oman/oman/ride/mountain-ride"}]