[{"slat":"46.2973","slon":"6.99879","elat":"46.299","elon":"7.05387","road_type_name":"Rural","road_type_id":"1","length":"9","title":"ollon-villars","rating":"3","comments_count":"1","is_long":"0","simplified_polyline":"emqyGk}ui@leB}gCiuBwyBdDwsA","polyline":"emqyGk}ui@leB}gCiuBwyBdDwsA","url":"/motorcycle-roads/switzerland/switzerland/ride/ollon-villars"},{"slat":"47.3741","slon":"8.55674","elat":"47.2508","elon":"8.97568","road_type_name":"Mountainous","road_type_id":"4","length":"121","title":"Kanton Zurich Adventure Day","rating":"5","comments_count":"1","is_long":"0","simplified_polyline":"iwc`Hsffs@uYsnChh@qgCsoBgbBfzLajNiiDamGdeBkxF|WexBej@sgBlk@klBik@krCyiDsp@o_CoyEy[o~Brt@aqCcj@al@}rA|pAcBofBytAipAhiAux@nvCtCxXa|@r[x`BhdAfOld@npAxKpiC`rAcrDpj@vZte@mz@ue@lz@qj@wZarAbrDvwE|mBlkCuxBcaAaaF|z@nyFzwBvkBnf@u_A}GgwGcgGewDJ`d@lAkk@jm@lGzjAx`Aj]c}@|zBfuBv\\a}@tu@ldA","polyline":"iwc`Hsffs@uYsnChh@qgCsoBgbBfzLajNiiDamGdeBkxF|WexBej@sgBlk@klBik@krCyiDsp@o_CoyEy[o~Brt@aqCcj@al@}rA|pAcBofBytAipAhiAux@nvCtCxXa|@r[x`BhdAfOld@npAxKpiC`rAcrDpj@vZte@mz@ue@lz@qj@wZarAbrDvwE|mBlkCuxBcaAaaF|z@nyFzwBvkBnf@u_A}GgwGcgGewDJ`d@lAkk@jm@lGzjAx`Aj]c}@|zBfuBv\\a}@tu@ldA","url":"/motorcycle-roads/switzerland/switzerland/ride/kanton-zurich-adventure-day"},{"slat":"47.4074","slon":"9.46463","elat":"47.4086","elon":"9.46635","road_type_name":"Coastal","road_type_id":"2","length":"35","title":"Trogenrundfahrt","rating":"4","comments_count":"1","is_long":"0","simplified_polyline":"kgj`Hopwx@~i@c\\``@akG~|@vOa^scEjhA|@swEu}FykAvaCtzB|~E}}@ltExk@vWJr{B","polyline":"kgj`Hopwx@~i@c\\``@akG~|@vOa^scEjhA|@swEu}FykAvaCtzB|~E}}@ltExk@vWJr{B","url":"/motorcycle-roads/switzerland/switzerland/ride/trogenrundfahrt"},{"slat":"47.5448","slon":"9.3001","elat":"47.4989","elon":"9.34144","road_type_name":"Coastal","road_type_id":"2","length":"132","title":"Hemberg - Schwägalp","rating":"3","comments_count":"1","is_long":"0","simplified_polyline":"kbeaH}lww@lh@pT~iBmuDn_CcuAt@~xBd|@~aBffKphK~qAyP|lCqlD|`EonBpe@`i@nLez@zkDGl{AdyClcAprLaf@|T~sAnjAcu@`h@td@|xD_z@hjJtkCoxAdaFgxMnvAotAqjAg_F~FwmGmwAwbHjAfz@izCd_EklBnd@akBqp@{xBkyW_fAl_@{~A|tEeqAxSsgAupDwObfE}k@xi@}y@q~A}u@r^}sFq`F{|@liDu~DhzBe^neA","polyline":"kbeaH}lww@lh@pT~iBmuDn_CcuAt@~xBd|@~aBffKphK~qAyP|lCqlD|`EonBpe@`i@nLez@zkDGl{AdyClcAprLaf@|T~sAnjAcu@`h@td@|xD_z@hjJtkCoxAdaFgxMnvAotAqjAg_F~FwmGmwAwbHjAfz@izCd_EklBnd@akBqp@{xBkyW_fAl_@{~A|tEeqAxSsgAupDwObfE}k@xi@}y@q~A}u@r^}sFq`F{|@liDu~DhzBe^neA","url":"/motorcycle-roads/switzerland/switzerland/ride/hemberg-schwagalp"},{"slat":"46.9102","slon":"6.59331","elat":"46.9227","elon":"6.60381","road_type_name":"Rural","road_type_id":"1","length":"83","title":"02.11.20 Le Chaux de Fonds","rating":"4","comments_count":"1","is_long":"0","simplified_polyline":"wbi}Gwwfg@}sEewQugAwq@]u~HmoAokHsiBksBcmB_jG{z@}j@mi@htAmlAqiAbIqm@skEu~A}eCxgCse@vkCgkA|w@{e@u{@}nAbq@jYrmFraBl`ExyGtmB`bM`cZp_Ad{@~{Bm|@lt@n|AldB}pAmHgn@~r@pcA","polyline":"wbi}Gwwfg@}sEewQugAwq@]u~HmoAokHsiBksBcmB_jG{z@}j@mi@htAmlAqiAbIqm@skEu~A}eCxgCse@vkCgkA|w@{e@u{@}nAbq@jYrmFraBl`ExyGtmB`bM`cZp_Ad{@~{Bm|@lt@n|AldB}pAmHgn@~r@pcA","url":"/motorcycle-roads/switzerland/switzerland/ride/Le-Chaux-de-Fonds"},{"slat":"46.9048","slon":"6.57497","elat":"46.9062","elon":"6.58525","road_type_name":"Rural","road_type_id":"1","length":"147","title":"Campgne et Montagne","rating":"5","comments_count":"1","is_long":"0","simplified_polyline":"uah}Gobcg@}|@zuAtt@tgMj\\uY|t@loDzN_qBpiC~LmBceAh`CjqCpb@uoBvh@KkUcwAhY|i@|gAu[tu@}{G_\\guAvs@doA`Omr@q{Eq_Nc^rj@sSca@jUbaCso@wxAqQhlBa|B}jFy|@tt@_a@awAke@bjAwpA_}BzHrhCge@shAkZnaAwn@uUmwA{aImbB{lAePmbE}zDm}Bpp@iAvUwxAogAi_E~x@oe@{zBqjIyz@ck@ui@jtAskBszByuAxKuz@amAcfAvGkOloCqf@o^|NruBkiBja@p~GviUxbAteCzm@T|}GbcQhaA`}@p{Bq|@zt@r|AvdBmqAsG}m@nyC~vD","polyline":"uah}Gobcg@}|@zuAtt@tgMj\\uY|t@loDzN_qBpiC~LmBceAh`CjqCpb@uoBvh@KkUcwAhY|i@|gAu[tu@}{G_\\guAvs@doA`Omr@q{Eq_Nc^rj@sSca@jUbaCso@wxAqQhlBa|B}jFy|@tt@_a@awAke@bjAwpA_}BzHrhCge@shAkZnaAwn@uUmwA{aImbB{lAePmbE}zDm}Bpp@iAvUwxAogAi_E~x@oe@{zBqjIyz@ck@ui@jtAskBszByuAxKuz@amAcfAvGkOloCqf@o^|NruBkiBja@p~GviUxbAteCzm@T|}GbcQhaA`}@p{Bq|@zt@r|AvdBmqAsG}m@nyC~vD","url":"/motorcycle-roads/switzerland/switzerland/ride/campgne-et-montagne"},{"slat":"47.1124","slon":"6.83935","elat":"47.114","elon":"6.84832","road_type_name":"Rural","road_type_id":"1","length":"30","title":"LCF to LCF","rating":"4","comments_count":"1","is_long":"0","simplified_polyline":"crp~Gmvvh@ooCxaByuD{bFoZjq@usA{yEbf@{pB~tBfpAfzD|F~qAngG","polyline":"crp~Gmvvh@ooCxaByuD{bFoZjq@usA{yEbf@{pB~tBfpAfzD|F~qAngG","url":"/motorcycle-roads/switzerland/switzerland/ride/lcf-to-lcf"},{"slat":"47.0972","slon":"6.82919","elat":"46.8069","elon":"6.54846","road_type_name":"Mountainous","road_type_id":"4","length":"60","title":"La Chaux-de-Fonds","rating":"4","comments_count":"1","is_long":"0","simplified_polyline":"_tm~G_xth@viJttW`q@jDt_H~dQp_Ad{@p{Bq|@zt@r|AvdBmqAsG}m@f}ClvFz_As@vqCfpIp~CtoAzfAb`B~sAmfAri@eqF_\\guAjs@`oAmMmt@|d@nX","polyline":"_tm~G_xth@viJttW`q@jDt_H~dQp_Ad{@p{Bq|@zt@r|AvdBmqAsG}m@f}ClvFz_As@vqCfpIp~CtoAzfAb`B~sAmfAri@eqF_\\guAjs@`oAmMmt@|d@nX","url":"/motorcycle-roads/switzerland/switzerland/ride/La-Chaux-de-Fonds"},{"slat":"46.4627","slon":"9.78905","elat":"46.4851","elon":"9.64108","road_type_name":"Mountainous","road_type_id":"4","length":"16","title":"Julierpass / 3 : Silvaplana","rating":"5","comments_count":"1","is_long":"0","simplified_polyline":"}vqzGg|vz@iaAdhLnx@|mBjEpjHshClwA","polyline":"}vqzGg|vz@iaAdhLnx@|mBjEpjHshClwA","url":"/motorcycle-roads/switzerland/switzerland/ride/julierpass"},{"slat":"47.0505","slon":"8.52985","elat":"47.0155","elon":"8.30131","road_type_name":"Mountainous","road_type_id":"4","length":"157","title":"giro del Sustenpass","rating":"3","comments_count":"1","is_long":"0","simplified_polyline":"ctd~Gs_as@~r@yuB}\\isGzfCabFlhD~l@pl@lgAliGahAx|B~}@nfBonB|wA?jMzz@xlCin@knCda@db@n[hrDmkBtgG_g@x`A{qBjtF{x@~fAzyB~fIhoHsT|ZaQ{b@igEfiQoWzsE~aCxkEyqA~qHz_@l]ep@hj@fj@aMoNpwDvkBp{E``BrvPmgCjcJeUgq@u{@xgAkyA|`EdQpp@otAeoBw~@fWuNk_CspBnEa{AgyAuk@bQqiEogF_bBs}E_pBgEwoGqxDwkDeM{uCwrD}{BaXy_B~~@","polyline":"ctd~Gs_as@~r@yuB}\\isGzfCabFlhD~l@pl@lgAliGahAx|B~}@nfBonB|wA?jMzz@xlCin@knCda@db@n[hrDmkBtgG_g@x`A{qBjtF{x@~fAzyB~fIhoHsT|ZaQ{b@igEfiQoWzsE~aCxkEyqA~qHz_@l]ep@hj@fj@aMoNpwDvkBp{E``BrvPmgCjcJeUgq@u{@xgAkyA|`EdQpp@otAeoBw~@fWuNk_CspBnEa{AgyAuk@bQqiEogF_bBs}E_pBgEwoGqxDwkDeM{uCwrD}{BaXy_B~~@","url":"/motorcycle-roads/switzerland/switzerland/ride/giro-del-sustenpass"},{"slat":"45.8589","slon":"9.40871","elat":"46.2312","elon":"9.08283","road_type_name":"Rural","road_type_id":"1","length":"328","title":"Palla Tour (4passi)","rating":"3","comments_count":"1","is_long":"1","simplified_polyline":"_y{vGcslx@g|Axh@}_Aqj@Jg`Ae~E{qB_|Ai~FbVkhBji@mIrMlr@lmEmjAnCos@gkArR~o@_n@jk@qbIqs@vVdw@ecD{ZshDpuA_dFohB}CahCasAsvDt[{g@ib@m~BxrBqmCobDkzCpq@vVxTosB`xAoo@g`@gWpw@by@d|Aa`@e[kg@viAeo@o_AceBzmBnFubAks@~`@gLcy@iW`dAqp@pCxLr_Amm@i@`y@b[upDtyDcr@aWuPs|A~F~pCyZieA}\\|fAcKfpRkrA|p@a]p{DauBkUqcEkeD_j@nrAypANq}GjsHicCzjAwpD{hAuiAk|X_nBu_RkwAcrD{nDekAeN{`Dq{@kDyeF_nN}_DsiDdf@`{AmeAn}Krx@joBtD|jHeiBtrAwsChDgwBh}B}lIi]_vCbgEqkG`t@edAt_Aw`@up@_kE|oPkYjeHj`Afr@rp@saAndBfNzl@_h@jzEnwBr`Gn`@boAh{Cs\\z`ExsCvoJnr@`fOblBrjH`Eis@~pE~fCrcEsxDnaCom@gG}_Ap{BusBpPtj@r[eeAx_@|x@x_B_d@`jHpoBv`PfnJtoA|oBtp@ngJ","polyline":"_y{vGcslx@g|Axh@}_Aqj@Jg`Ae~E{qB_|Ai~FbVkhBji@mIrMlr@lmEmjAnCos@gkArR~o@_n@jk@qbIqs@vVdw@ecD{ZshDpuA_dFohB}CahCasAsvDt[{g@ib@m~BxrBqmCobDkzCpq@vVxTosB`xAoo@g`@gWpw@by@d|Aa`@e[kg@viAeo@o_AceBzmBnFubAks@~`@gLcy@iW`dAqp@pCxLr_Amm@i@`y@b[upDtyDcr@aWuPs|A~F~pCyZieA}\\|fAcKfpRkrA|p@a]p{DauBkUqcEkeD_j@nrAypANq}GjsHicCzjAwpD{hAuiAk|X_nBu_RkwAcrD{nDekAeN{`Dq{@kDyeF_nN}_DsiDdf@`{AmeAn}Krx@joBtD|jHeiBtrAwsChDgwBh}B}lIi]_vCbgEqkG`t@edAt_Aw`@up@_kE|oPkYjeHj`Afr@rp@saAndBfNzl@_h@jzEnwBr`Gn`@boAh{Cs\\z`ExsCvoJnr@`fOblBrjH`Eis@~pE~fCrcEsxDnaCom@gG}_Ap{BusBpPtj@r[eeAx_@|x@x_B_d@`jHpoBv`PfnJtoA|oBtp@ngJ","url":"/motorcycle-roads/italy/lombardia-emilia-romagna/ride/palla-tour-4passi"},{"slat":"47.6687","slon":"9.18402","elat":"47.4496","elon":"9.07784","road_type_name":"Rural","road_type_id":"1","length":"215","title":"Bodensee Eundfahrt","rating":"3","comments_count":"1","is_long":"1","simplified_polyline":"}i}aHyu`w@W_eDwxAln@asCjsEkf@e^_pAl}AupAtQjb@jeF{hDzyE}w@raIubC`bCisAdNlDeaBuxAwFdFo}Dwn@_La[maFdxI_wP`JssDcd@{n@za@alChuDiV`]csAtuBzZ~fCgnC}f@sqAujA^}{AkvIrhAqcHjgDg`@jVq}AtnAmr@ht@cpFdy@eGzd@gjAsuCejJjd@eq@xiBde@~kDww@|zCrc@dS_tIp_CwvCxj@guErv@iu@`z@ahJtuDqmE|~AnFrg@||A~dA_x@~|Bvh@jeA`bBngDrLdhBpsA{[vzF~y@bq@m@~rGt_Ed{LmLva@m|@wVd^nbEc}@{Na`@`kGql@n[nsBpi@baBloEv|AsyBncDhhCmOflDgjD~{IeAtkHcaI|aGpe@zeCiX`rFk`@dbCaoDjyCkbAd`D~d@zuF","polyline":"}i}aHyu`w@W_eDwxAln@asCjsEkf@e^_pAl}AupAtQjb@jeF{hDzyE}w@raIubC`bCisAdNlDeaBuxAwFdFo}Dwn@_La[maFdxI_wP`JssDcd@{n@za@alChuDiV`]csAtuBzZ~fCgnC}f@sqAujA^}{AkvIrhAqcHjgDg`@jVq}AtnAmr@ht@cpFdy@eGzd@gjAsuCejJjd@eq@xiBde@~kDww@|zCrc@dS_tIp_CwvCxj@guErv@iu@`z@ahJtuDqmE|~AnFrg@||A~dA_x@~|Bvh@jeA`bBngDrLdhBpsA{[vzF~y@bq@m@~rGt_Ed{LmLva@m|@wVd^nbEc}@{Na`@`kGql@n[nsBpi@baBloEv|AsyBncDhhCmOflDgjD~{IeAtkHcaI|aGpe@zeCiX`rFk`@dbCaoDjyCkbAd`D~d@zuF","url":"/motorcycle-roads/germany/baden-wurttemberg/ride/bodensee-eundfahrt"},{"slat":"45.8063","slon":"12.0264","elat":"46.0906","elon":"8.92406","road_type_name":"Mountainous","road_type_id":"4","length":"786","title":"Giro Passi Dolomiti","rating":"3","comments_count":"1","is_long":"1","simplified_polyline":"klqvGuvkhAkqAbqAamAil@skBdx@cbG~}Kex@dG}Div@wwCvMujBf|CgpAutAmzArEcfBskGgpDgRgxAa|Aup@~EuNfsAgwEykFcpCq_IlEaqAktAs}A_q@u~KscDc_HnBtwNcnBrYsuAfuAwkAw~@ysDmSk{D`}CiqAxxJcdKrqF{cF~~F}_@d|KlbAjhFoYcYae@`gDw`BlzBhDlxHnmAbeJer@jsG{P{h@ekB`_@iwKm`Fq|BwxHjj@}vCqrCe`AbxAuDot@{Zjr@e~DixBqpKoH|_AydA|\\aeC}}AchBxpAzBvjKhaA|t@lS`jD|`@FgoAeI_dAdeCtE|sEgpBdoHzA`wC{lC`eE?xbPsnFcxCszCukIynG}~FazHpuAgjAw~@sdEfqFk}BxsKc|Gj{DqsAz{D__BrlGlXrhC`aCxtJrMul@nMfkApH{_AnWfsBdaBbgB~MxeDvB{pApb@gXyIzqAra@ujAsJvdBdV_kAy@prFpo@nlEzc@kZ}kBhkMuwDrkAk`Cwk@lHthAolBznCpxA~kBapAq_Ad{@neAqqBz_A|Ovr@mjBfdB_RroCllBvBfoBjwAw{F_^qo@rsBitAa@uVj{AwdIvBa{DnwBeeBjsC{gCq\\svE~lBqvCz}Dwq@yMisBx}AqqF|U}sDfjKjgAt_Jmm@doEouAv{@jyA~yB`lArkI~xEddLj{IctDpVeiCfeAm{@jnErCv`GdcF~tHhpLhaCfnGzaDlbDnMca@xhEa@zqDa~A~xD~IbdEowEnlCwBfaBpz@toGiq@_C|r@lx@i^Rdh@diAwy@vC|s@twAgb@vcAclElnEuqC|hAs~BhzDhzIz|KdeJbu@vkHgiA|~BilFuo@s`BvkAy\\q]wl@x|IkcIziYeb@|rF`|@~uAzyD_cAzZzgBz`HfwBbzA`eCb|Dji@cXgz@pr@zh@qvA{rD|fCqiARs_AflEsfEhk@yxD`lBz|@kaAssBm~AeYs\\ooC~j@wkIuj@asBzaC}kApt@|nAvmC_n@r}BtbAxoIk|@~e@hvAppD`|@x_AbgFznDf_FhkDvuAfxD||DjhBljI|_I|zNl^pxCeJhqTgy@b{FtgAlcIid@~mf@vb@fkCdvA|iAlgAzfOmuAx|GlZdpO_wAkd@scBj~AxWrtGhpBleDrbAd~FtmDl{BpwFg^jeErbD`Zr{AdnBte@_vCv}Mre@pyF|mA`vCoJtdGfyBdmGbPpdDigBvhAqw@m\\{Gz`GmuJd]","polyline":"klqvGuvkhAkqAbqAamAil@skBdx@cbG~}Kex@dG}Div@wwCvMujBf|CgpAutAmzArEcfBskGgpDgRgxAa|Aup@~EuNfsAgwEykFcpCq_IlEaqAktAs}A_q@u~KscDc_HnBtwNcnBrYsuAfuAwkAw~@ysDmSk{D`}CiqAxxJcdKrqF{cF~~F}_@d|KlbAjhFoYcYae@`gDw`BlzBhDlxHnmAbeJer@jsG{P{h@ekB`_@iwKm`Fq|BwxHjj@}vCqrCe`AbxAuDot@{Zjr@e~DixBqpKoH|_AydA|\\aeC}}AchBxpAzBvjKhaA|t@lS`jD|`@FgoAeI_dAdeCtE|sEgpBdoHzA`wC{lC`eE?xbPsnFcxCszCukIynG}~FazHpuAgjAw~@sdEfqFk}BxsKc|Gj{DqsAz{D__BrlGlXrhC`aCxtJrMul@nMfkApH{_AnWfsBdaBbgB~MxeDvB{pApb@gXyIzqAra@ujAsJvdBdV_kAy@prFpo@nlEzc@kZ}kBhkMuwDrkAk`Cwk@lHthAolBznCpxA~kBapAq_Ad{@neAqqBz_A|Ovr@mjBfdB_RroCllBvBfoBjwAw{F_^qo@rsBitAa@uVj{AwdIvBa{DnwBeeBjsC{gCq\\svE~lBqvCz}Dwq@yMisBx}AqqF|U}sDfjKjgAt_Jmm@doEouAv{@jyA~yB`lArkI~xEddLj{IctDpVeiCfeAm{@jnErCv`GdcF~tHhpLhaCfnGzaDlbDnMca@xhEa@zqDa~A~xD~IbdEowEnlCwBfaBpz@toGiq@_C|r@lx@i^Rdh@diAwy@vC|s@twAgb@vcAclElnEuqC|hAs~BhzDhzIz|KdeJbu@vkHgiA|~BilFuo@s`BvkAy\\q]wl@x|IkcIziYeb@|rF`|@~uAzyD_cAzZzgBz`HfwBbzA`eCb|Dji@cXgz@pr@zh@qvA{rD|fCqiARs_AflEsfEhk@yxD`lBz|@kaAssBm~AeYs\\ooC~j@wkIuj@asBzaC}kApt@|nAvmC_n@r}BtbAxoIk|@~e@hvAppD`|@x_AbgFznDf_FhkDvuAfxD||DjhBljI|_I|zNl^pxCeJhqTgy@b{FtgAlcIid@~mf@vb@fkCdvA|iAlgAzfOmuAx|GlZdpO_wAkd@scBj~AxWrtGhpBleDrbAd~FtmDl{BpwFg^jeErbD`Zr{AdnBte@_vCv}Mre@pyF|mA`vCoJtdGfyBdmGbPpdDigBvhAqw@m\\{Gz`GmuJd]","url":"/motorcycle-roads/switzerland/switzerland/ride/giro-passi-dolomiti"},{"slat":"47.1208","slon":"8.00392","elat":"47.1208","elon":"8.00387","road_type_name":"Mountainous","road_type_id":"4","length":"174","title":"Brünigpass glaubenbergpass glaubenbielpass","rating":"4","comments_count":"1","is_long":"0","simplified_polyline":"_hr~Gmgzo@ztCwx@|zEyyJbcE~d@hgAnjAp]r}Cfw@bSsw@{Se]{|CbpEoMmg@am@daAcYjr@ywEbxA}lCv`Ber@dxA`tAriFzrA}HwtBj|@yqCtShZdMgyBqsB{sNvvDYpaBt|EjjEthF|k@{PnzA`yAbxBzP|GrgBp_AeWbkAzrBnpA_yFn|AqsCzI|kAkgBrfAepAzxFmkAwrB{~@|WeNwfCw}@}cAifB|`@oqDuuAjXfbDifAlfAhjAlqA_^nU`m@|MsFv|CfiAn|D|[mr@tLxy@mqCt|I_tQkQ}_Bpz@q{FslIw_GguB}sCzmA_aBud@ux@xhCg}FtvDgj@|jB","polyline":"_hr~Gmgzo@ztCwx@|zEyyJbcE~d@hgAnjAp]r}Cfw@bSsw@{Se]{|CbpEoMmg@am@daAcYjr@ywEbxA}lCv`Ber@dxA`tAriFzrA}HwtBj|@yqCtShZdMgyBqsB{sNvvDYpaBt|EjjEthF|k@{PnzA`yAbxBzP|GrgBp_AeWbkAzrBnpA_yFn|AqsCzI|kAkgBrfAepAzxFmkAwrB{~@|WeNwfCw}@}cAifB|`@oqDuuAjXfbDifAlfAhjAlqA_^nU`m@|MsFv|CfiAn|D|[mr@tLxy@mqCt|I_tQkQ}_Bpz@q{FslIw_GguB}sCzmA_aBud@ux@xhCg}FtvDgj@|jB","url":"/motorcycle-roads/switzerland/switzerland/ride/brunigpass-glaubenbergpass-glaubenbielpass"},{"slat":"46.4888","slon":"9.83624","elat":"46.2538","elon":"10.1266","road_type_name":"Mountainous","road_type_id":"4","length":"51","title":"St Moritz to Brusio","rating":"5","comments_count":"1","is_long":"0","simplified_polyline":"{yvzGsc`{@yzBauCmQsrBneJmdLfqBqqH|`Byr@bz@euB}^_pBfmAy}CxhAkO~LegAvzAxhA|`Bs~@|gBbpBvqBbZd}FccDp`BojE`uA_hA","polyline":"{yvzGsc`{@yzBauCmQsrBneJmdLfqBqqH|`Byr@bz@euB}^_pBfmAy}CxhAkO~LegAvzAxhA|`Bs~@|gBbpBvqBbZd}FccDp`BojE`uA_hA","url":"/motorcycle-roads/switzerland/switzerland/ride/st-moritz-to-brusio"},{"slat":"46.8524","slon":"9.53317","elat":"46.4604","elon":"9.79584","road_type_name":"Mountainous","road_type_id":"4","length":"71","title":"Chur No.3","rating":"5","comments_count":"1","is_long":"0","simplified_polyline":"oz}|Gi}dy@fk@hh@z_@olArhAuGbxEpq@|bFatDdlCry@r`Fyd@bgCgz@teA{mCdCxuB~^iiAd]`t@vbAk_AdkGys@`wCqgEnvHbc@vgEw_DzxAnVhjB}tAgEygHsx@}oBt`AmhJsU_aBrd@mG","polyline":"oz}|Gi}dy@fk@hh@z_@olArhAuGbxEpq@|bFatDdlCry@r`Fyd@bgCgz@teA{mCdCxuB~^iiAd]`t@vbAk_AdkGys@`wCqgEnvHbc@vgEw_DzxAnVhjB}tAgEygHsx@}oBt`AmhJsU_aBrd@mG","url":"/motorcycle-roads/switzerland/switzerland/ride/chur-no-3"},{"slat":"46.318","slon":"6.97309","elat":"46.6864","elon":"7.66756","road_type_name":"Mountainous","road_type_id":"4","length":"92","title":"No 11","rating":"5","comments_count":"1","is_long":"0","simplified_polyline":"unuyG{|pi@oOcgDewB}_FubCosAzGi}AsYtZoUs~AemDseDqdEkdAfVqpE}nDjtEexBcwA}Mk|Ey|AqtGy[ypKmiD}}Fy~Bq{H}lFc}Bc|Axl@}qDyHelBojFiw@s\\cbAarEcN_xVa|A{`KqjB__Bhm@oaB","polyline":"unuyG{|pi@oOcgDewB}_FubCosAzGi}AsYtZoUs~AemDseDqdEkdAfVqpE}nDjtEexBcwA}Mk|Ey|AqtGy[ypKmiD}}Fy~Bq{H}lFc}Bc|Axl@}qDyHelBojFiw@s\\cbAarEcN_xVa|A{`KqjB__Bhm@oaB","url":"/motorcycle-roads/switzerland/switzerland/ride/no-11"},{"slat":"47.17","slon":"7.98082","elat":"47.1516","elon":"8.03987","road_type_name":"Mountainous","road_type_id":"4","length":"32","title":"passeio pelos vales e Serras","rating":"4","comments_count":"1","is_long":"0","simplified_polyline":"o|{~Gyvuo@ibB`gLhWtfE|}FmaGnpBmPzGs|Md`AoqFuoDwz@mjA`{@","polyline":"o|{~Gyvuo@ibB`gLhWtfE|}FmaGnpBmPzGs|Md`AoqFuoDwz@mjA`{@","url":"/motorcycle-roads/switzerland/switzerland/ride/passeio-pelos-vales-e-serras"},{"slat":"47.118","slon":"8.0086","elat":"47.124","elon":"7.99499","road_type_name":"Rural","road_type_id":"1","length":"57","title":"Passeio a Tarde : Willisau","rating":"4","comments_count":"1","is_long":"0","simplified_polyline":"kxq~G{f{o@lg@kmEwhCec@vsBgjDtCsaCc_CmrCcDgdBw~E~`GxVnrDg`Bxa@iR`~ClItkD|sAtpByzDxoDvbAlu@wYvfBnfApWiAlbHfhAs@~dAayBjwCeqB}_@u}Inc@obBjgAL","polyline":"kxq~G{f{o@lg@kmEwhCec@vsBgjDtCsaCc_CmrCcDgdBw~E~`GxVnrDg`Bxa@iR`~ClItkD|sAtpByzDxoDvbAlu@wYvfBnfApWiAlbHfhAs@~dAayBjwCeqB}_@u}Inc@obBjgAL","url":"/motorcycle-roads/switzerland/switzerland/ride/passeio-a-tarde-willisau"},{"slat":"46.1655","slon":"8.76958","elat":"46.1539","elon":"8.60452","road_type_name":"Coastal","road_type_id":"2","length":"16","title":"Centovalli","rating":"4","comments_count":"1","is_long":"0","simplified_polyline":"ytwxG_yot@orAvnLxxCnwQ","polyline":"ytwxG_yot@orAvnLxxCnwQ","url":"/motorcycle-roads/switzerland/switzerland/ride/centovalli"},{"slat":"46.8109","slon":"9.85808","elat":"46.6085","elon":"10.5708","road_type_name":"Mountainous","road_type_id":"4","length":"105","title":"Davos to Agums via Fluela, Umbrail and Stelvio Passes","rating":"5","comments_count":"1","is_long":"0","simplified_polyline":"}uu|Gokd{@t]shEpxAixC~nCcdDpyAu@flA}cDkqA{aJjc@}rI~pDhNxbBomAxtCg`N`sAQruAasAu}@swFfjCiqNhxEagN~l@}}Ip\\t^p_BalAvkFpp@zfAeeBiq@ifIgsC_xAmfH{wI","polyline":"}uu|Gokd{@t]shEpxAixC~nCcdDpyAu@flA}cDkqA{aJjc@}rI~pDhNxbBomAxtCg`N`sAQruAasAu}@swFfjCiqNhxEagN~l@}}Ip\\t^p_BalAvkFpp@zfAeeBiq@ifIgsC_xAmfH{wI","url":"/motorcycle-roads/switzerland/switzerland/ride/davos-to-agums-via-fluela-umbrail-and-stelvio-passes"},{"slat":"46.6037","slon":"7.10039","elat":"46.5759","elon":"7.08756","road_type_name":"Mountainous","road_type_id":"4","length":"87","title":"Moleson Village over the Jeanpass return loop","rating":"5","comments_count":"1","is_long":"0","simplified_polyline":"whm{Gwxij@{rBucIvsCqlKueA_}O|rAsx@iFm{Bzq@emAm{DamErcDxLvsA_n@`mCvo@zyB|iBzmApfFnfExtHpy@|uP`qCtjMax@fuDnTdtCybAzwB}iByaBspCcUcgGy`EggBsM","polyline":"whm{Gwxij@{rBucIvsCqlKueA_}O|rAsx@iFm{Bzq@emAm{DamErcDxLvsA_n@`mCvo@zyB|iBzmApfFnfExtHpy@|uP`qCtjMax@fuDnTdtCybAzwB}iByaBspCcUcgGy`EggBsM","url":"/motorcycle-roads/switzerland/switzerland/ride/moleson-village-over-the-jeanpass-return-loop"},{"slat":"46.0917","slon":"7.06988","elat":"45.8733","elon":"6.12586","road_type_name":"Mountainous","road_type_id":"4","length":"188","title":"Lausanne - Annecy - Lausanne","rating":"4","comments_count":"1","is_long":"0","simplified_polyline":"}nixGytcj@bZlwAc~Amy@fyEdrFuc@\\|w@jb@w}@gDdkBtaCjqAxImiAlKoyAnzBpiClfE~pD~`DxpFko@pnLf}JdfC~aMywEnbEcd@tfDxbBbp@l_CxcFlE_v@`JtdGbfE~sEjcGxdRuUfoAgcG|cBq\\jvA_Ni]_LpdE}fAj`Ce{Abw@oe@q`@}HffAaaBxe@v]l_Ej}E`sJweBlyDdo@lzFwl@voFw{B~rB}`@dzCnpCjmGbgAkcBzsFtg@rtC{^ro@~t@ftBe\\rmD~f@|cAzzBcqAm[vqA|mA}zCabAmi@hmAo{@qt@ml@rjA_|@me@gVdi@c}HwiD","polyline":"}nixGytcj@bZlwAc~Amy@fyEdrFuc@\\|w@jb@w}@gDdkBtaCjqAxImiAlKoyAnzBpiClfE~pD~`DxpFko@pnLf}JdfC~aMywEnbEcd@tfDxbBbp@l_CxcFlE_v@`JtdGbfE~sEjcGxdRuUfoAgcG|cBq\\jvA_Ni]_LpdE}fAj`Ce{Abw@oe@q`@}HffAaaBxe@v]l_Ej}E`sJweBlyDdo@lzFwl@voFw{B~rB}`@dzCnpCjmGbgAkcBzsFtg@rtC{^ro@~t@ftBe\\rmD~f@|cAzzBcqAm[vqA|mA}zCabAmi@hmAo{@qt@ml@rjA_|@me@gVdi@c}HwiD","url":"/motorcycle-roads/switzerland/switzerland/ride/lausanne-annecy-lausanne"},{"slat":"46.2639","slon":"6.94377","elat":"46.0897","elon":"7.0713","road_type_name":"Mountainous","road_type_id":"4","length":"178","title":"Monthey Abondance Chamonix Martigny","rating":"4","comments_count":"1","is_long":"0","simplified_polyline":"s|jyG}dki@bdAwQbbC~yCmk@{F~Zx_A_`@wZ~TrnKmlFrfBcrBloFaLtuExtApzIafBdrE{yAqUsfCp`C{JbeFldAjnEj~@ulCxqI_nAb|CikEl`H{_F`Fbq@fcDp`AroGnqLrs@quApIxaDnbAtFnDkw@hz@fhB|x@a\\sJdc@du@}^drAxd@xtAe`D~{EkaCj_GwDpaF_zBdbCchKmlC}eDrf@qwCduEuyD}a@kjEw`B{_G}eCcwCij@dHy|FonFiqFho@_zDqlDq_Cu}D~xAswBtiAuJsqAqJekBuaCv}@fDow@_b@fc@i@gyEerFt~Ajy@wIscB","polyline":"s|jyG}dki@bdAwQbbC~yCmk@{F~Zx_A_`@wZ~TrnKmlFrfBcrBloFaLtuExtApzIafBdrE{yAqUsfCp`C{JbeFldAjnEj~@ulCxqI_nAb|CikEl`H{_F`Fbq@fcDp`AroGnqLrs@quApIxaDnbAtFnDkw@hz@fhB|x@a\\sJdc@du@}^drAxd@xtAe`D~{EkaCj_GwDpaF_zBdbCchKmlC}eDrf@qwCduEuyD}a@kjEw`B{_G}eCcwCij@dHy|FonFiqFho@_zDqlDq_Cu}D~xAswBtiAuJsqAqJekBuaCv}@fDow@_b@fc@i@gyEerFt~Ajy@wIscB","url":"/motorcycle-roads/switzerland/switzerland/ride/monthey-abondance-chamonix-martigny"},{"slat":"46.6385","slon":"8.59431","elat":"45.9142","elon":"6.86568","road_type_name":"Mountainous","road_type_id":"4","length":"306","title":"The Chedi Andermatt to Mont-Blanc tunnel Birthday Run 2017 (day2)","rating":"5","comments_count":"1","is_long":"1","simplified_polyline":"wat{Gsqms@coBllA{z@q`AejG_YsPoc@{gErjQqV~lGdaCnqCyqAlrHj`@v[up@~k@bj@{MkNjxD~kBf|EfwAddPbiCcrAnsFejJd}DmM`pFk~Eh{@ty@uGsr@pPvd@xXk[sh@mkCtc@vq@{@w}@j^pf@lv@o_@h}@x~@sQmz@pkDz}ExfD|bKtpT~r^jyA||Gt`FfqGdqC`rInt@leOp^aId@nxJvx@|^kyBtfHxDruQykAzsBbCdlD|iAlhChhEv|Y`bGluQxbBdxP|xExmJfu@iNoO_m@jtBt{@{oAo~Ah|@dn@kFy_Axd@~z@}Nkn@xlBaiBtFttBhf@g_@pz@hhA{GilAhxA{n@sd@`{@lYto@jl@i[|QhvAjb@}c@Sv{Avl@}q@ag@rwCbv@jwHqYduGh{@ldFsU|k@kjD{mA`yEdrFic@n@xw@~a@y}@eDbkBtaCrqAdJ{~Al]mbAjpBpjHlwI`}Fwm@bjLb~J","polyline":"wat{Gsqms@coBllA{z@q`AejG_YsPoc@{gErjQqV~lGdaCnqCyqAlrHj`@v[up@~k@bj@{MkNjxD~kBf|EfwAddPbiCcrAnsFejJd}DmM`pFk~Eh{@ty@uGsr@pPvd@xXk[sh@mkCtc@vq@{@w}@j^pf@lv@o_@h}@x~@sQmz@pkDz}ExfD|bKtpT~r^jyA||Gt`FfqGdqC`rInt@leOp^aId@nxJvx@|^kyBtfHxDruQykAzsBbCdlD|iAlhChhEv|Y`bGluQxbBdxP|xExmJfu@iNoO_m@jtBt{@{oAo~Ah|@dn@kFy_Axd@~z@}Nkn@xlBaiBtFttBhf@g_@pz@hhA{GilAhxA{n@sd@`{@lYto@jl@i[|QhvAjb@}c@Sv{Avl@}q@ag@rwCbv@jwHqYduGh{@ldFsU|k@kjD{mA`yEdrFic@n@xw@~a@y}@eDbkBtaCrqAdJ{~Al]mbAjpBpjHlwI`}Fwm@bjLb~J","url":"/motorcycle-roads/switzerland/switzerland/ride/the-chedi-andermatt-to-mont-blanc-tunnel-birthday-run-2017-day2"},{"slat":"47.4067","slon":"9.46477","elat":"47.3804","elon":"9.53766","road_type_name":"Rural","road_type_id":"1","length":"13","title":"Ruppen : Altstätten - Trogen","rating":"4","comments_count":"1","is_long":"0","simplified_polyline":"sbj`H{qwx@nfAkgHx|@hP_^ucEf}@vV","polyline":"sbj`H{qwx@nfAkgHx|@hP_^ucEf}@vV","url":"/motorcycle-roads/switzerland/switzerland/ride/ruppen-altstatten-trogen"},{"slat":"47.5103","slon":"8.22898","elat":"47.4762","elon":"8.21502","road_type_name":"Rural","road_type_id":"1","length":"57","title":"Jurapark - Aargau","rating":"5","comments_count":"1","is_long":"0","simplified_polyline":"ui~`Hmdfq@yxB`bCcp@{Py}@fsHzxBfKnz@`wBxn@ckB_CeuEdwBflIjgCzd@v]lnDayA``AtLvlG`kBnOzhDugBgiAcjSi^axAgjAz@}vAkfE","polyline":"ui~`Hmdfq@yxB`bCcp@{Py}@fsHzxBfKnz@`wBxn@ckB_CeuEdwBflIjgCzd@v]lnDayA``AtLvlG`kBnOzhDugBgiAcjSi^axAgjAz@}vAkfE","url":"/motorcycle-roads/switzerland/switzerland/ride/jurapark-aargau"},{"slat":"47.2189","slon":"7.51502","elat":"47.1902","elon":"7.50531","road_type_name":"Rural","road_type_id":"1","length":"230","title":"Jura Suisse - Jura France - Seeland","rating":"4","comments_count":"1","is_long":"1","simplified_polyline":"one_H{wzl@}sBjsCccA{_Cee@~xAic@obAyFjxFa_Ct`D_An|Jp`Ax|C_a@~eDbb@pdRifGlbBqsBul@aJxnBqkFwlBmvA~lClgDd`Ipf@x{Mrp@pf@hH|{a@pu@bqBd}@aNnA~mFhi@faCbqAn_AWsi@zm@xn@jEuoArcBynArtCfaDfl@ut@t~Axi@h`Bs[rz@inBhnCzRpMic@zaAfk@nf@uo@alAibAjz@z]n`@}xCbrDt|Ehx@kD`dAydBlcEpoFvsDp}I~\\_d@hZpv@vvAhHzwCp~C|eAqd@kCkuCpXcdA`m@bQjUkyAwgA{}Dxx@u`@oz@m~Fb{@ibGaxDwcQsg@o_KqlCacFuQyrBl{@{nAgbAu`Lu}AicBq[izBlaBebG}}@{~Ao_@ynEifEqaDkxA_wCqy@j`AcvA_~Ak}@mcF_qDkhH{gBerK","polyline":"one_H{wzl@}sBjsCccA{_Cee@~xAic@obAyFjxFa_Ct`D_An|Jp`Ax|C_a@~eDbb@pdRifGlbBqsBul@aJxnBqkFwlBmvA~lClgDd`Ipf@x{Mrp@pf@hH|{a@pu@bqBd}@aNnA~mFhi@faCbqAn_AWsi@zm@xn@jEuoArcBynArtCfaDfl@ut@t~Axi@h`Bs[rz@inBhnCzRpMic@zaAfk@nf@uo@alAibAjz@z]n`@}xCbrDt|Ehx@kD`dAydBlcEpoFvsDp}I~\\_d@hZpv@vvAhHzwCp~C|eAqd@kCkuCpXcdA`m@bQjUkyAwgA{}Dxx@u`@oz@m~Fb{@ibGaxDwcQsg@o_KqlCacFuQyrBl{@{nAgbAu`Lu}AicBq[izBlaBebG}}@{~Ao_@ynEifEqaDkxA_wCqy@j`AcvA_~Ak}@mcF_qDkhH{gBerK","url":"/motorcycle-roads/switzerland/switzerland/ride/jura-suisse-jura-france-seeland"},{"slat":"47.1957","slon":"7.58494","elat":"47.038","elon":"7.10333","road_type_name":"Rural","road_type_id":"1","length":"185","title":"Jura - Emmenthal - Oberland - Üechtland - Seeland Tour","rating":"4","comments_count":"1","is_long":"0","simplified_polyline":"s|`_Hynhm@t|BenA~~EbNbcBy_Il{B}bBfnIt{F`kDkdB~|Fy|Pd|AiiAvBa~@`vB_n@l{@ehGjzAe}Btx@wsHdqByeFbvAue@|kDl|ApmE~dIxTpwBcdAfiAfTfkEpa@{GxOngE`jC`xBwNfxIdqChaKy`BxqHoIjxIqr@zu@|^puBuv@`u@tsA{HbwAtyFrhE_tBv|Cd|AzEzqEj|@tuAs{@to@h^`vMubEfwCe{@og@ke@no@qpBhEgwAjcBepAhiHqaAlZvQnqHmfCbkDunAIgzAlzAc`CGm`A~}As{CsEudD_`FynChkCwpF~lByj@~nAsfCV{Zmw@","polyline":"s|`_Hynhm@t|BenA~~EbNbcBy_Il{B}bBfnIt{F`kDkdB~|Fy|Pd|AiiAvBa~@`vB_n@l{@ehGjzAe}Btx@wsHdqByeFbvAue@|kDl|ApmE~dIxTpwBcdAfiAfTfkEpa@{GxOngE`jC`xBwNfxIdqChaKy`BxqHoIjxIqr@zu@|^puBuv@`u@tsA{HbwAtyFrhE_tBv|Cd|AzEzqEj|@tuAs{@to@h^`vMubEfwCe{@og@ke@no@qpBhEgwAjcBepAhiHqaAlZvQnqHmfCbkDunAIgzAlzAc`CGm`A~}As{CsEudD_`FynChkCwpF~lByj@~nAsfCV{Zmw@","url":"/motorcycle-roads/switzerland/switzerland/ride/jura-emmenthal-oberland-uechtland-seeland-tour"},{"slat":"47.2799","slon":"7.9309","elat":"47.1798","elon":"7.97503","road_type_name":"Rural","road_type_id":"1","length":"71","title":"Vierkantonsrundfahrt : Solothurn - Madiswil - Nebikon - Zofingen","rating":"3","comments_count":"1","is_long":"0","simplified_polyline":"}jq_He`lo@dg@bqEvsD~l@ud@`bGx[r}@bvA`R{{@dzAvq@xyB_S|nDsaAhsAveBpgHcs@j{Ir\\ed@zn@tr@hbAt~Et`CdYxzAidHxm@ubLptCm`FiV}|CyiCwwCqi@siF_Ws}JheAg}Ii^yc@","polyline":"}jq_He`lo@dg@bqEvsD~l@ud@`bGx[r}@bvA`R{{@dzAvq@xyB_S|nDsaAhsAveBpgHcs@j{Ir\\ed@zn@tr@hbAt~Et`CdYxzAidHxm@ubLptCm`FiV}|CyiCwwCqi@siF_Ws}JheAg}Ii^yc@","url":"/motorcycle-roads/switzerland/switzerland/ride/vierkantonsrundfahrt-solothurn-madiswil-nebikon-zofingen"},{"slat":"46.397","slon":"6.23462","elat":"46.2859","elon":"6.07051","road_type_name":"Mountainous","road_type_id":"4","length":"59","title":"Twisty Commute : Ferney-Voltaire - Prangins","rating":"4","comments_count":"1","is_long":"0","simplified_polyline":"yydzG{t`e@cbAeAagEjqCojBut@hZdzAuq@yc@sV~a@tsB`vIqjA`hMi{@xa@j|AvGry@{wAprDn~C~Tcf@lp@|zAn~AgKfkB`vEjdAsj@dJwxCpg@nh@_h@ecAtt@r[oOwq@|wKunA","polyline":"yydzG{t`e@cbAeAagEjqCojBut@hZdzAuq@yc@sV~a@tsB`vIqjA`hMi{@xa@j|AvGry@{wAprDn~C~Tcf@lp@|zAn~AgKfkB`vEjdAsj@dJwxCpg@nh@_h@ecAtt@r[oOwq@|wKunA","url":"/motorcycle-roads/switzerland/switzerland/ride/twisty-commute-ferney-voltaire-prangins"},{"slat":"47.3343","slon":"8.51932","elat":"47.3903","elon":"8.45061","road_type_name":"Rural","road_type_id":"1","length":"157","title":"Bunny Hop : Zürich - Freienbach","rating":"4","comments_count":"1","is_long":"0","simplified_polyline":"q~{_He}~r@haEiWjqAs{BhtKayFnaBnuE|kAr}@mj@snCdt@}_AhqA|MlqAomI}a@chFuzBzaByjA_pBjoAo{AosAskAh}@asE`rArvAwk@ysKpn@q|B_j@_~Ddq@wO_Qk{D~u@rBn^ycGnl@~u@pbDwm@tu@luAo@ptPegCbSmQneAvqAlvCceAns@rKlwAmn@xv@zvBd{Gcg@zsDfbAlvE_]v{Fe`Ix}EcaBvhD{iFmkC_nC`xBem@wDqEiyAm{AdEwiAdvDjRnjAibD{Nuc@|c@r[v_BkcAwd@_sAdfBhGunBysBdpAyi@ncBu`BaW","polyline":"q~{_He}~r@haEiWjqAs{BhtKayFnaBnuE|kAr}@mj@snCdt@}_AhqA|MlqAomI}a@chFuzBzaByjA_pBjoAo{AosAskAh}@asE`rArvAwk@ysKpn@q|B_j@_~Ddq@wO_Qk{D~u@rBn^ycGnl@~u@pbDwm@tu@luAo@ptPegCbSmQneAvqAlvCceAns@rKlwAmn@xv@zvBd{Gcg@zsDfbAlvE_]v{Fe`Ix}EcaBvhD{iFmkC_nC`xBem@wDqEiyAm{AdEwiAdvDjRnjAibD{Nuc@|c@r[v_BkcAwd@_sAdfBhGunBysBdpAyi@ncBu`BaW","url":"/motorcycle-roads/switzerland/switzerland/ride/bunny-hop-zurich-freienbach"},{"slat":"47.3943","slon":"7.97727","elat":"47.3966","elon":"7.96905","road_type_name":"Mountainous","road_type_id":"4","length":"37","title":"Erlinsbach - Anwil - Wölflinswil - Kienberg - Erlinsbach","rating":"4","comments_count":"1","is_long":"0","simplified_polyline":"mvg`Hi`uo@mr@kaEseAvmCydActB_h@xmE{xA~|@kwDkk@~`B`gIfbAyqCblB~Utt@wsAj`@bd@`J}}A`^fj@dyA_lB","polyline":"mvg`Hi`uo@mr@kaEseAvmCydActB_h@xmE{xA~|@kwDkk@~`B`gIfbAyqCblB~Utt@wsAj`@bd@`J}}A`^fj@dyA_lB","url":"/motorcycle-roads/switzerland/switzerland/ride/erlinsbach-anwil-wolflinswil-kienberg-erlinsbach"},{"slat":"47.4674","slon":"7.97035","elat":"47.4704","elon":"7.96424","road_type_name":"Cruiser","road_type_id":"8","length":"72","title":"Frick, Erlinsbach, Rheinfelden (med)","rating":"4","comments_count":"1","is_long":"0","simplified_polyline":"g~u`H_uso@h`ArbAvbA{IzxA_}@rg@mmEdeAvsB|l@qeCdn@yGh}@fgFwgCfzByNs{@oYloBiv@c]ytFjzQi}B`Iwq@taDgoBvBioEvtCuk@soArUmlI`pHekLxtAhzDbvBxWvh@weByz@eiH","polyline":"g~u`H_uso@h`ArbAvbA{IzxA_}@rg@mmEdeAvsB|l@qeCdn@yGh}@fgFwgCfzByNs{@oYloBiv@c]ytFjzQi}B`Iwq@taDgoBvBioEvtCuk@soArUmlI`pHekLxtAhzDbvBxWvh@weByz@eiH","url":"/motorcycle-roads/switzerland/switzerland/ride/frick-erlinsbach-rheinfelden-med"},{"slat":"47.4421","slon":"7.96411","elat":"47.4384","elon":"7.96615","road_type_name":"Cruiser","road_type_id":"8","length":"38","title":"Kienberg, Stüsslingen, Anwil, Wittnau, Kienberg (small)","rating":"4","comments_count":"1","is_long":"0","simplified_polyline":"{`q`Hypro@qxA`_@}v@ucAe~@xK~`B`gIfbAyqCblB~Ujt@wsAt`@bd@`J}}A`^fj@`kB{vB}v@cjFifAzmCcdAgtBkqAplF","polyline":"{`q`Hypro@qxA`_@}v@ucAe~@xK~`B`gIfbAyqCblB~Ujt@wsAt`@bd@`J}}A`^fj@`kB{vB}v@cjFifAzmCcdAgtBkqAplF","url":"/motorcycle-roads/switzerland/switzerland/ride/kienberg-stusslingen-anwil-wittnau-kienberg-small"},{"slat":"46.6694","slon":"7.06537","elat":"46.5268","elon":"6.8911","road_type_name":"Rural","road_type_id":"1","length":"46","title":"Bulle - Sorrens - Châtel-St-Denis","rating":"4","comments_count":"1","is_long":"0","simplified_polyline":"udz{Gu|bj@gv@tdSfmCrfEe`E~k@cYlp@|wIx{KhGdrA|~@_}AprAvB|~@shBriCv~Brj@xrBdpBp@fjDmyCgEiqF","polyline":"udz{Gu|bj@gv@tdSfmCrfEe`E~k@cYlp@|wIx{KhGdrA|~@_}AprAvB|~@shBriCv~Brj@xrBdpBp@fjDmyCgEiqF","url":"/motorcycle-roads/switzerland/switzerland/ride/bulle-sorrens-chatel-st-denis"},{"slat":"46.8854","slon":"7.30796","elat":"46.7681","elon":"7.34968","road_type_name":"Rural","road_type_id":"1","length":"68","title":"Neuenegg - Riggisberg - Wahlern - Rüeggisberg","rating":"3","comments_count":"1","is_long":"0","simplified_polyline":"shd}G{irk@`aBzBbnC}zAcMcrB`i@mn@rnLdpEjd@kjFlhA}\\j_A}hEpaBwt@{RmdCbzAshCq}Co}A{gEdtBa{Ao}FmjCyQskB|n@gcAsg@e_Cf|AogCziHaIn`Enw@nxBenAtrA","polyline":"shd}G{irk@`aBzBbnC}zAcMcrB`i@mn@rnLdpEjd@kjFlhA}\\j_A}hEpaBwt@{RmdCbzAshCq}Co}A{gEdtBa{Ao}FmjCyQskB|n@gcAsg@e_Cf|AogCziHaIn`Enw@nxBenAtrA","url":"/motorcycle-roads/switzerland/switzerland/ride/neuenegg-riggisberg-wahlern-rueggisberg"},{"slat":"46.8973","slon":"7.3015","elat":"46.8974","elon":"7.30175","road_type_name":"Rural","road_type_id":"1","length":"48","title":"Lyss - Bern - Golaten","rating":"3","comments_count":"1","is_long":"0","simplified_polyline":"cdg}Gekok@kZl~IupFsZ_DhnAmk@nE}jB}uAw{Ezf@{q@gaB}v@d~A_|FsxJnwAemP`w@`t@pWk_BzdBw[zlBuyBlJtf@xkD{u@vXc`A","polyline":"cdg}Gekok@kZl~IupFsZ_DhnAmk@nE}jB}uAw{Ezf@{q@gaB}v@d~A_|FsxJnwAemP`w@`t@pWk_BzdBw[zlBuyBlJtf@xkD{u@vXc`A","url":"/motorcycle-roads/switzerland/switzerland/ride/lyss-bern-golaten"},{"slat":"46.2145","slon":"7.58558","elat":"46.2557","elon":"7.532","road_type_name":"Mountainous","road_type_id":"4","length":"11","title":"Routes du Valais 5 : Vissoie - Vercorin","rating":"2","comments_count":"1","is_long":"0","simplified_polyline":"ifayGqphm@xk@bBmoCviDki@{_@a~@ph@dWhsAimAlbA","polyline":"ifayGqphm@xk@bBmoCviDki@{_@a~@ph@dWhsAimAlbA","url":"/motorcycle-roads/switzerland/switzerland/ride/routes-du-valais-5-vissoie-vercorin"},{"slat":"46.5046","slon":"8.31226","elat":"46.5611","elon":"8.36403","road_type_name":"Mountainous","road_type_id":"4","length":"149","title":"Grimselpass > Sustenpass > Nufenenpass","rating":"4","comments_count":"1","is_long":"0","simplified_polyline":"u_zzGuovq@zhBcpH~dBi|@em@er@jg@eS_|@w[l`@u@zUskJgwEyvLyeBk}Oc_@uFxQpbBap@_LfOvw@kxAryAo[me@y}@pvAihDvJakCq}Aih@zu@ciCiqDalBl|@uz@q`AejG_YsPoc@wgEziQuVvmGdaCjqCyqAprHj`@v[up@~k@bj@{MkNjxDzkBv{Ez{AtkPdeC{yA|rFmiJ`}DmMzoFg~Ex{@ny@wGwr@rP|d@pXw[{h@ejCbd@vp@MwgA","polyline":"u_zzGuovq@zhBcpH~dBi|@em@er@jg@eS_|@w[l`@u@zUskJgwEyvLyeBk}Oc_@uFxQpbBap@_LfOvw@kxAryAo[me@y}@pvAihDvJakCq}Aih@zu@ciCiqDalBl|@uz@q`AejG_YsPoc@wgEziQuVvmGdaCjqCyqAprHj`@v[up@~k@bj@{MkNjxDzkBv{Ez{AtkPdeC{yA|rFmiJ`}DmMzoFg~Ex{@ny@wGwr@rP|d@pXw[{h@ejCbd@vp@MwgA","url":"/motorcycle-roads/switzerland/switzerland/ride/grimselpass->-sustenpass->-nufenenpass"},{"slat":"46.265","slon":"7.50488","elat":"46.2555","elon":"7.53399","road_type_name":"Mountainous","road_type_id":"4","length":"9","title":"Routes du Valais 4 : Chalais et Vercorin","rating":"2","comments_count":"1","is_long":"0","simplified_polyline":"qckyGsxxl@jC}`Bhd@v_@yt@}|Cjf@gdAt]`mB","polyline":"qckyGsxxl@jC}`Bhd@v_@yt@}|Cjf@gdAt]`mB","url":"/motorcycle-roads/switzerland/switzerland/ride/routes-du-valais-4-chalais-et-vercorin"},{"slat":"46.2866","slon":"7.56087","elat":"46.2197","elon":"7.58347","road_type_name":"Mountainous","road_type_id":"4","length":"12","title":"Routes du Valais 3 : Sierre et Vissoie","rating":"3","comments_count":"1","is_long":"0","simplified_polyline":"iloyGqscm@~mAfmAhnB{jDfeFao@","polyline":"iloyGqscm@~mAfmAhnB{jDfeFao@","url":"/motorcycle-roads/switzerland/switzerland/ride/routes-du-valais-3-sierre-et-vissoie"},{"slat":"46.3004","slon":"7.56072","elat":"46.2913","elon":"7.56021","road_type_name":"Cruiser","road_type_id":"8","length":"33","title":"Routes du Valais 2 : Sierre - Gampel-Bratsch","rating":"4","comments_count":"1","is_long":"0","simplified_polyline":"ibryGetcm@sfAccDp@}fIcm@zs@fp@euEm\\gyGnx@vv@bR`uEgd@pfHprB`sJ","polyline":"ibryGetcm@sfAccDp@}fIcm@zs@fp@euEm\\gyGnx@vv@bR`uEgd@pfHprB`sJ","url":"/motorcycle-roads/switzerland/switzerland/ride/routes-du-valais-2-sierre-gampel-bratsch"},{"slat":"46.2271","slon":"7.31256","elat":"46.2882","elon":"7.52124","road_type_name":"Mountainous","road_type_id":"4","length":"30","title":"Routes du Valais 1 : Conthey - Sierre","rating":"3","comments_count":"1","is_long":"0","simplified_polyline":"gvcyGufsk@q}B_Gud@utGccAclAjB{rCohEsgFlbBukAqe@qxGpn@feBjJ}q@yeA_~F","polyline":"gvcyGufsk@q}B_Gud@utGccAclAjB{rCohEsgFlbBukAqe@qxGpn@feBjJ}q@yeA_~F","url":"/motorcycle-roads/switzerland/switzerland/ride/routes-du-valais-1-conthey-sierre"},{"slat":"46.6287","slon":"6.51307","elat":"46.7116","elon":"6.38682","road_type_name":"Mountainous","road_type_id":"4","length":"22","title":"Cossonay - La Sarraz - Vallorbe","rating":"4","comments_count":"1","is_long":"0","simplified_polyline":"a`r{Gs`wf@k}Cp[y|@ik@{`B`p@nAnrA{{@reAq~EzgAy\\~qDhjBr{I","polyline":"a`r{Gs`wf@k}Cp[y|@ik@{`B`p@nAnrA{{@reAq~EzgAy\\~qDhjBr{I","url":"/motorcycle-roads/switzerland/switzerland/ride/cossonay-la-sarraz-vallorbe"},{"slat":"46.9598","slon":"10.4219","elat":"46.9267","elon":"10.4833","road_type_name":"Mountainous","road_type_id":"4","length":"8","title":"Vinadi to Samnaun","rating":"4","comments_count":"1","is_long":"0","simplified_polyline":"gzr}Gspr~@tiCweK~bAdE","polyline":"gzr}Gspr~@tiCweK~bAdE","url":"/motorcycle-roads/switzerland/switzerland/ride/vinadi-to-samnaun"},{"slat":"46.0076","slon":"8.74706","elat":"46.1465","elon":"8.85254","road_type_name":"Coastal","road_type_id":"2","length":"23","title":"Costal road east - from north of Maggiore","rating":"4","comments_count":"1","is_long":"0","simplified_polyline":"}{xwG_kkt@qdB__@suCdzBa_C\\khBn|@{kBqbB{Hw_Cs_EikHsdAg|G","polyline":"}{xwG_kkt@qdB__@suCdzBa_C\\khBn|@{kBqbB{Hw_Cs_EikHsdAg|G","url":"/motorcycle-roads/italy/lombardia-emilia-romagna/ride/costal-road-east-from-north-of-maggiore"},{"slat":"46.7035","slon":"8.59865","elat":"46.5264","elon":"8.58661","road_type_name":"Mountainous","road_type_id":"4","length":"34","title":"New Gottard Pass : Wassen - Airolo","rating":"3","comments_count":"1","is_long":"0","simplified_polyline":"{w`|Gmlns@biFte@tz@p`A`lBm|@biChqDhh@{u@bjCp}ArwE{t@|d@`^thAkwAjv@|oBucA{dDhMsj@lf@baAwXe_Cti@bsA","polyline":"{w`|Gmlns@biFte@tz@p`A`lBm|@biChqDhh@{u@bjCp}ArwE{t@|d@`^thAkwAjv@|oBucA{dDhMsj@lf@baAwXe_Cti@bsA","url":"/motorcycle-roads/switzerland/switzerland/ride/new-gottard-pass-wassen-airolo"},{"slat":"47.464","slon":"9.01319","elat":"47.4454","elon":"9.05106","road_type_name":"Cruiser","road_type_id":"8","length":"46","title":"Feierabend Cruise","rating":"3","comments_count":"1","is_long":"0","simplified_polyline":"wiu`Hok_v@xM||IcoBbhH~|@~sBxyAgTry@svFpaBimDx{A_m@b_@olDf|C{B|Nz{Bxp@nI|QwuFo{@uhCieAoVoXuhB}aBgbAyaAp~BokCqO","polyline":"wiu`Hok_v@xM||IcoBbhH~|@~sBxyAgTry@svFpaBimDx{A_m@b_@olDf|C{B|Nz{Bxp@nI|QwuFo{@uhCieAoVoXuhB}aBgbAyaAp~BokCqO","url":"/motorcycle-roads/switzerland/switzerland/ride/feierabend-cruise"},{"slat":"47.3362","slon":"8.05397","elat":"47.3359","elon":"8.05408","road_type_name":"Trail","road_type_id":"6","length":"144","title":"Oberaargau : Zofingen - Burgdorf","rating":"4","comments_count":"1","is_long":"0","simplified_polyline":"aj|_Hi`dp@pkB|FwPzlDriBZhmCvaCjG~|Fos@lzBp]`rBjk@oIxD~zCljAfz@jkBtjIrwAjQj`AvaF|gAllAbz@lQt|EcvAj{Bls@xdBe|EvqAi{@hc@wgCj~Dhd@tlDnuBp`AllKjzDlsHjWzzDwyAnsHm}BtiBubAiFcnAleG{}@yGqN~n@guHatEg_CicGidLmmQfjAqv@mFmmC}iBekCqaAgjFloAiyBmGmiDayCs~IuFs`GulBawDxeA{rDycBizC{kE`hCg|DVoUodA","polyline":"aj|_Hi`dp@pkB|FwPzlDriBZhmCvaCjG~|Fos@lzBp]`rBjk@oIxD~zCljAfz@jkBtjIrwAjQj`AvaF|gAllAbz@lQt|EcvAj{Bls@xdBe|EvqAi{@hc@wgCj~Dhd@tlDnuBp`AllKjzDlsHjWzzDwyAnsHm}BtiBubAiFcnAleG{}@yGqN~n@guHatEg_CicGidLmmQfjAqv@mFmmC}iBekCqaAgjFloAiyBmGmiDayCs~IuFs`GulBawDxeA{rDycBizC{kE`hCg|DVoUodA","url":"/motorcycle-roads/switzerland/switzerland/ride/oberaargau-zofingen-burgdorf"},{"slat":"46.2632","slon":"6.94657","elat":"46.0746","elon":"7.06179","road_type_name":"Mountainous","road_type_id":"4","length":"1071","title":"Tour des Grandes Alpes : Châtel - Aosta - Briançon - Cuneo","rating":"5","comments_count":"1","is_long":"1","simplified_polyline":"ywjyGyrki@l_AkCjeClhDun@cVrh@tt@im@kNrSdoKokFbeB{`CfbHdwAzqNs|BxcFpwAbc@db@v{El~DlEl`BetCtaHq_F|E`r@n`Dd~@nsGbuLdq@mwAdHx~CtcAjIrDew@t}@~{Dn^uwAxjBnQjaAlsCyLtoD~vDwwDntA||BpnCboLxmAcKroA`oEvs@eTz{Dz~DflBc~@nHybAxb@l_@bcB{`AtxBctJdyGoaCh{CdnEdwAtJlkCh}BpPndGdn@|XbeAqq@dkMh`FnXy|Fjk@_r@p~Fq}AxdBvUdrDkeCv_BhE|Q~s@nkBiZbsIj|Gtb@~nBvnCpj@pDpuArcAlW`ZfrAf\\siAfGxnA|s@gHjp@hoB``G`wCtl@xbC|fAij@sJdi@riHpkHpdAbdEfdE|xCriBb|Cv|AglEgUktAt|@~YdFgiDnlDoiIeaBcgBk|B|g@s_@aNzm@mc@kyDel@gjBwgDzh@gsFraAyg@|bAmrFnyCoaDnY_wBpRfu@b\\kSHbbBhyAe{Awd@hh@fZhsAon@xVbzEp~@j^fjAnmGdYdoEcxBe\\bl@|mAr]vG|pAfaCxT~VvvBlq@alA~b@rv@cFouF~_CgnEnwFs{Er}JsrVjsDknBqWob@`}C{uK}MgbBxwEd\\jxCggBdxA|}@h{D{fAtqB{eEfqAzThjBnp@ppAd}Fz~CpvCbbDpyGnkD}kEfeE{h@lfCbw@noCghCxgBxDzwA}|H|Kvq@pbBz[poDavCxaB`{BvyEjl@ncEiqGnkCsp@xqDfWac@oeB|dA}{@dd@nRaaBknF`z@q]CehBbf@d~Af^}o@lQ{dFfpAup@`bCrWxdBe|BrzBit@dcG}zHtiBqmFf`@oaF{gAys@moAkgGvhB_pDvb@_kD}vBxw@kbCf`E{pAnN|g@pd@ef@bRg{K{wHuiAidQbk@eoUweDg{G|[i{JgiCueC|Ee_BoaJacGgmSznMmuEorAmfBl^cMleDlmA|`B}tAlzNprAzoDk`BpxHysAhig@yyDv~C_|@~xDwnDh~Esw@m`@|]hb@gzAbAuLwd@uTb_BgrACqa@jnDggC|yFgvA|uLyuBxe@kW|v@op@}Mv_B|}IigAzmCecEr{AyPvc@x{@n@icDqjA}pApMemAvyAywEe\\lAtpCedDrsL{gBirF}fByqBRuqD_iCghIfImfBqtG_yB{gCgmCktAz@mtC}~C_fHs`NyuCo_L}`@okGyp@{c@yw@vyErb@rbA{pAzw@_sBm}@atAp{Co{@ua@kxB|yD~GymAu`AuKgrBn|BqaA`dGm|Aj{@mo@_`BcY|_Bay@eaBojCafNqwJ_~JxRv~BuaA_rBoZtl@kxAyCuq@|`B}sAk|@nV~e@afCraChi@`u@{hCwlFhl@`bIeh@r~Aw~Jf|IkfC~NagG~gEslB_Bq`D`|Nc^{aAnp@seAaq@`m@jh@g{@yy@xPb~@yjCqt@b}@hYc{DsVzeB}uAlZ_`CucDm{DmzByxAywCgPdb@|KgxCsw@e|Am`CcdAe{BguC{w@tCpp@igIfaI}pPrk@{|KokAueKunEyhLw}GvwDoqEbkMzIbvDglCxuAa|@hdE{c@acBeq@dh@ePw_DkbDiq@mi@mqA_tG_w@sqCfLevI`fJ~YbUmoIgq@c_@bpJdy@~oE","polyline":"ywjyGyrki@l_AkCjeClhDun@cVrh@tt@im@kNrSdoKokFbeB{`CfbHdwAzqNs|BxcFpwAbc@db@v{El~DlEl`BetCtaHq_F|E`r@n`Dd~@nsGbuLdq@mwAdHx~CtcAjIrDew@t}@~{Dn^uwAxjBnQjaAlsCyLtoD~vDwwDntA||BpnCboLxmAcKroA`oEvs@eTz{Dz~DflBc~@nHybAxb@l_@bcB{`AtxBctJdyGoaCh{CdnEdwAtJlkCh}BpPndGdn@|XbeAqq@dkMh`FnXy|Fjk@_r@p~Fq}AxdBvUdrDkeCv_BhE|Q~s@nkBiZbsIj|Gtb@~nBvnCpj@pDpuArcAlW`ZfrAf\\siAfGxnA|s@gHjp@hoB``G`wCtl@xbC|fAij@sJdi@riHpkHpdAbdEfdE|xCriBb|Cv|AglEgUktAt|@~YdFgiDnlDoiIeaBcgBk|B|g@s_@aNzm@mc@kyDel@gjBwgDzh@gsFraAyg@|bAmrFnyCoaDnY_wBpRfu@b\\kSHbbBhyAe{Awd@hh@fZhsAon@xVbzEp~@j^fjAnmGdYdoEcxBe\\bl@|mAr]vG|pAfaCxT~VvvBlq@alA~b@rv@cFouF~_CgnEnwFs{Er}JsrVjsDknBqWob@`}C{uK}MgbBxwEd\\jxCggBdxA|}@h{D{fAtqB{eEfqAzThjBnp@ppAd}Fz~CpvCbbDpyGnkD}kEfeE{h@lfCbw@noCghCxgBxDzwA}|H|Kvq@pbBz[poDavCxaB`{BvyEjl@ncEiqGnkCsp@xqDfWac@oeB|dA}{@dd@nRaaBknF`z@q]CehBbf@d~Af^}o@lQ{dFfpAup@`bCrWxdBe|BrzBit@dcG}zHtiBqmFf`@oaF{gAys@moAkgGvhB_pDvb@_kD}vBxw@kbCf`E{pAnN|g@pd@ef@bRg{K{wHuiAidQbk@eoUweDg{G|[i{JgiCueC|Ee_BoaJacGgmSznMmuEorAmfBl^cMleDlmA|`B}tAlzNprAzoDk`BpxHysAhig@yyDv~C_|@~xDwnDh~Esw@m`@|]hb@gzAbAuLwd@uTb_BgrACqa@jnDggC|yFgvA|uLyuBxe@kW|v@op@}Mv_B|}IigAzmCecEr{AyPvc@x{@n@icDqjA}pApMemAvyAywEe\\lAtpCedDrsL{gBirF}fByqBRuqD_iCghIfImfBqtG_yB{gCgmCktAz@mtC}~C_fHs`NyuCo_L}`@okGyp@{c@yw@vyErb@rbA{pAzw@_sBm}@atAp{Co{@ua@kxB|yD~GymAu`AuKgrBn|BqaA`dGm|Aj{@mo@_`BcY|_Bay@eaBojCafNqwJ_~JxRv~BuaA_rBoZtl@kxAyCuq@|`B}sAk|@nV~e@afCraChi@`u@{hCwlFhl@`bIeh@r~Aw~Jf|IkfC~NagG~gEslB_Bq`D`|Nc^{aAnp@seAaq@`m@jh@g{@yy@xPb~@yjCqt@b}@hYc{DsVzeB}uAlZ_`CucDm{DmzByxAywCgPdb@|KgxCsw@e|Am`CcdAe{BguC{w@tCpp@igIfaI}pPrk@{|KokAueKunEyhLw}GvwDoqEbkMzIbvDglCxuAa|@hdE{c@acBeq@dh@ePw_DkbDiq@mi@mqA_tG_w@sqCfLevI`fJ~YbUmoIgq@c_@bpJdy@~oE","url":"/motorcycle-roads/switzerland/switzerland/ride/tour-des-grandes-alpes-chatel-aosta-briancon-cuneo"},{"slat":"46.6823","slon":"7.80998","elat":"46.7457","elon":"7.64318","road_type_name":"Coastal","road_type_id":"2","length":"17","title":"Interlaken - Thun","rating":"5","comments_count":"1","is_long":"0","simplified_polyline":"ut|{Gektn@k_@h~Ap`@fwGq|Cj|Ciy@lbFesD|xG","polyline":"ut|{Gektn@k_@h~Ap`@fwGq|Cj|Ciy@lbFesD|xG","url":"/motorcycle-roads/switzerland/switzerland/ride/interlaken-thun"},{"slat":"47.332","slon":"8.45877","elat":"47.3849","elon":"8.34607","road_type_name":"Rural","road_type_id":"1","length":"439","title":"Zurich - Chur - Obergoms - Lucerne","rating":"4","comments_count":"1","is_long":"1","simplified_polyline":"ar{_Hu}rr@naBmKg@}fAvdBu~Aj|AhGzsDw{FfeEoxClp@_iEt|@kTpnBxnBhxE~n@heBy}A~UiqF{aAewEhg@kqDy~@kuAu^awDcrAmv@aw@bmB}bA}mButAu|LvdDsrQpNevL_`AyyBfkI}gNvkBevT|UawL}i@u{OfyGc`IblJudXblFmmF|vDba@~lCkdB~cHvyD~iAfmCxbBjn@tyB`uUqlAnwR`eGxnDlyBtnGfDhmMjqEbgVpDb}FxjF|dXzhCxzB|J`jLb{AzxBrgBr`IwmA|mCx[ppCxiBxeGtNwg@oLls@jXyb@yb@r{ApnClsC~lBpjK`pAl~Aik@lmEdl@`zCb`BpsBu]~{Clg@mt@xd@xuB`Rd`G}h@}KtGrr@a|@}x@}nFj}Ek~DjNurFniJsdCbyAacCpoJqVer@{w@fbAirAt{FclAisB{}@lXeNyfCw}@}cAu{DvH{hEgfFscBs_FcqBsEsjGkvDcoDmN{uCwrDc_CcWifClgB_dEkMe~@j`Awr@ox@_{@p|@_BtaFusArrFafBjcBgaDfmK}vG~aJilBeAmsAc{Bk|O|{HeeEbBi`@qrEmiCggC`v@i`Ada@gnHs\\csEwrBap@gWojAnq@_hBuzBmkAaq@uvFghBmT_`Art@ruEyaM","polyline":"ar{_Hu}rr@naBmKg@}fAvdBu~Aj|AhGzsDw{FfeEoxClp@_iEt|@kTpnBxnBhxE~n@heBy}A~UiqF{aAewEhg@kqDy~@kuAu^awDcrAmv@aw@bmB}bA}mButAu|LvdDsrQpNevL_`AyyBfkI}gNvkBevT|UawL}i@u{OfyGc`IblJudXblFmmF|vDba@~lCkdB~cHvyD~iAfmCxbBjn@tyB`uUqlAnwR`eGxnDlyBtnGfDhmMjqEbgVpDb}FxjF|dXzhCxzB|J`jLb{AzxBrgBr`IwmA|mCx[ppCxiBxeGtNwg@oLls@jXyb@yb@r{ApnClsC~lBpjK`pAl~Aik@lmEdl@`zCb`BpsBu]~{Clg@mt@xd@xuB`Rd`G}h@}KtGrr@a|@}x@}nFj}Ek~DjNurFniJsdCbyAacCpoJqVer@{w@fbAirAt{FclAisB{}@lXeNyfCw}@}cAu{DvH{hEgfFscBs_FcqBsEsjGkvDcoDmN{uCwrDc_CcWifClgB_dEkMe~@j`Awr@ox@_{@p|@_BtaFusArrFafBjcBgaDfmK}vG~aJilBeAmsAc{Bk|O|{HeeEbBi`@qrEmiCggC`v@i`Ada@gnHs\\csEwrBap@gWojAnq@_hBuzBmkAaq@uvFghBmT_`Art@ruEyaM","url":"/motorcycle-roads/switzerland/switzerland/ride/zurich-chur-obergoms-lucerne"},{"slat":"47.5188","slon":"8.64554","elat":"47.5188","elon":"8.64542","road_type_name":"Urban","road_type_id":"3","length":"161","title":"Winterthur - Schwägalp","rating":"4","comments_count":"1","is_long":"0","simplified_polyline":"q_`aHsqws@zUevGphBwjGr@_|Kqo@wbFfxB{nMg~@slGh`@moDtiB{jC~u@{tDs[_uLlcCuxOxs@mItyCgkJhsC_qCl`EanBte@di@~Jwy@b~CgFp`ErgC~aBwc@ncCciErjBzpFyF~nGxiAl`FwmB`fCq~@dlGwqGprFihGxe@cmAhu@e_KpDuhC|oBotByJn_@nrBeeFx`P{}GlxEyY~lBeqAeA`eDjpWop@fpFzKvyF{i@~lAdcBnnDnc@kX|CriA","polyline":"q_`aHsqws@zUevGphBwjGr@_|Kqo@wbFfxB{nMg~@slGh`@moDtiB{jC~u@{tDs[_uLlcCuxOxs@mItyCgkJhsC_qCl`EanBte@di@~Jwy@b~CgFp`ErgC~aBwc@ncCciErjBzpFyF~nGxiAl`FwmB`fCq~@dlGwqGprFihGxe@cmAhu@e_KpDuhC|oBotByJn_@nrBeeFx`P{}GlxEyY~lBeqAeA`eDjpWop@fpFzKvyF{i@~lAdcBnnDnc@kX|CriA","url":"/motorcycle-roads/switzerland/switzerland/ride/winterthur-schwagalp"},{"slat":"47.5177","slon":"8.64532","elat":"47.5178","elon":"8.64504","road_type_name":"Urban","road_type_id":"3","length":"228","title":"Toggenburg : Winterthur - St. Gallen","rating":"3","comments_count":"1","is_long":"1","simplified_polyline":"ox_aHepws@yBg_Ed|BccJh@k`L{n@saFvhAe_KzxBwvBlnAi~FyZkpCqlAm~Av_Bc~Iq\\ixKpvBszLxs@mItyCgkJhtIy_Gpg@ph@`Kyy@d~CuEpsD|hCbkB}c@xeCkjExjBbrFyFboGljAz}ElmGalHfYqwBmlAuoEkl@{fJlw@miI{o@wrDxg@jB_s@{|@ec@uiHauDumAojBbg@mkLieMqaIruBx^dvCsh@iDdjBfgE`JfvH{pAnrAqMzkCwmA`bBmXvzE}i@`Owv@m}A}}A|^bvA||E`@pnF_x@bgIktBfdF}{@tcKubAtiCv}@ngIoiBrjGwGxpNuvAneEw~AjlAygAl_Klm@`zRkiB`vGoN~wG","polyline":"ox_aHepws@yBg_Ed|BccJh@k`L{n@saFvhAe_KzxBwvBlnAi~FyZkpCqlAm~Av_Bc~Iq\\ixKpvBszLxs@mItyCgkJhtIy_Gpg@ph@`Kyy@d~CuEpsD|hCbkB}c@xeCkjExjBbrFyFboGljAz}ElmGalHfYqwBmlAuoEkl@{fJlw@miI{o@wrDxg@jB_s@{|@ec@uiHauDumAojBbg@mkLieMqaIruBx^dvCsh@iDdjBfgE`JfvH{pAnrAqMzkCwmA`bBmXvzE}i@`Owv@m}A}}A|^bvA||E`@pnF_x@bgIktBfdF}{@tcKubAtiCv}@ngIoiBrjGwGxpNuvAneEw~AjlAygAl_Klm@`zRkiB`vGoN~wG","url":"/motorcycle-roads/switzerland/switzerland/ride/toggenburg-winterthur-st-gallen"},{"slat":"46.772","slon":"7.63131","elat":"46.7717","elon":"7.63132","road_type_name":"Rural","road_type_id":"1","length":"158","title":"Schallenberg - Sörenberg - Brünig - Beatenbucht - Heiligenschwendi","rating":"4","comments_count":"1","is_long":"0","simplified_polyline":"cdn|Gsnqm@ez@wPwaBavG~Mg{Iu|CggD~AgtC_b@`G|CyuCaZ~]hAwzAxbAmcAsg@ycD{zDuwG_lDo|AcvAte@gs@u{BcyA{t@{wC}pL|_Bqz@j|OjYnrAac@vuBg_IqLm{@}[rs@aUemCks@um@rFy}Cem@mN~]oUmjA_rAneA{aAhAmuDbgAlqA|uDoM`_AdgAdLvbCp_AeWjwAbjBhm@xuJ}eAlhD^bsGjcHrmOfqAz_G`j@cOfnBjsEikB||GvZhfH{vCxmCgpBfzGxr@}cBy^ecByhAxhC{wAgpAse@tlJ_q@psAow@mD","polyline":"cdn|Gsnqm@ez@wPwaBavG~Mg{Iu|CggD~AgtC_b@`G|CyuCaZ~]hAwzAxbAmcAsg@ycD{zDuwG_lDo|AcvAte@gs@u{BcyA{t@{wC}pL|_Bqz@j|OjYnrAac@vuBg_IqLm{@}[rs@aUemCks@um@rFy}Cem@mN~]oUmjA_rAneA{aAhAmuDbgAlqA|uDoM`_AdgAdLvbCp_AeWjwAbjBhm@xuJ}eAlhD^bsGjcHrmOfqAz_G`j@cOfnBjsEikB||GvZhfH{vCxmCgpBfzGxr@}cBy^ecByhAxhC{wAgpAse@tlJ_q@psAow@mD","url":"/motorcycle-roads/switzerland/switzerland/ride/schallenberg-sorenberg-brunig-beatenbucht-heiligenschwendi"},{"slat":"46.7052","slon":"8.22953","elat":"46.5292","elon":"8.60837","road_type_name":"Rural","road_type_id":"1","length":"254","title":"???? ??????","rating":"3","comments_count":"1","is_long":"1","simplified_polyline":"yba|Guifq@paCewA|rFmiJt}DyMznFm}Ed|@`y@wGwr@rP|d@pXw[uh@{jCfc@lq@i@s}@v\\nf@zu@a`@n_Aj_AqQiz@tjDn|ErhDpdKxoThs^nxAxzGxaFpsGduBz|GL}bAgW`u@_x@cjBiQyeErjUmg`@ny@e`OpqC{uAny@cvDruFbXqi@mnClw@i~B{T{`M{p@csCjq@woQe|AmvHkjAweAgtCefR~Q}aGbaA}pCiK{gDtf@tkBgyCovEnlBgyMyp@}AtHctKozAwuKgiBydC}cBcs@fPjw@oxAv_@atAbsByxRpoH}_InpQcbDvoA}jBxlC{iCtqAsdCxyGqSrdE{gCv`GkrAp|RqU{r@","polyline":"yba|Guifq@paCewA|rFmiJt}DyMznFm}Ed|@`y@wGwr@rP|d@pXw[uh@{jCfc@lq@i@s}@v\\nf@zu@a`@n_Aj_AqQiz@tjDn|ErhDpdKxoThs^nxAxzGxaFpsGduBz|GL}bAgW`u@_x@cjBiQyeErjUmg`@ny@e`OpqC{uAny@cvDruFbXqi@mnClw@i~B{T{`M{p@csCjq@woQe|AmvHkjAweAgtCefR~Q}aGbaA}pCiK{gDtf@tkBgyCovEnlBgyMyp@}AtHctKozAwuKgiBydC}cBcs@fPjw@oxAv_@atAbsByxRpoH}_InpQcbDvoA}jBxlC{iCtqAsdCxyGqSrdE{gCv`GkrAp|RqU{r@","url":"/motorcycle-roads/switzerland/switzerland/ride/motorcycle-ride-2"},{"slat":"47.0502","slon":"8.30137","elat":"47.0505","elon":"8.30136","road_type_name":"Rural","road_type_id":"1","length":"95","title":"Luzern - Zug","rating":"3","comments_count":"1","is_long":"0","simplified_polyline":"mod~G}ktq@k\\crDzvAooDunIcqQ|jJgqT~_AsrGow@m{Dz\\}_@smDpmC}aCywAcUzh@ujEqyAceBfiByj@t|HwwFfbD|kAbnEyoBnoEzP|oCqgBbaEnlAtcE|wJtYhf@rlJ~t@dnA~kDdnAd{A|pDjlBkeC","polyline":"mod~G}ktq@k\\crDzvAooDunIcqQ|jJgqT~_AsrGow@m{Dz\\}_@smDpmC}aCywAcUzh@ujEqyAceBfiByj@t|HwwFfbD|kAbnEyoBnoEzP|oCqgBbaEnlAtcE|wJtYhf@rlJ~t@dnA~kDdnAd{A|pDjlBkeC","url":"/motorcycle-roads/switzerland/switzerland/ride/luzern-zug"},{"slat":"46.4005","slon":"6.20436","elat":"46.4007","elon":"6.20423","road_type_name":"Mountainous","road_type_id":"4","length":"71","title":"Two passes, a lake view and two countries","rating":"4","comments_count":"1","is_long":"0","simplified_polyline":"arezGaxzd@|aA_eBddAnfBjxBgKfsAxlBs^zpCpnG~uFyr@|_A|[vaC_q@lrCmoBhxAgxAkHxOpq@my@mXzl@p_Aaf@qh@iQt[`D`}BceAni@ajBmuEo~AfKmp@}zA_Ubf@erDw~C_z@bxAk|AwGv{@gc@r_AqiNxj@yx@`\\hSa]ep@ns@rUeAmkA`y@zLziCwjD","polyline":"arezGaxzd@|aA_eBddAnfBjxBgKfsAxlBs^zpCpnG~uFyr@|_A|[vaC_q@lrCmoBhxAgxAkHxOpq@my@mXzl@p_Aaf@qh@iQt[`D`}BceAni@ajBmuEo~AfKmp@}zA_Ubf@erDw~C_z@bxAk|AwGv{@gc@r_AqiNxj@yx@`\\hSa]ep@ns@rUeAmkA`y@zLziCwjD","url":"/motorcycle-roads/switzerland/switzerland/ride/two-passes-a-lake-view-and-two-countries"},{"slat":"47.1346","slon":"8.13838","elat":"47.136","elon":"8.1389","road_type_name":"Rural","road_type_id":"1","length":"214","title":"Sempach-Thun roundtrip","rating":"4","comments_count":"1","is_long":"1","simplified_polyline":"u~t~Ggptp@u@ntBxhDpxE`sHqa@`@nxB~o@vXnaDilA``GruBjbC`|Ef{CdrCnkBt`K`bBbbAlt@r{B~tAse@h|EnqCnbDddHbO~dBgcAlcAi@pxAbYk_@hp@`yI|fCxpBaMl}I|aBtuGbzAbbAjxBahBf~DimHvy@obFb|Ce|Caa@cvGpr@w_Eew@c`Img@t_@qrAgbG}bHulOWetGteAmgDcm@guJkyA{~B~a@nw@ya@}c@u}@dXwMkfCwlA_kAmgDnTsfAiqAsy@tgAq}AhMitFqhMqrKsxEciBm_Icb@hFJvoBgbAuW}`CbgA_o@ap@_bC~bA~_@b{GlhBh{Bym@pqBheArrG}hAjbAeqCotFa`Hcf@qgBhrAkrC|wI","polyline":"u~t~Ggptp@u@ntBxhDpxE`sHqa@`@nxB~o@vXnaDilA``GruBjbC`|Ef{CdrCnkBt`K`bBbbAlt@r{B~tAse@h|EnqCnbDddHbO~dBgcAlcAi@pxAbYk_@hp@`yI|fCxpBaMl}I|aBtuGbzAbbAjxBahBf~DimHvy@obFb|Ce|Caa@cvGpr@w_Eew@c`Img@t_@qrAgbG}bHulOWetGteAmgDcm@guJkyA{~B~a@nw@ya@}c@u}@dXwMkfCwlA_kAmgDnTsfAiqAsy@tgAq}AhMitFqhMqrKsxEciBm_Icb@hFJvoBgbAuW}`CbgA_o@ap@_bC~bA~_@b{GlhBh{Bym@pqBheArrG}hAjbAeqCotFa`Hcf@qgBhrAkrC|wI","url":"/motorcycle-roads/switzerland/switzerland/ride/sempach-thun-roundtrip"},{"slat":"47.1844","slon":"7.7007","elat":"47.1972","elon":"7.39008","road_type_name":"Rural","road_type_id":"1","length":"133","title":"3360- Balmberg - chasserall - 3370","rating":"3","comments_count":"1","is_long":"0","simplified_polyline":"wu~~Gq__n@spAlLy`DfyEJd_AcnAqx@eqArpBdsA`qJ{jDtvAfGp`EiuBjkA~tBlrJe}Bz{C{IfhBnwAjdJgg@ggC|l@tmC`wCbqAf]zpBjDjpO|tA`tHykAr`DnrAjtIt@hyFfiB~nF~|@f{@p}AaMfgG~oHwIuoAjZ`r@l~@sbAmFwgFht@tr@gRipAxeArsAqRuhBl{A`}@zJer@sDw{Au{A_zBhSitCgq@ivE}bGkpL_`Ac~H~f@_FcaDopGqo@gsO","polyline":"wu~~Gq__n@spAlLy`DfyEJd_AcnAqx@eqArpBdsA`qJ{jDtvAfGp`EiuBjkA~tBlrJe}Bz{C{IfhBnwAjdJgg@ggC|l@tmC`wCbqAf]zpBjDjpO|tA`tHykAr`DnrAjtIt@hyFfiB~nF~|@f{@p}AaMfgG~oHwIuoAjZ`r@l~@sbAmFwgFht@tr@gRipAxeArsAqRuhBl{A`}@zJer@sDw{Au{A_zBhSitCgq@ivE}bGkpL_`Ac~H~f@_FcaDopGqo@gsO","url":"/motorcycle-roads/switzerland/switzerland/ride/3360-balmberg-chasserall-3370"},{"slat":"47.5233","slon":"9.36449","elat":"47.5402","elon":"9.28999","road_type_name":"Rural","road_type_id":"1","length":"25","title":"Egnach","rating":"3","comments_count":"1","is_long":"0","simplified_polyline":"u{`aHk~cx@b_F`aA~wCk}B`YvsAcqDzfJqjBilFe{DblE}b@boB","polyline":"u{`aHk~cx@b_F`aA~wCk}B`YvsAcqDzfJqjBilFe{DblE}b@boB","url":"/motorcycle-roads/switzerland/switzerland/ride/egnach"},{"slat":"46.6617","slon":"9.58752","elat":"46.5817","elon":"9.91335","road_type_name":"Mountainous","road_type_id":"4","length":"37","title":"Albula Pass : Tiefencastel - La Punt-Chaumes-ch","rating":"4.5","comments_count":"2","is_long":"0","simplified_polyline":"eqx{Gomoy@ubAsbRvxDwpHzeD_xCvnBvJf}AueDxm@k_CkrAwqLpg@sxF","polyline":"eqx{Gomoy@ubAsbRvxDwpHzeD_xCvnBvJf}AueDxm@k_CkrAwqLpg@sxF","url":"/motorcycle-roads/switzerland/switzerland/ride/albula-pass-tiefencastel-la-punt-chaumes-ch"},{"slat":"46.6007","slon":"7.07775","elat":"46.32","elon":"6.99486","road_type_name":"Mountainous","road_type_id":"4","length":"98","title":"ballade Lausanne - Jaun - Mosses","rating":"4","comments_count":"1","is_long":"0","simplified_polyline":"wtl{Gyiej@aIyzD{j@}S}pA{aGnsCsjKgeAc`PjrAwv@uE}|Brq@klAm{DamErcDxLd{A{l@tqFzaChzBlwHjhDjzFr\\vsKr|A`qGnMjaFhyBnuAdpD}rEgXboEheEvdAbiDt`DjY`dBhYm[{Gz}AtaCjqAx|BxaG","polyline":"wtl{Gyiej@aIyzD{j@}S}pA{aGnsCsjKgeAc`PjrAwv@uE}|Brq@klAm{DamErcDxLd{A{l@tqFzaChzBlwHjhDjzFr\\vsKr|A`qGnMjaFhyBnuAdpD}rEgXboEheEvdAbiDt`DjY`dBhYm[{Gz}AtaCjqAx|BxaG","url":"/motorcycle-roads/switzerland/switzerland/ride/ballade-lausanne-jaun-mosses"},{"slat":"46.3125","slon":"6.0678","elat":"46.4095","elon":"6.19438","road_type_name":"Mountainous","road_type_id":"4","length":"56","title":"Geneva-Colle de la Faucille-St. Cergue-Geneva","rating":"4","comments_count":"1","is_long":"0","simplified_polyline":"iltyGi``d@sqFfz@pOrq@ey@oXrl@d`Aag@_i@aKryC}aApi@_{@izCgo@cI|}BzkHq`AkhCywKm{Ki{@|wAoa@u[e}@vh@v_Aky@h_AuhNbk@uy@`\\hSk\\{p@lgA{@_Var@jx@fMzsAumB","polyline":"iltyGi``d@sqFfz@pOrq@ey@oXrl@d`Aag@_i@aKryC}aApi@_{@izCgo@cI|}BzkHq`AkhCywKm{Ki{@|wAoa@u[e}@vh@v_Aky@h_AuhNbk@uy@`\\hSk\\{p@lgA{@_Var@jx@fMzsAumB","url":"/motorcycle-roads/switzerland/switzerland/ride/geneva-colle-de-la-faucille-st-cergue-geneva"},{"slat":"46.2402","slon":"7.3709","elat":"46.2665","elon":"7.45834","road_type_name":"Mountainous","road_type_id":"4","length":"112","title":"Boucle Valais central","rating":"4.5","comments_count":"2","is_long":"0","simplified_polyline":"khfyGes~k@v|A~_Gqk@r_Efk@~^~Ek{@fzB}iAfnB~_Hsv@wcF|vAclBmfBy`Ara@Xq}BueH~E{gBxhEmxAxw@f`@oUcqAj`DokF{fBdYikBnjBq_AyyA_QbqCwnBrYswA}KscAwyBbXipA}l@{Kwr@atCzi@wzAih@sGgi@edExpAufA_[knAzaAom@ji@z_@loCwiD{e@iMslGpiA{kB~iDk`BydBwu@rwAtdCfgLsIl|@co@geBr[|yFjAwk@vh@rf@kSaw@l{@xlA_ZkyAjd@bL","polyline":"khfyGes~k@v|A~_Gqk@r_Efk@~^~Ek{@fzB}iAfnB~_Hsv@wcF|vAclBmfBy`Ara@Xq}BueH~E{gBxhEmxAxw@f`@oUcqAj`DokF{fBdYikBnjBq_AyyA_QbqCwnBrYswA}KscAwyBbXipA}l@{Kwr@atCzi@wzAih@sGgi@edExpAufA_[knAzaAom@ji@z_@loCwiD{e@iMslGpiA{kB~iDk`BydBwu@rwAtdCfgLsIl|@co@geBr[|yFjAwk@vh@rf@kSaw@l{@xlA_ZkyAjd@bL","url":"/motorcycle-roads/switzerland/switzerland/ride/boucle-valais-central"},{"slat":"45.8683","slon":"9.38417","elat":"46.2452","elon":"10.1278","road_type_name":"Mountainous","road_type_id":"4","length":"283","title":"Lake Como and Valtellina Valley","rating":"4","comments_count":"1","is_long":"1","simplified_polyline":"cr}vGqygx@}`FpuHk}Cz]}_BvgBsiHflBmrBkDawGaiCafEv]stBkeAsxBc~EkuBgbLoL_wLf{@ieChNjg@xAmhL}bAeeHurAw`Amc@wpCld@shf@sgAceIdy@myFlAwzVafCwpFg{E}pFzXqtCyuAmzBw_@yaDgvKcqI{fDmfGyZagC{kDmw@kr@gzAs`Ij`A{jCwbAgyA~d@eGfu@w|B}LszA~fLb[xeC~~AlY~`A|sBclBe}@ek@txDulElgEUh_AkgC|jAjwAdqDar@}h@fX~y@s|Dgi@amAuzBimHgaCg`AqjBetC`dAit@v~B_pBbQgnAfhDkg@vfHxqBrtAnfCt`GvfHpeHfuDf{JvmIzeJffEiyBj~Fy}Hj{A_nGfaEmbFa^wsBrk@csBdiBgx@bMkgAryAdhAxdB__A~eBbpBvqBbZd}FccDr~Cy{G|kAo@","polyline":"cr}vGqygx@}`FpuHk}Cz]}_BvgBsiHflBmrBkDawGaiCafEv]stBkeAsxBc~EkuBgbLoL_wLf{@ieChNjg@xAmhL}bAeeHurAw`Amc@wpCld@shf@sgAceIdy@myFlAwzVafCwpFg{E}pFzXqtCyuAmzBw_@yaDgvKcqI{fDmfGyZagC{kDmw@kr@gzAs`Ij`A{jCwbAgyA~d@eGfu@w|B}LszA~fLb[xeC~~AlY~`A|sBclBe}@ek@txDulElgEUh_AkgC|jAjwAdqDar@}h@fX~y@s|Dgi@amAuzBimHgaCg`AqjBetC`dAit@v~B_pBbQgnAfhDkg@vfHxqBrtAnfCt`GvfHpeHfuDf{JvmIzeJffEiyBj~Fy}Hj{A_nGfaEmbFa^wsBrk@csBdiBgx@bMkgAryAdhAxdB__A~eBbpBvqBbZd}FccDr~Cy{G|kAo@","url":"/motorcycle-roads/italy/lombardia-emilia-romagna/ride/lake-como-and-valtellina-valley"},{"slat":"47.506","slon":"7.95351","elat":"47.4458","elon":"7.93912","road_type_name":"Cruiser","road_type_id":"8","length":"44","title":"Schupfart - Erlinsbach - Anwil","rating":"3.5","comments_count":"2","is_long":"0","simplified_polyline":"yp}`Hwjpo@~xBfqHfjBfh@ju@cuBk{AgbIfuDnl@~zAc~@~g@ymEbdAftB`n@gfCvr@gGhv@lhF}eCdyBwNs{@kYhoBu`@cd@kt@vsAwwAuS","polyline":"yp}`Hwjpo@~xBfqHfjBfh@ju@cuBk{AgbIfuDnl@~zAc~@~g@ymEbdAftB`n@gfCvr@gGhv@lhF}eCdyBwNs{@kYhoBu`@cd@kt@vsAwwAuS","url":"/motorcycle-roads/switzerland/switzerland/ride/schupfart-erlinsbach-anwil"},{"slat":"46.4377","slon":"9.99223","elat":"46.3919","elon":"10.0726","road_type_name":"Mountainous","road_type_id":"4","length":"13","title":"Bernina Pass (2328m) : Lago Bianco","rating":"4","comments_count":"1","is_long":"0","simplified_polyline":"iylzGmp~{@zkBeiA~x@qrB{Rc{CxhCk}C","polyline":"iylzGmp~{@zkBeiA~x@qrB{Rc{CxhCk}C","url":"/motorcycle-roads/switzerland/switzerland/ride/bernina-pass-2328m-lago-bianco"},{"slat":"46.3946","slon":"9.23197","elat":"46.5259","elon":"9.18657","road_type_name":"Mountainous","road_type_id":"4","length":"29","title":"San Bernardino Pass (2066m)","rating":"5","comments_count":"2","is_long":"0","simplified_polyline":"amdzGuajw@gfEtp@sdAnhAtSxh@saCpm@mcEpxDaqE{fCyDds@s[}_@","polyline":"amdzGuajw@gfEtp@sdAnhAtSxh@saCpm@mcEpxDaqE{fCyDds@s[}_@","url":"/motorcycle-roads/switzerland/switzerland/ride/san-bernardino-pass-2066m"},{"slat":"46.4064","slon":"9.6974","elat":"46.3935","elon":"9.66944","road_type_name":"Mountainous","road_type_id":"4","length":"6","title":"Maloja Pass","rating":"4","comments_count":"1","is_long":"0","simplified_polyline":"mwfzGw_ez@dhAr_@pEbnC","polyline":"mwfzGw_ez@dhAr_@pEbnC","url":"/motorcycle-roads/switzerland/switzerland/ride/maloja-pass"},{"slat":"46.3325","slon":"9.3728","elat":"46.5494","elon":"9.3243","road_type_name":"Mountainous","road_type_id":"4","length":"36","title":"Splugen Pass (2113m)","rating":"5","comments_count":"1","is_long":"0","simplified_polyline":"yhxyGmrex@w_WpaFafDcwB_gAzzC}zIlf@","polyline":"yhxyGmrex@w_WpaFafDcwB_gAzzC}zIlf@","url":"/motorcycle-roads/italy/lombardia-emilia-romagna/ride/splugen-pass-2113m"},{"slat":"46.9052","slon":"7.23997","elat":"47.8189","elon":"8.18138","road_type_name":"Rural","road_type_id":"1","length":"273","title":"Graf","rating":"3","comments_count":"1","is_long":"1","simplified_polyline":"odh}Gy`ek@iy@vc@wqDgj@oChnAyfAjTeyBjwD_uFmqDwqDslHycDvlDwwFgKy`D|lAonCc|DszBvmBucAwNbDjdJog@rv@gbCwcByxBuiFeb@chSiW}m@_aAx\\w}@ox@edAqnFivFeH}w@jaBinDnz@mV`nFc{AcbEmmBsj@ar@sgEzKc|Ew|@cpBlTwjDs~EukGes@w|JksAqsC_eEpqBan@`_EakB}[i}@lyB{fCtq@sb@eo@yw@lxAipE{|HgpGrgHfCpvBqwDf|AyqEmm@csDihEuvBzk@ic@thAgyDjTghIocFgxExRuvCylAsh@h[}aDgjA_mGg_GwbCpc@ylCngE_r@ufB_]t`@taBa`E`mK{mIuhC_vIwuHmjKvrBw`CllAwbE{i@m`Bhl@aBh[cjBlnBekThzBmpAdxAg}E`x@{Mh|BgrQmPeeGfoCrkDp_Bl|Gv~AqtA~AijAx~BmhArxAomH","polyline":"odh}Gy`ek@iy@vc@wqDgj@oChnAyfAjTeyBjwD_uFmqDwqDslHycDvlDwwFgKy`D|lAonCc|DszBvmBucAwNbDjdJog@rv@gbCwcByxBuiFeb@chSiW}m@_aAx\\w}@ox@edAqnFivFeH}w@jaBinDnz@mV`nFc{AcbEmmBsj@ar@sgEzKc|Ew|@cpBlTwjDs~EukGes@w|JksAqsC_eEpqBan@`_EakB}[i}@lyB{fCtq@sb@eo@yw@lxAipE{|HgpGrgHfCpvBqwDf|AyqEmm@csDihEuvBzk@ic@thAgyDjTghIocFgxExRuvCylAsh@h[}aDgjA_mGg_GwbCpc@ylCngE_r@ufB_]t`@taBa`E`mK{mIuhC_vIwuHmjKvrBw`CllAwbE{i@m`Bhl@aBh[cjBlnBekThzBmpAdxAg}E`x@{Mh|BgrQmPeeGfoCrkDp_Bl|Gv~AqtA~AijAx~BmhArxAomH","url":"/motorcycle-roads/switzerland/switzerland/ride/graf"},{"slat":"46.4258","slon":"6.25598","elat":"46.3415","elon":"6.15854","road_type_name":"Rural","road_type_id":"1","length":"46","title":"Genève - St.Cergue","rating":"4","comments_count":"1","is_long":"0","simplified_polyline":"kojzG_zde@{pBhnAoaCqpB{{BxtAbaA|`B`}B}y@|~@|~@o\\zgAyr@{@f[~xAiq@od@wVxb@zhBbdHbhA_Vu[oq@tfAe@qUsr@fw@|Mbw@_gAtSfz@r_Ed{BtrAyfAh{CxiA","polyline":"kojzG_zde@{pBhnAoaCqpB{{BxtAbaA|`B`}B}y@|~@|~@o\\zgAyr@{@f[~xAiq@od@wVxb@zhBbdHbhA_Vu[oq@tfAe@qUsr@fw@|Mbw@_gAtSfz@r_Ed{BtrAyfAh{CxiA","url":"/motorcycle-roads/switzerland/switzerland/ride/geneve-st-cergue"},{"slat":"46.6353","slon":"8.60159","elat":"46.6522","elon":"8.69632","road_type_name":"Mountainous","road_type_id":"4","length":"14","title":"Oberalppass : Andermatt","rating":"5","comments_count":"2","is_long":"0","simplified_polyline":"wms{G}~ns@ocDwfKppAckCmUa{@","polyline":"wms{G}~ns@ocDwfKppAckCmUa{@","url":"/motorcycle-roads/switzerland/switzerland/ride/oberalppass-andermatt"},{"slat":"46.5499","slon":"9.32349","elat":"46.4609","elon":"9.34045","road_type_name":"Mountainous","road_type_id":"4","length":"16","title":"Splügenpaßstraße","rating":"4","comments_count":"1","is_long":"0","simplified_polyline":"_xb{G{}{w@d~I_m@dgAc{ChdC`~A","polyline":"_xb{G{}{w@d~I_m@dgAc{ChdC`~A","url":"/motorcycle-roads/switzerland/switzerland/ride/splugenpassstrasse"},{"slat":"46.4329","slon":"9.99714","elat":"46.2344","elon":"10.1393","road_type_name":"Mountainous","road_type_id":"4","length":"36","title":"Lago Bianco - Tirano","rating":"4","comments_count":"1","is_long":"0","simplified_polyline":"c}kzGoq_|@npAsi@`x@ipBsRa|CfbAwtBlgAsMxMehAxxAriApdB__ApfBvpBjqBhYr}F{cDh}CszGhmCelA","polyline":"c}kzGoq_|@npAsi@`x@ipBsRa|CfbAwtBlgAsMxMehAxxAriApdB__ApfBvpBjqBhYr}F{cDh}CszGhmCelA","url":"/motorcycle-roads/switzerland/switzerland/ride/lago-bianco-tirano"},{"slat":"46.4618","slon":"9.34269","elat":"46.5696","elon":"9.38364","road_type_name":"Mountainous","road_type_id":"4","length":"23","title":"Montespluga to Sufers","rating":"4","comments_count":"1","is_long":"0","simplified_polyline":"osqzGqs_x@s|BisAsgAh{CkgJ||@epBchK","polyline":"osqzGqs_x@s|BisAsgAh{CkgJ||@epBchK","url":"/motorcycle-roads/italy/lombardia-emilia-romagna/ride/montespluga-to-sufers"},{"slat":"46.6963","slon":"10.101","elat":"46.6306","elon":"10.3135","road_type_name":"Mountainous","road_type_id":"4","length":"24","title":"Ofenpass","rating":"5","comments_count":"1","is_long":"0","simplified_polyline":"ei_|G{zs|@|PwlFlnAshD~rABbuAmrAk}@{xFxiC{oNl_AeyA","polyline":"ei_|G{zs|@|PwlFlnAshD~rABbuAmrAk}@{xFxiC{oNl_AeyA","url":"/motorcycle-roads/switzerland/switzerland/ride/ofenpass"},{"slat":"46.5046","slon":"7.58838","elat":"46.6965","elon":"8.23551","road_type_name":"Mountainous","road_type_id":"4","length":"305","title":"Alpenpässe : Susten - Furka - Nufenen - Gotthard - Furka - Grimsel","rating":"5","comments_count":"2","is_long":"1","simplified_polyline":"e~yzGkjim@lq@noBg{@mhAs`GghBgtEopEcNwqB{{BmdAi~BefDydCXytEf{C{a@iZ~tE}|RslAkcEpVkpBkjAg_CW}jDqkAuw@sQs|FkyBacGtT|t@}FmwAxd@fw@yd@gw@lF`xAs~E_tOyUgfSflFc`Pu_B{tPklBe`FvNytD_j@lLzp@km@s`@{YtqAuqH_bC{kEnWksErgEwiQbQhc@xjGrYty@~_AhoBc{@teCvoD|h@mu@~iCj}AdvEwt@`f@|]thAkwAjv@|oBqcAsaDdM{m@pf@p`A{BswChuCpuPpcE`lK}QxmKc`@sEx{@|[cg@fSdm@hr@{}Azq@}kAzfCop@~xEmtEklIlQpz@e~@i_Au`AbYqfAg|Fgd@z}@hZ}hDy}AwkBkn@y`Dxk@}iEcpAm~As}@{zEr}@zzEbpAl~Awk@tkE~l@n|Cb_BhnBk]h_Dhg@gt@|c@hqBvStdGi\\cNrCjg@qP_e@tGvr@e|@cy@_pFz}Ew{D`Me}Ht_L","polyline":"e~yzGkjim@lq@noBg{@mhAs`GghBgtEopEcNwqB{{BmdAi~BefDydCXytEf{C{a@iZ~tE}|RslAkcEpVkpBkjAg_CW}jDqkAuw@sQs|FkyBacGtT|t@}FmwAxd@fw@yd@gw@lF`xAs~E_tOyUgfSflFc`Pu_B{tPklBe`FvNytD_j@lLzp@km@s`@{YtqAuqH_bC{kEnWksErgEwiQbQhc@xjGrYty@~_AhoBc{@teCvoD|h@mu@~iCj}AdvEwt@`f@|]thAkwAjv@|oBqcAsaDdM{m@pf@p`A{BswChuCpuPpcE`lK}QxmKc`@sEx{@|[cg@fSdm@hr@{}Azq@}kAzfCop@~xEmtEklIlQpz@e~@i_Au`AbYqfAg|Fgd@z}@hZ}hDy}AwkBkn@y`Dxk@}iEcpAm~As}@{zEr}@zzEbpAl~Awk@tkE~l@n|Cb_BhnBk]h_Dhg@gt@|c@hqBvStdGi\\cNrCjg@qP_e@tGvr@e|@cy@_pFz}Ew{D`Me}Ht_L","url":"/motorcycle-roads/switzerland/switzerland/ride/alpenpasse-susten-furka-nufenen-gotthard-furka-grimsel"},{"slat":"47.586","slon":"8.2944","elat":"47.5847","elon":"8.2945","road_type_name":"Rural","road_type_id":"1","length":"219","title":"Südschwarzwald Rundfahrt","rating":"2.5","comments_count":"2","is_long":"1","simplified_polyline":"scmaH__sq@oqAslHiy@cp@iaChnGbHyo@ogAp]czD{bBkm@t^a[khAim@ha@ciAmnBojDy\\amEfg@}vCzeCutAeLyo@tgAvbA{f@eh@tsFll@fpKar@`uCmuBpyBmaAloFgaC~jAq\\vpCuhAtg@fyAdyH}q@ljEbl@{eBuKniDzJgx@|rAzaEj}@d\\vc@zyD}hA`Tu}Ah{Bs|AvGgiEpcFhJpdAzCkq@ls@pQzF`kCnoAjmArV~wCpsBzxDrn@kz@l~B{PffAdrAhe@ig@mCxcBre@erEtaB_sAa~Acm@pm@yp@ai@wXfjBubBjiAacEtwBmHvkDvrA{`@cmHg~A{`EAwaEwn@cKxYatAzoCUkEuz@~eAkf@psE`U~yAyh@f{Dn_Bda@jlBxt@kQpl@~bBjhFlrA~P~pBlVggAfvAh|@v_@ytMgpAmoH|_AkvBw}C__D_eAq_O~gAswBs{C{g@gp@soEjvDutF","polyline":"scmaH__sq@oqAslHiy@cp@iaChnGbHyo@ogAp]czD{bBkm@t^a[khAim@ha@ciAmnBojDy\\amEfg@}vCzeCutAeLyo@tgAvbA{f@eh@tsFll@fpKar@`uCmuBpyBmaAloFgaC~jAq\\vpCuhAtg@fyAdyH}q@ljEbl@{eBuKniDzJgx@|rAzaEj}@d\\vc@zyD}hA`Tu}Ah{Bs|AvGgiEpcFhJpdAzCkq@ls@pQzF`kCnoAjmArV~wCpsBzxDrn@kz@l~B{PffAdrAhe@ig@mCxcBre@erEtaB_sAa~Acm@pm@yp@ai@wXfjBubBjiAacEtwBmHvkDvrA{`@cmHg~A{`EAwaEwn@cKxYatAzoCUkEuz@~eAkf@psE`U~yAyh@f{Dn_Bda@jlBxt@kQpl@~bBjhFlrA~P~pBlVggAfvAh|@v_@ytMgpAmoH|_AkvBw}C__D_eAq_O~gAswBs{C{g@gp@soEjvDutF","url":"/motorcycle-roads/switzerland/switzerland/ride/sudschwarzwald-rundfahrt"},{"slat":"47.1402","slon":"8.6215","elat":"47.1804","elon":"8.58053","road_type_name":"Rural","road_type_id":"1","length":"114","title":"Schwyz - Horgen - Einsiedeln ( Zurich Area Short 1 )","rating":"4","comments_count":"1","is_long":"0","simplified_polyline":"kdv~Gqwrs@wZ_oDbg@{sD_uBq`Hpl@mq@kJoyApyAwf@onAwjAoDi}CtvHyx@t{@m{BbiExnBbcAzfClt@kJhqCdfE{DliBpkAjRaDzqIsi@wDulAjaEiv@\\ctCnyCgjAeKax@akAmUjh@}jEgyAceBfiB}l@x_Iy_BptAy_GkgAot@vbAbk@bjC_tAohAym@qlD|g@e`@}OymCeqFbwBpt@i~BzzAai@mD``@h~A{GjnBupAhb@_bCtdBjfBl_@ii@c_A~rI","polyline":"kdv~Gqwrs@wZ_oDbg@{sD_uBq`Hpl@mq@kJoyApyAwf@onAwjAoDi}CtvHyx@t{@m{BbiExnBbcAzfClt@kJhqCdfE{DliBpkAjRaDzqIsi@wDulAjaEiv@\\ctCnyCgjAeKax@akAmUjh@}jEgyAceBfiB}l@x_Iy_BptAy_GkgAot@vbAbk@bjC_tAohAym@qlD|g@e`@}OymCeqFbwBpt@i~BzzAai@mD``@h~A{GjnBupAhb@_bCtdBjfBl_@ii@c_A~rI","url":"/motorcycle-roads/switzerland/switzerland/ride/schwyz-horgen-einsiedeln-zurich-area-short-1"},{"slat":"46.5291","slon":"6.4405","elat":"46.5212","elon":"6.37461","road_type_name":"Mountainous","road_type_id":"4","length":"88","title":"Col du Marchiaruz : Aubonne - St-Prex with fun","rating":"4","comments_count":"1","is_long":"0","simplified_polyline":"kx~zG{_if@chAw`@wkAyqDzeAakAkImmCskFrPigBkyBo{A~hB`FtoD{gAbaBrYhbJyhFuJssDitFe|@`zAcFpoDvdA|vDdn@eDle@fhChnAnt@kp@htE|uAlmDftIjfL|~BhrAfpBkxHpvBhAcJicGwnA{lCdb@~Mr\\gzC~pCupE","polyline":"kx~zG{_if@chAw`@wkAyqDzeAakAkImmCskFrPigBkyBo{A~hB`FtoD{gAbaBrYhbJyhFuJssDitFe|@`zAcFpoDvdA|vDdn@eDle@fhChnAnt@kp@htE|uAlmDftIjfL|~BhrAfpBkxHpvBhAcJicGwnA{lCdb@~Mr\\gzC~pCupE","url":"/motorcycle-roads/switzerland/switzerland/ride/col-du-marchiaruz-aubonne-st-prex-with-fun"},{"slat":"46.5177","slon":"6.42703","elat":"46.5095","elon":"6.39034","road_type_name":"Mountainous","road_type_id":"4","length":"94","title":"Col du Marchiaruz : Aubonne - St. Prex","rating":"4","comments_count":"1","is_long":"0","simplified_polyline":"mq|zGyeff@aoCyzBwkAyqDzeAakAcIemC{kFjPqbB}yBefBlzBcgDwo@w~Ahk@v{@tfR}{Au_@svCi}Ea|@ryA}EpqDldAjuDln@{C~d@pgCnnAzt@kp@psE|uAdnDftIjfLf_CjrA|oBmxHpvBhAcJicGsnAmmC`b@pN`_@y~C`zE}jH","polyline":"mq|zGyeff@aoCyzBwkAyqDzeAakAcIemC{kFjPqbB}yBefBlzBcgDwo@w~Ahk@v{@tfR}{Au_@svCi}Ea|@ryA}EpqDldAjuDln@{C~d@pgCnnAzt@kp@psE|uAdnDftIjfLf_CjrA|oBmxHpvBhAcJicGsnAmmC`b@pN`_@y~C`zE}jH","url":"/motorcycle-roads/switzerland/switzerland/ride/col-du-marchiaruz-aubonne-st-prex"},{"slat":"46.266","slon":"6.94439","elat":"46.3618","elon":"6.51941","road_type_name":"Mountainous","road_type_id":"4","length":"54","title":"Devils Canyon : Monthey - Thonen-Les-Bains","rating":"4","comments_count":"1","is_long":"0","simplified_polyline":"}ikyGgiki@d~AtPjuBzyBmk@{F~Zx_A_`@wZ~TrnKmlFrfBcrBloFaLtuExtApzIafBdrEqyAyUagCfaCsJneF`dApnEcsAn|A_q@f`F{aBtfB","polyline":"}ikyGgiki@d~AtPjuBzyBmk@{F~Zx_A_`@wZ~TrnKmlFrfBcrBloFaLtuExtApzIafBdrEqyAyUagCfaCsJneF`dApnEcsAn|A_q@f`F{aBtfB","url":"/motorcycle-roads/switzerland/switzerland/ride/devils-canyon-monthey-thonen-les-bains"},{"slat":"46.5328","slon":"10.1321","elat":"46.2303","elon":"10.1448","road_type_name":"Mountainous","road_type_id":"4","length":"46","title":"Livigno to Tirano","rating":"4","comments_count":"1","is_long":"0","simplified_polyline":"qm_{Gy|y|@xhGjnB~cC~wBlgAbkFrnG`n@vbA_fBlgAsMtNqhAlwA|iAbdBa_AzhBvqBljDgAx{EyaDtdC_aGtiD}gB","polyline":"qm_{Gy|y|@xhGjnB~cC~wBlgAbkFrnG`n@vbA_fBlgAsMtNqhAlwA|iAbdBa_AzhBvqBljDgAx{EyaDtdC_aGtiD}gB","url":"/motorcycle-roads/italy/veneto-trentino-alto/ride/livigno-to-tirano"},{"slat":"46.3877","slon":"6.84438","elat":"46.2495","elon":"6.94034","road_type_name":"Mountainous","road_type_id":"4","length":"84","title":"Monthey, Chatel, Evian","rating":"4.5","comments_count":"2","is_long":"0","simplified_polyline":"acczGaxwh@oyBtpVlKlbPbaAtwQtbB~~EbgAhX|SojBzqBe{Bhn@myEhuAu~AifAomEzJceF|fCg`CpyAfU`fBerEutAmyIlLixErqB}mFdlFcfBwTcoK~_@vZ_[y_Ano@xTypBm`C","polyline":"acczGaxwh@oyBtpVlKlbPbaAtwQtbB~~EbgAhX|SojBzqBe{Bhn@myEhuAu~AifAomEzJceF|fCg`CpyAfU`fBerEutAmyIlLixErqB}mFdlFcfBwTcoK~_@vZ_[y_Ano@xTypBm`C","url":"/motorcycle-roads/switzerland/switzerland/ride/monthey-chatel-evian"},{"slat":"47.3513","slon":"8.93491","elat":"47.3651","elon":"8.67782","road_type_name":"Rural","road_type_id":"1","length":"54","title":"Böden - Fischingen - Wila - Greifensee ( Hulftegg Afterwork ride )","rating":"3","comments_count":"1","is_long":"0","simplified_polyline":"{h_`Hcbpu@tLyrByd@{qA_eA}Oe[}_Bik@fdA_dC_L_eA|k@~sA|kBerAztPw|@z~A~pAnqB}u@hdCz\\pmA{q@sk@_cAjjAskAsh@o^tw@r|BxgDrQvfBj{Abp@d]xkE||ArmAfW}Zp\\hiB~s@{o@pm@rg@","polyline":"{h_`Hcbpu@tLyrByd@{qA_eA}Oe[}_Bik@fdA_dC_L_eA|k@~sA|kBerAztPw|@z~A~pAnqB}u@hdCz\\pmA{q@sk@_cAjjAskAsh@o^tw@r|BxgDrQvfBj{Abp@d]xkE||ArmAfW}Zp\\hiB~s@{o@pm@rg@","url":"/motorcycle-roads/switzerland/switzerland/ride/boden-fischingen-wila-greifensee-hulftegg-afterwork-ride"},{"slat":"46.0904","slon":"7.05473","elat":"45.927","elon":"6.87531","road_type_name":"Mountainous","road_type_id":"4","length":"39","title":"Over the hill to Switzerland","rating":"4.5","comments_count":"2","is_long":"0","simplified_polyline":"e`ixGmy`j@cqAq}@dZdm@vqEtgF}}@sBfkBxaCrqA|IehAbJ}zAp{BnjCtgEpoDz_DxbF}z@xkGrzFrk@gGdl@xsA","polyline":"e`ixGmy`j@cqAq}@dZdm@vqEtgF}}@sBfkBxaCrqA|IehAbJ}zAp{BnjCtgEpoDz_DxbF}z@xkGrzFrk@gGdl@xsA","url":"/motorcycle-roads/france/rhone-alpes-inc/ride/over-the-hill-to-switzerland"},{"slat":"46.6012","slon":"7.07445","elat":"46.3176","elon":"6.97483","road_type_name":"Mountainous","road_type_id":"4","length":"56","title":"Bulle- Col de Mosse- Aigle","rating":"5","comments_count":"2","is_long":"0","simplified_polyline":"ixl{Givdj@huBgiBzgCne@pjOp|HfhAyqC}YgzBfaAkpGfm@hu@zmDosEsVdpEpeE~dA`jDraDfXvbBfYa[uGf~AvaCxpAhbAxsB~gA`jG","polyline":"ixl{Givdj@huBgiBzgCne@pjOp|HfhAyqC}YgzBfaAkpGfm@hu@zmDosEsVdpEpeE~dA`jDraDfXvbBfYa[uGf~AvaCxpAhbAxsB~gA`jG","url":"/motorcycle-roads/switzerland/switzerland/ride/bulle-col-de-mosse-aigle"},{"slat":"46.3244","slon":"9.40448","elat":"46.401","elon":"9.69602","road_type_name":"Mountainous","road_type_id":"4","length":"31","title":"Malojapass : Chiavenna - Maloja","rating":"5","comments_count":"1","is_long":"0","simplified_polyline":"iwvyGgxkx@{v@}sWygBqiQ_~AwhEmnDujA{l@aiD","polyline":"iwvyGgxkx@{v@}sWygBqiQ_~AwhEmnDujA{l@aiD","url":"/motorcycle-roads/italy/lombardia-emilia-romagna/ride/malojapass-chiavenna-maloja"},{"slat":"47.5903","slon":"7.65226","elat":"47.8837","elon":"8.13558","road_type_name":"Rural","road_type_id":"1","length":"65","title":"B317 : Riehen - Titisee","rating":"5","comments_count":"1","is_long":"0","simplified_polyline":"o~maHsqum@__EeHatB{|F|Q_xFglAa`Inq@stCyo@_|CcmAa~@_zEhO}bCyjEg`LkoBawA{nAe^epDsrCat@gj@ktDe{@iY}rAm`EeKtw@qCmlLyuCaqL","polyline":"o~maHsqum@__EeHatB{|F|Q_xFglAa`Inq@stCyo@_|CcmAa~@_zEhO}bCyjEg`LkoBawA{nAe^epDsrCat@gj@ktDe{@iY}rAm`EeKtw@qCmlLyuCaqL","url":"/motorcycle-roads/switzerland/switzerland/ride/b317-riehen-titisee"},{"slat":"46.6186","slon":"7.37701","elat":"46.6083","elon":"7.11187","road_type_name":"Rural","road_type_id":"1","length":"30","title":"Jaunpass : Reidenbach - Châtel-sur-Montsalvens","rating":"4","comments_count":"1","is_long":"0","simplified_polyline":"_ep{Ggy_l@`uDbkEcr@pmAvFr|BgsAjv@~eAn|OwsCrkKdvAh~F","polyline":"_ep{Ggy_l@`uDbkEcr@pmAvFr|BgsAjv@~eAn|OwsCrkKdvAh~F","url":"/motorcycle-roads/switzerland/switzerland/ride/jaunpass-reidenbach-chatel-sur-montsalvens"},{"slat":"46.6647","slon":"8.59116","elat":"46.5256","elon":"8.61035","road_type_name":"Mountainous","road_type_id":"4","length":"30","title":"San gattardo the old pass","rating":"5","comments_count":"1","is_long":"0","simplified_polyline":"key{Gc~ls@nr@|x@lxBmv@v}B|kD`f@sv@ljCr}AdgDyI`t@cpA`h@b^dxA_yAoR{X`d@vb@kYe~Bbj@tsA`DkuC","polyline":"key{Gc~ls@nr@|x@lxBmv@v}B|kD`f@sv@ljCr}AdgDyI`t@cpA`h@b^dxA_yAoR{X`d@vb@kYe~Bbj@tsA`DkuC","url":"/motorcycle-roads/switzerland/switzerland/ride/san-gattardo-the-old-pass"},{"slat":"46.5546","slon":"8.56794","elat":"46.5365","elon":"8.57977","road_type_name":"Mountainous","road_type_id":"4","length":"5","title":"Old Gottard Pass ( Tremelo ) : Foss ( Gotthardpass )","rating":"4","comments_count":"5","is_long":"0","simplified_polyline":"cuc{Gqlhs@`Ws]p[je@l{@wpA","polyline":"cuc{Gqlhs@`Ws]p[je@l{@wpA","url":"/motorcycle-roads/switzerland/switzerland/ride/old-gottard-pass-tremelo-foss-gotthardpass"},{"slat":"46.183","slon":"8.70919","elat":"46.2037","elon":"8.5395","road_type_name":"Rural","road_type_id":"1","length":"23","title":"Valle Onsernone: Locarno - Spruga","rating":"5","comments_count":"1","is_long":"0","simplified_polyline":"ac{xGk_dt@y@hjAaxAhKc_AtaB|x@hvFmPx`Csp@xd@rp@mEg`@`{D||@jnDoCvzA{e@nI","polyline":"ac{xGk_dt@y@hjAaxAhKc_AtaB|x@hvFmPx`Csp@xd@rp@mEg`@`{D||@jnDoCvzA{e@nI","url":"/motorcycle-roads/switzerland/switzerland/ride/valle-onsernone-locarno-spruga"},{"slat":"47.4106","slon":"7.49224","elat":"47.3762","elon":"7.36161","road_type_name":"Rural","road_type_id":"1","length":"13","title":"N18 : Laufen - Delémont","rating":"4","comments_count":"1","is_long":"0","simplified_polyline":"m{j`Hgivl@jx@vkAeT~kDn}@xrBuLtzErp@vaEvoAdc@","polyline":"m{j`Hgivl@jx@vkAeT~kDn}@xrBuLtzErp@vaEvoAdc@","url":"/motorcycle-roads/switzerland/switzerland/ride/n18-laufen-delemont"},{"slat":"46.9069","slon":"8.62988","elat":"47.055","elon":"8.33071","road_type_name":"Coastal","road_type_id":"2","length":"60","title":"2 / 2b / 4 : Lucerne - Flüelen ( Along the shore of Lake Lucerne )","rating":"4","comments_count":"1","is_long":"0","simplified_polyline":"kle~G{azq@zvAikD}{FyfOhwGn`CxkCw}JzfAyVfk@veArl@wpKkqAyeHvu@umCxpG_tAh|Bh~@vfCmmB","polyline":"kle~G{azq@zvAikD}{FyfOhwGn`CxkCw}JzfAyVfk@veArl@wpKkqAyeHvu@umCxpG_tAh|Bh~@vfCmmB","url":"/motorcycle-roads/switzerland/switzerland/ride/2-2b-4-lucerne-fluelen-along-the-shore-of-lake-lucerne"},{"slat":"46.6799","slon":"7.82153","elat":"46.7534","elon":"7.63657","road_type_name":"Mountainous","road_type_id":"4","length":"19","title":"Interlaken - Thun (North side of Lake Thun)","rating":"3.5","comments_count":"2","is_long":"0","simplified_polyline":"sd|{Gosvn@ko@bgDv`@lvGm|Ct{Cqz@`dFsbFtaI","polyline":"sd|{Gosvn@ko@bgDv`@lvGm|Ct{Cqz@`dFsbFtaI","url":"/motorcycle-roads/switzerland/switzerland/ride/interlaken-thun-north-side-of-lake-thun"},{"slat":"46.5481","slon":"9.32379","elat":"46.3251","elon":"9.37852","road_type_name":"Mountainous","road_type_id":"4","length":"40","title":"SS36 / Splügenpass : Splügen - Chiavenna","rating":"4.8","comments_count":"5","is_long":"0","simplified_polyline":"olb{Gs`|w@~qIki@bjA}{CdcDtwBbxCuu@c_AflAbpFihCfrCwEhqI_mC","polyline":"olb{Gs`|w@~qIki@bjA}{CdcDtwBbxCuu@c_AflAbpFihCfrCwEhqI_mC","url":"/motorcycle-roads/switzerland/switzerland/ride/ss36-splugenpass-splugen-chiavenna"},{"slat":"46.0934","slon":"9.06123","elat":"46.0671","elon":"8.97051","road_type_name":"Mountainous","road_type_id":"4","length":"14","title":"Bogno - Tesserete","rating":"4","comments_count":"1","is_long":"0","simplified_polyline":"urixGuwhv@wTpaAj{@tuCpa@}j@dzAvhK","polyline":"urixGuwhv@wTpaAj{@tuCpa@}j@dzAvhK","url":"/motorcycle-roads/switzerland/switzerland/ride/bogno-tesserete"},{"slat":"46.6965","slon":"9.47609","elat":"46.7856","elon":"9.81281","road_type_name":"Mountainous","road_type_id":"4","length":"39","title":"417 : Thusis - Davos ","rating":"4.67","comments_count":"3","is_long":"0","simplified_polyline":"_l_|Gqxyx@~nCgmOpiAyuBy]suHmj@uPqbEmhOra@iGolAgyF_nMa~I","polyline":"_l_|Gqxyx@~nCgmOpiAyuBy]suHmj@uPqbEmhOra@iGolAgyF_nMa~I","url":"/motorcycle-roads/switzerland/switzerland/ride/417-thusis-davos"},{"slat":"46.3988","slon":"9.23011","elat":"46.6899","elon":"9.44112","road_type_name":"Mountainous","road_type_id":"4","length":"65","title":"13 : Messoco - Thusis","rating":"4.75","comments_count":"4","is_long":"0","simplified_polyline":"mgezGewiw@mlDvf@}cAtgArOjl@q|Bji@}dEjyD_qEufC}D~r@sdBmaHm|@mnNyoCamKdBwzG}lO{nEqrCmA{jAjw@","polyline":"mgezGewiw@mlDvf@}cAtgArOjl@q|Bji@}dEjyD_qEufC}D~r@sdBmaHm|@mnNyoCamKdBwzG}lO{nEqrCmA{jAjw@","url":"/motorcycle-roads/switzerland/switzerland/ride/13-messoco-thusis"},{"slat":"46.2342","slon":"10.1417","elat":"46.5094","elon":"9.88074","road_type_name":"Mountainous","road_type_id":"4","length":"49","title":"29 / Berninapass : Campocologno - Punt Muragl","rating":"4","comments_count":"3","is_long":"0","simplified_polyline":"mbeyGkx{|@irCzuAy~Cz{Gu{FrbDoqB{Y_fBmpB}dBx~@cyAqiAgMtgA{kBl|@ej@vpBt^hrB}`EdbFiiAxrF_{Ih{K","polyline":"mbeyGkx{|@irCzuAy~Cz{Gu{FrbDoqB{Y_fBmpB}dBx~@cyAqiAgMtgA{kBl|@ej@vpBt^hrB}`EdbFiiAxrF_{Ih{K","url":"/motorcycle-roads/switzerland/switzerland/ride/29-berninapass-campocologno-punt-muragl"},{"slat":"46.4206","slon":"7.10682","elat":"46.3314","elon":"6.95894","road_type_name":"Mountainous","road_type_id":"4","length":"30","title":"La Lécherette - Yvorne","rating":"5","comments_count":"1","is_long":"0","simplified_polyline":"{oizGs`kj@dB|uGdvA`iAux@vy@~aBpiDrKjeCvqBbx@h{AdrDd_@mqCn`@xcBvkAx`@rLabAlq@`q@","polyline":"{oizGs`kj@dB|uGdvA`iAux@vy@~aBpiDrKjeCvqBbx@h{AdrDd_@mqCn`@xcBvkAx`@rLabAlq@`q@","url":"/motorcycle-roads/switzerland/switzerland/ride/la-lecherette-yvorne"},{"slat":"46.4147","slon":"6.1877","elat":"46.4563","elon":"6.07977","road_type_name":"Rural","road_type_id":"1","length":"15","title":"Nyon - La Cure","rating":"4","comments_count":"1","is_long":"0","simplified_polyline":"sjhzGcpwd@it@tdAgw@}M|U`r@qgA`Aj\\zp@k\\eSoj@tx@{w@h~M","polyline":"sjhzGcpwd@it@tdAgw@}M|U`r@qgA`Aj\\zp@k\\eSoj@tx@{w@h~M","url":"/motorcycle-roads/switzerland/switzerland/ride/nyon-la-cure"},{"slat":"46.6963","slon":"10.099","elat":"46.6333","elon":"10.4564","road_type_name":"Mountainous","road_type_id":"4","length":"39","title":"28 / Ofenpass : Zemez - Müstair","rating":"4.75","comments_count":"4","is_long":"0","simplified_polyline":"ak_|Gans|@tRexFbnAiiDjqAF|vAcrAm`AeuCp`@wjFndJie^j@ikC_iEymE","polyline":"ak_|Gans|@tRexFbnAiiDjqAF|vAcrAm`AeuCp`@wjFndJie^j@ikC_iEymE","url":"/motorcycle-roads/switzerland/switzerland/ride/28-ofenpass-zemez-mustair"},{"slat":"46.8118","slon":"9.84795","elat":"46.749","elon":"10.078","road_type_name":"Mountainous","road_type_id":"4","length":"25","title":"28 / Flüelapass : Davos Dorf - Susch","rating":"4.83","comments_count":"6","is_long":"0","simplified_polyline":"_}u|Gslb{@rfAgeIrlCelExrCqs@~lAodDiqAg`J`b@onI","polyline":"_}u|Gslb{@rfAgeIrlCelExrCqs@~lAodDiqAg`J`b@onI","url":"/motorcycle-roads/switzerland/switzerland/ride/28-fluelapass-davos-dorf-susch"},{"slat":"46.5983","slon":"10.4272","elat":"46.5404","elon":"10.4328","road_type_name":"Mountainous","road_type_id":"4","length":"12","title":"Umbrail Pass : Santa Maria Val Müstair - Terza Cantoniera","rating":"4.6","comments_count":"5","is_long":"0","simplified_polyline":"yfl{Gops~@wAme@f\\j^h_BglAnnF`o@","polyline":"yfl{Gops~@wAme@f\\j^h_BglAnnF`o@","url":"/motorcycle-roads/switzerland/switzerland/ride/umbrail-pass-santa-maria-val-mustair-terza-cantoniera"},{"slat":"47.3207","slon":"6.82341","elat":"47.3861","elon":"7.20098","road_type_name":"Mountainous","road_type_id":"4","length":"37","title":"D437c : St. Hippolyte - Saint-Ursanne","rating":"4.5","comments_count":"2","is_long":"0","simplified_polyline":"giy_Hmush@kZ_kHq~@pNmgAw_F_C_`Cnr@{bAsGe`Neu@_}FfXqiAyo@sa@bS_{Aem@}|@cLmaIofD{kI","polyline":"giy_Hmush@kZ_kHq~@pNmgAw_F_C_`Cnr@{bAsGe`Neu@_}FfXqiAyo@sa@bS_{Aem@}|@cLmaIofD{kI","url":"/motorcycle-roads/france/franche-comte/ride/d437c-st-hippolyte-saint-ursanne"},{"slat":"47.1211","slon":"6.83603","elat":"47.2406","elon":"6.80746","road_type_name":"Mountainous","road_type_id":"4","length":"27","title":"D464 : La Chaux-de-Fonds - Maîche","rating":"4","comments_count":"1","is_long":"0","simplified_polyline":"oir~Gcdvh@{]zjAey@xCsqDo|Eg`@dyCqz@q]pmAndAie@xl@odAwk@aOfd@aoCqRqw@pnBwkCaC","polyline":"oir~Gcdvh@{]zjAey@xCsqDo|Eg`@dyCqz@q]pmAndAie@xl@odAwk@aOfd@aoCqRqw@pnBwkCaC","url":"/motorcycle-roads/switzerland/switzerland/ride/d464-la-chaux-de-fonds-maiche"},{"slat":"47.3231","slon":"7.70877","elat":"47.3459","elon":"7.66423","road_type_name":"Mountainous","road_type_id":"4","length":"5","title":"Ramiswilerstrasse : Sainkt Wolfgang - Ramiswil","rating":"3","comments_count":"1","is_long":"0","simplified_polyline":"qxy_Hur`n@gmB`]}^dwF","polyline":"qxy_Hur`n@gmB`]}^dwF","url":"/motorcycle-roads/switzerland/switzerland/ride/ramiswilerstrasse-sainkt-wolfgang-ramiswil"},{"slat":"46.0523","slon":"6.99623","elat":"46.0888","elon":"7.05484","road_type_name":"Mountainous","road_type_id":"4","length":"16","title":"203 / Col De La Forclaz : Trient - Martigny","rating":"4.25","comments_count":"4","is_long":"0","simplified_polyline":"wqaxGmmui@`l@{HsqAeIqjBebCx}@zDmx@mc@~c@IqyEeqFd|A~x@","polyline":"wqaxGmmui@`l@{HsqAeIqjBebCx}@zDmx@mc@~c@IqyEeqFd|A~x@","url":"/motorcycle-roads/switzerland/switzerland/ride/203-col-de-la-forclaz-trient-martigny"},{"slat":"46.5041","slon":"8.31677","elat":"46.4953","elon":"8.49375","road_type_name":"Mountainous","road_type_id":"4","length":"27","title":"Nufenenpass : Valais - Ticino","rating":"4.5","comments_count":"6","is_long":"0","simplified_polyline":"uyyzG{jwq@ndBowGpcBu|@}m@}m@`h@}S{{@m[n`@gBfQ}dK{bCoqG","polyline":"uyyzG{jwq@ndBowGpcBu|@}m@}m@`h@}S{{@m[n`@gBfQ}dK{bCoqG","url":"/motorcycle-roads/switzerland/switzerland/ride/nufenenpass-valais-ticino"},{"slat":"46.7082","slon":"8.6027","elat":"46.7064","elon":"8.23548","road_type_name":"Mountainous","road_type_id":"4","length":"45","title":"11 / Sustenpass : Wassen - Innertkirchen","rating":"5","comments_count":"7","is_long":"0","simplified_polyline":"kua|G_fos@}|ErkQoWjsE|aCrkEsqA|qHj`@x[yp@nl@fj@eMuNzvDblB~|EhxAjcO","polyline":"kua|G_fos@}|ErkQoWjsE|aCrkEsqA|qHj`@x[yp@nl@fj@eMuNzvDblB~|EhxAjcO","url":"/motorcycle-roads/switzerland/switzerland/ride/11-sustenpass-wassen-innertkirchen"},{"slat":"46.3251","slon":"8.02706","elat":"46.2063","elon":"8.19721","road_type_name":"Mountainous","road_type_id":"4","length":"41","title":"E62 / Simplonpass / SS33 : Brig - Iselle","rating":"4","comments_count":"3","is_long":"0","simplified_polyline":"{zvyGsx~o@xl@im@vdBf|A`m@oMo@}bG|lAjgDtyDktApf@|aDnlBneAptD{{GnmC_oAgt@_HilAccG~FmwFs`AskG","polyline":"{zvyGsx~o@xl@im@vdBf|A`m@oMo@}bG|lAjgDtyDktApf@|aDnlBneAptD{{GnmC_oAgt@_HilAccG~FmwFs`AskG","url":"/motorcycle-roads/switzerland/switzerland/ride/e62-simplonpass-ss33-brig-iselle"},{"slat":"46.1836","slon":"8.71299","elat":"46.1291","elon":"8.33578","road_type_name":"Mountainous","road_type_id":"4","length":"35","title":"560 / SS337 : Locarno - Masera ( Centovalli )","rating":"5","comments_count":"3","is_long":"0","simplified_polyline":"gf{xGkwdt@ruAdhEb`BvvNjfA~y@h|A|vH}q@tjQlhAd{O_^`zC","polyline":"gf{xGkwdt@ruAdhEb`BvvNjfA~y@h|A|vH}q@tjQlhAd{O_^`zC","url":"/motorcycle-roads/switzerland/switzerland/ride/560-ss337-locarno-masera-centovalli"},{"slat":"46.7024","slon":"8.85528","elat":"46.3771","elon":"8.96992","road_type_name":"Mountainous","road_type_id":"4","length":"58","title":"416 / Lukmanierpass : Disentis - Biasca ( Lucomagno )","rating":"4","comments_count":"1","is_long":"0","simplified_polyline":"wp`|Gop`u@frFaOpsDzbA~lA`lC~yDjoB|zEt^|xFkuKoz@w_FxiAqiEcjA~gAuPk`BxbE_tAb`HnlAzbDg_FvfF{_AdfAfdB","polyline":"wp`|Gop`u@frFaOpsDzbA~lA`lC~yDjoB|zEt^|xFkuKoz@w_FxiAqiEcjA~gAuPk`BxbE_tAb`HnlAzbDg_FvfF{_AdfAfdB","url":"/motorcycle-roads/switzerland/switzerland/ride/416-lukmanierpass-disentis-biasca-lucomagno"},{"slat":"46.1628","slon":"8.75368","elat":"45.8903","elon":"8.52028","road_type_name":"Coastal","road_type_id":"2","length":"52","title":"Lake Maggiore - Italy & Switzerland","rating":"4","comments_count":"1","is_long":"0","simplified_polyline":"sdwxGoult@v@~bAzs@oP`p@rmB|lIrfFbfKkwBzbAxfFn|J`jIp`EhsIyrBj`NpgB~x@nqA}iCf_DqtB","polyline":"sdwxGoult@v@~bAzs@oP`p@rmB|lIrfFbfKkwBzbAxfFn|J`jIp`EhsIyrBj`NpgB~x@nqA}iCf_DqtB","url":"/motorcycle-roads/switzerland/switzerland/ride/lake-maggiore-italy-switzerland"},{"slat":"46.6079","slon":"6.96785","elat":"46.5783","elon":"6.92778","road_type_name":"Coastal","road_type_id":"2","length":"5","title":"12 : Les Alpettes Semsales - Les Pont D´Amont","rating":"5","comments_count":"1","is_long":"0","simplified_polyline":"ebn{Gk|oi@rvDrwF","polyline":"ebn{Gk|oi@rvDrwF","url":"/motorcycle-roads/switzerland/switzerland/ride/12-les-alpettes-semsales-les-pont-d-amont"},{"slat":"46.2413","slon":"7.00409","elat":"45.8281","elon":"7.18843","road_type_name":"Mountainous","road_type_id":"4","length":"78","title":"Bex - Saint-Rhemy-En-Bosses ( Grand San Bernardo )","rating":"4.2","comments_count":"5","is_long":"0","simplified_polyline":"wpfyGebwi@tgFue@lbCiqB|}@hc@buDsm@l{G_jI|_AlpDrrA`Tym@_tGrTgbJ`zIvg@_ZcU|`JilJx`L`r@|d@toA|bDxq@dO|~Cdq@eh@nc@bcBh|@gdEjlBqkA","polyline":"wpfyGebwi@tgFue@lbCiqB|}@hc@buDsm@l{G_jI|_AlpDrrA`Tym@_tGrTgbJ`zIvg@_ZcU|`JilJx`L`r@|d@toA|bDxq@dO|~Cdq@eh@nc@bcBh|@gdEjlBqkA","url":"/motorcycle-roads/switzerland/switzerland/ride/bex-saint-rhemy-en-bosses-grand-san-bernardo"},{"slat":"46.9762","slon":"8.74064","elat":"47.0435","elon":"9.035","road_type_name":"Mountainous","road_type_id":"4","length":"36","title":"Pragelpass : Hinterthal - Glarus ( Emerald Lakes and Waterfalls )","rating":"3.67","comments_count":"3","is_long":"0","simplified_polyline":"w}u}G}bjt@nHshH}yAawErx@qCaLg}Cgy@uhBuuDm`Ciq@w`GnNywF{dAgmEtr@at@c~AmeD","polyline":"w}u}G}bjt@nHshH}yAawErx@qCaLg}Cgy@uhBuuDm`Ciq@w`GnNywF{dAgmEtr@at@c~AmeD","url":"/motorcycle-roads/switzerland/switzerland/ride/pragelpass-hinterthal-glarus-emerald-lakes-and-waterfalls"},{"slat":"47.0279","slon":"9.07494","elat":"46.8753","elon":"8.66022","road_type_name":"Rural","road_type_id":"1","length":"61","title":"17 / Klausenpass : Glarus - Altdorf (A Ride through the Clouds)","rating":"4.6","comments_count":"5","is_long":"0","simplified_polyline":"_d`~Gonkv@|mAki@`bCpj@`gAt{CdbEnjBziEttEbbAvfBsv@iF~_DzsNvsAb}Cp_A`P{c@zOla@vlBwh@dkC~OnjMbi@mfDhKf|AybBb_MlWbqF","polyline":"_d`~Gonkv@|mAki@`bCpj@`gAt{CdbEnjBziEttEbbAvfBsv@iF~_DzsNvsAb}Cp_A`P{c@zOla@vlBwh@dkC~OnjMbi@mfDhKf|AybBb_MlWbqF","url":"/motorcycle-roads/switzerland/switzerland/ride/17-klausenpass-glarus-altdorf-a-ride-through-the-clouds"},{"slat":"46.3178","slon":"6.98555","elat":"46.4883","elon":"7.24821","road_type_name":"Mountainous","road_type_id":"4","length":"42","title":"11 : Aigle - Gstaad ( Switchback Heaven )","rating":"4.2","comments_count":"5","is_long":"0","simplified_polyline":"}luyGaksi@{hCsxHgcCetAgf@k`DumDyfDydEqdAvXknEeqD~qEuxB}vAkO}bFg{AgmG]kdG","polyline":"}luyGaksi@{hCsxHgcCetAgf@k`DumDyfDydEqdAvXknEeqD~qEuxB}vAkO}bFg{AgmG]kdG","url":"/motorcycle-roads/switzerland/switzerland/ride/11-aigle-gstaad-switchback-heaven"},{"slat":"47.4269","slon":"7.40469","elat":"47.4236","elon":"7.25179","road_type_name":"Rural","road_type_id":"1","length":"13","title":"D21b : Kleinlützel - Lucelle ( La route internationale à Donfe )","rating":"3","comments_count":"1","is_long":"0","simplified_polyline":"g`n`Hwfel@i~A`oMjrBtjN","polyline":"g`n`Hwfel@i~A`oMjrBtjN","url":"/motorcycle-roads/switzerland/switzerland/ride/d21b-kleinlutzel-lucelle-la-route-internationale-a-donfe"},{"slat":"46.6157","slon":"7.37484","elat":"46.5909","elon":"7.3414","road_type_name":"Mountainous","road_type_id":"4","length":"8","title":"505 / Le col de Jaun : Schwarzenmatt - Jaunpass","rating":"4","comments_count":"2","is_long":"0","simplified_polyline":"cso{Gql_l@~qCfoCbGv`A","polyline":"cso{Gql_l@~qCfoCbGv`A","url":"/motorcycle-roads/switzerland/switzerland/ride/505-le-col-de-jaun-schwarzenmatt-jaunpass"},{"slat":"46.7449","slon":"7.08922","elat":"46.7964","elon":"7.14624","road_type_name":"Rural","road_type_id":"1","length":"8","title":"12 : Posieux - Fribourg (le circuit d´entrainement)","rating":"3","comments_count":"1","is_long":"0","simplified_polyline":"yzh|Gyrgj@_{AsWiyBwzBojBemE","polyline":"yzh|Gyrgj@_{AsWiyBwzBojBemE","url":"/motorcycle-roads/switzerland/switzerland/ride/12-posieux-fribourg-le-circuit-d-entrainement"},{"slat":"46.5774","slon":"7.08762","elat":"46.4641","elon":"7.09845","road_type_name":"Mountainous","road_type_id":"4","length":"20","title":"190 : Bulle - Château d´Oex","rating":"4","comments_count":"2","is_long":"0","simplified_polyline":"kch{Gmigj@bpBdQ~xF`}Dv~CzXrhB~aBpiA_rC~Ca|F","polyline":"kch{Gmigj@bpBdQ~xF`}Dv~CzXrhB~aBpiA_rC~Ca|F","url":"/motorcycle-roads/switzerland/switzerland/ride/190-bulle-chateau-d-oex"},{"slat":"46.4564","slon":"6.08708","elat":"46.4077","elon":"6.19772","road_type_name":"Mountainous","road_type_id":"4","length":"16","title":"123 : Nyon - La cure (St. Cergue)","rating":"2.83","comments_count":"6","is_long":"0","simplified_polyline":"qopzGg{cd@|x@woLjvF_aG","polyline":"qopzGg{cd@|x@woLjvF_aG","url":"/motorcycle-roads/switzerland/switzerland/ride/123-nyon-la-cure-st-cergue"},{"slat":"46.6721","slon":"6.32733","elat":"46.6727","elon":"6.50638","road_type_name":"Mountainous","road_type_id":"4","length":"24","title":"9 : Orbe - Molandurz","rating":"3.5","comments_count":"2","is_long":"0","simplified_polyline":"ssz{Ggvre@q|BmrAep@ra@uyB{kQsx@e~A|i@ovDpqE_y@z|@}fAoAerAhe@tF","polyline":"ssz{Ggvre@q|BmrAep@ra@uyB{kQsx@e~A|i@ovDpqE_y@z|@}fAoAerAhe@tF","url":"/motorcycle-roads/switzerland/switzerland/ride/9-orbe-molandurz"},{"slat":"47.3498","slon":"7.65026","elat":"47.3672","elon":"7.54388","road_type_name":"Mountainous","road_type_id":"4","length":"13","title":"Passwangstrasse : Passwang - Erschwil","rating":"4","comments_count":"1","is_long":"0","simplified_polyline":"c__`Hceum@ym@{aA_e@`dDdi@vcDwaArpK","polyline":"c__`Hceum@ym@{aA_e@`dDdi@vcDwaArpK","url":"/motorcycle-roads/switzerland/switzerland/ride/passwangstrasse-passwang-erschwil"},{"slat":"46.6956","slon":"8.2389","elat":"46.5598","elon":"8.3572","road_type_name":"Mountainous","road_type_id":"4","length":"31","title":"6 / Grimselpass : Gletsch - Innertkirchen","rating":"4.61","comments_count":"18","is_long":"0","simplified_polyline":"wh_|G_hhq@ngA{X|rFmiJj}DoMzoFi~Er{@ny@uGwr@|O|d@bYgZ}h@wkCzc@`q@tLoc@","polyline":"wh_|G_hhq@ngA{X|rFmiJj}DoMzoFi~Er{@ny@uGwr@|O|d@bYgZ}h@wkCzc@`q@tLoc@","url":"/motorcycle-roads/switzerland/switzerland/ride/6-grimselpass-gletsch-innertkirchen"},{"slat":"46.5605","slon":"8.3597","elat":"46.596","elon":"8.49963","road_type_name":"Mountainous","road_type_id":"4","length":"22","title":"19 / Furkapass : Gletsch - Realp","rating":"5","comments_count":"5","is_long":"0","simplified_polyline":"qyd{Gkw_r@y}@{eFog@jt@n\\_cDi}AciBgm@wzCjq@wpDgy@k|A","polyline":"qyd{Gkw_r@y}@{eFog@jt@n\\_cDi}AciBgm@wzCjq@wpDgy@k|A","url":"/motorcycle-roads/switzerland/switzerland/ride/19-furkapass-gletsch-realp"}]