[{"slat":"42.4192","slon":"27.6937","elat":"41.9871","elon":"28.0281","road_type_name":"Coastal","road_type_id":"2","length":"67","title":"Rezovo coast road","rating":"5","comments_count":"1","is_long":"0","simplified_polyline":"k~{aGi|_hDn~Ao{AxsBxOlf@qvA`gA`iAf~B}~AlFns@hr@iTbbAslAvgCrr@tkEkxBruDu]lnHymMvzDewBtrCqqIh_Cie@pUqgAngCefBkTc~@ryEofCpUerAdiEcqA~b@}_B|lBpTngBgvD","polyline":"k~{aGi|_hDn~Ao{AxsBxOlf@qvA`gA`iAf~B}~AlFns@hr@iTbbAslAvgCrr@tkEkxBruDu]lnHymMvzDewBtrCqqIh_Cie@pUqgAngCefBkTc~@ryEofCpUerAdiEcqA~b@}_B|lBpTngBgvD","url":"/motorcycle-roads/turkey/turkey/ride/rezovo-coast-road"},{"slat":"38.4715","slon":"25.938","elat":"38.3779","elon":"25.9912","road_type_name":"Coastal","road_type_id":"2","length":"21","title":"Cape Pari","rating":"4","comments_count":"1","is_long":"0","simplified_polyline":"y~xiFo_i}CtH_eCr~AqvBxlB~H|Bl~@`qBfX|`Dw`Cih@c|AhcCfl@","polyline":"y~xiFo_i}CtH_eCr~AqvBxlB~H|Bl~@`qBfX|`Dw`Cih@c|AhcCfl@","url":"/motorcycle-roads/turkey/turkey/ride/cape-pari"},{"slat":"38.5305","slon":"26.0953","elat":"38.4867","elon":"25.9227","road_type_name":"Mountainous","road_type_id":"4","length":"75","title":"North Chios","rating":"4","comments_count":"1","is_long":"0","simplified_polyline":"endjFcvg~CihBhR}fE||Czy@nwFq}AdaEv}B`iBphCa`Bdr@lfCi`AvkBpdAroAa{AfiBeeByIolA~uAriB|Gy|@`gAjc@p@lDptBik@zWzKdfBzk@sWcCngAtdBpn@tq@i\\zmBy`F`v@kT{f@wZvq@iW~DodBffCqr@","polyline":"endjFcvg~CihBhR}fE||Czy@nwFq}AdaEv}B`iBphCa`Bdr@lfCi`AvkBpdAroAa{AfiBeeByIolA~uAriB|Gy|@`gAjc@p@lDptBik@zWzKdfBzk@sWcCngAtdBpn@tq@i\\zmBy`F`v@kT{f@wZvq@iW~DodBffCqr@","url":"/motorcycle-roads/turkey/turkey/ride/north-chios"},{"slat":"38.465","slon":"27.2287","elat":"38.4648","elon":"27.2285","road_type_name":"Rural","road_type_id":"1","length":"271","title":"?zmir-Söke-Ku?adas? Milli Park","rating":"3","comments_count":"1","is_long":"1","simplified_polyline":"itwiFkbeeDpg@k`BhlAd^bTzhCz[ahAnjCux@loBpw@hxL_o@huCpnAnzHgB|gDssCfkEyfJ|`Oe|GdaEm}HfdDmqCpjC}g@htBmhIhvAeaB~yDcHbeA}oB|qFy{@v`FsaInuGtvGphAv|G~~FdjDfnBpaG|eDhyA_cCtkBoBzzF}}@j{B}zFtzH~dA{i@|nCtyAfjAut@aBlaAfl@vMp~CodBlgFvqSoO~p@rEeoBk|EutQo`DhdBmh@{nAilAjt@ilCk|AytDd_EowBuQa|B{_Bm`Al`@ayB}v@alAdTwoAopDkkDqcAhYyoIafD_p@iIadCikEwzE}iCihAhU{]uY~mBwrCvj@yqDzeD}yC~vGcsHtpEazEnuAyfEraJ}yDx_DgkH}D{wCqnA}tLho@qnBqw@yhDdpA}AysA_`Bcg@yk@vLlEnzA","polyline":"itwiFkbeeDpg@k`BhlAd^bTzhCz[ahAnjCux@loBpw@hxL_o@huCpnAnzHgB|gDssCfkEyfJ|`Oe|GdaEm}HfdDmqCpjC}g@htBmhIhvAeaB~yDcHbeA}oB|qFy{@v`FsaInuGtvGphAv|G~~FdjDfnBpaG|eDhyA_cCtkBoBzzF}}@j{B}zFtzH~dA{i@|nCtyAfjAut@aBlaAfl@vMp~CodBlgFvqSoO~p@rEeoBk|EutQo`DhdBmh@{nAilAjt@ilCk|AytDd_EowBuQa|B{_Bm`Al`@ayB}v@alAdTwoAopDkkDqcAhYyoIafD_p@iIadCikEwzE}iCihAhU{]uY~mBwrCvj@yqDzeD}yC~vGcsHtpEazEnuAyfEraJ}yDx_DgkH}D{wCqnA}tLho@qnBqw@yhDdpA}AysA_`Bcg@yk@vLlEnzA","url":"/motorcycle-roads/turkey/turkey/ride/izmir-soke-kusadasi-milli-park"},{"slat":"40.1669","slon":"26.4015","elat":"36.789","elon":"31.465","road_type_name":"Urban","road_type_id":"3","length":"769","title":"Çanakkale turu","rating":"3","comments_count":"1","is_long":"1","simplified_polyline":"}hdtFadd`D|mAw\\bhBcoQhnB_gExmDjd@hkD{mCpyBkyY~eB_jEj}@igVue@wmBj|@ig@px@ijQtlAsmFqhAyaJlhDkxLpiBmoPzkDutDqI{fTfcDsBp~B_uBhxFrtCvrFexAlvDypFel@s|Eb}AmlDgPqfAlfD{gRvt@oWjyIvoDlzBxzC|sDqXdkCq~AcpBkpPsc@edP}BdhA|pAfj@|yKjUrlB|sCz`Dm_@pnKjdHjnShl@zuFpdBvlEnpD~eDlDnxDg`ExqCwmIfuD_{Bv|QucEn{DocDz}CmT`_HbdCjvC}tM|iG|T~}CsuGj{MueIhqR_xEbrCcqB|bE`oBv_JmgElX_gD`dOomh@zvDsaUhiSove@fnAohFztMwtKryFslIhlGd^htBepDthCkw@j_CabNtqBacEjyDeeHvsH{zA~cCczInsFkhC|nC|vH~UewBt{Fe_Dv{EqwMw]_cArbBonEr|CmgDhlEukP`zDwzDf|NmPd}Bo{AjeCOv`Bb`AphA}gAfdAquGdpBnYjaCki@nc^anP`vF_wL|zAwiIdiGwxE`wJuaLtpKamGxhHg`JprBwO~tBgxHrlEq~Fn{Ekz@zzAqwB_o@cjCcsBgcAw@kaBfbHudMaiDagLe|@usHz]sbKqiAq_EyO_aQrtGafEbw@ycDusBexEjgA_fEqaEepFrOmvHvcBufBuBgpIl~@eqCllF_jGbpB{uH~pGcwI}RikGviAsqDqjHcjOxlF{c|@drBamPl_JabL|pIy`UvYypDilAqq@","polyline":"}hdtFadd`D|mAw\\bhBcoQhnB_gExmDjd@hkD{mCpyBkyY~eB_jEj}@igVue@wmBj|@ig@px@ijQtlAsmFqhAyaJlhDkxLpiBmoPzkDutDqI{fTfcDsBp~B_uBhxFrtCvrFexAlvDypFel@s|Eb}AmlDgPqfAlfD{gRvt@oWjyIvoDlzBxzC|sDqXdkCq~AcpBkpPsc@edP}BdhA|pAfj@|yKjUrlB|sCz`Dm_@pnKjdHjnShl@zuFpdBvlEnpD~eDlDnxDg`ExqCwmIfuD_{Bv|QucEn{DocDz}CmT`_HbdCjvC}tM|iG|T~}CsuGj{MueIhqR_xEbrCcqB|bE`oBv_JmgElX_gD`dOomh@zvDsaUhiSove@fnAohFztMwtKryFslIhlGd^htBepDthCkw@j_CabNtqBacEjyDeeHvsH{zA~cCczInsFkhC|nC|vH~UewBt{Fe_Dv{EqwMw]_cArbBonEr|CmgDhlEukP`zDwzDf|NmPd}Bo{AjeCOv`Bb`AphA}gAfdAquGdpBnYjaCki@nc^anP`vF_wL|zAwiIdiGwxE`wJuaLtpKamGxhHg`JprBwO~tBgxHrlEq~Fn{Ekz@zzAqwB_o@cjCcsBgcAw@kaBfbHudMaiDagLe|@usHz]sbKqiAq_EyO_aQrtGafEbw@ycDusBexEjgA_fEqaEepFrOmvHvcBufBuBgpIl~@eqCllF_jGbpB{uH~pGcwI}RikGviAsqDqjHcjOxlF{c|@drBamPl_JabL|pIy`UvYypDilAqq@","url":"/motorcycle-roads/turkey/turkey/ride/canakkale-turu"},{"slat":"40.483","slon":"40.9946","elat":"41.1653","elon":"41.867","road_type_name":"Rural","road_type_id":"1","length":"152","title":"Ispir-Artvin","rating":"5","comments_count":"1","is_long":"0","simplified_polyline":"czavFcweyFkgCs}@ud@edBk~@wGmZ_wAifAy@chB{~BugDc_OspGoaHrJe_Cc~A{RsiBunDbYo]ihAoUun@}vH{~A}sExP_|CquEwpIghDmjPqrFamCgrAzj@gwCewCctAtr@odFxBnbBsvBtsAvh@tF}g@vvBqBbb@gvFcu@qbByv@i{LyxB_tCcvAiMabH_gFmoB}qCumIj`@_r@ay@qh@fZw{DyuFkyEvOkpCgqB}_AhYkmD}cIc`@g{CyiDqCgm@xjC","polyline":"czavFcweyFkgCs}@ud@edBk~@wGmZ_wAifAy@chB{~BugDc_OspGoaHrJe_Cc~A{RsiBunDbYo]ihAoUun@}vH{~A}sExP_|CquEwpIghDmjPqrFamCgrAzj@gwCewCctAtr@odFxBnbBsvBtsAvh@tF}g@vvBqBbb@gvFcu@qbByv@i{LyxB_tCcvAiMabH_gFmoB}qCumIj`@_r@ay@qh@fZw{DyuFkyEvOkpCgqB}_AhYkmD}cIc`@g{CyiDqCgm@xjC","url":"/motorcycle-roads/turkey/turkey/ride/ispir-artvin"},{"slat":"40.9365","slon":"40.2742","elat":"40.2923","elon":"40.233","road_type_name":"Rural","road_type_id":"1","length":"100","title":"Of-Bayburt","rating":"5","comments_count":"1","is_long":"0","simplified_polyline":"alzxFk`ytFhyPml@n`IxjFtxCivArbCphB`dFt~@roDahAdbB|sEvvCtSh_KwzBfdEe{CcDhmA|t@nk@ac@sq@d`Bn~@d_Cme@dYowBnMrm@rYwx@|iGwxAj}Hl~CpdDgj@x`Mp~BhgBoJ","polyline":"alzxFk`ytFhyPml@n`IxjFtxCivArbCphB`dFt~@roDahAdbB|sEvvCtSh_KwzBfdEe{CcDhmA|t@nk@ac@sq@d`Bn~@d_Cme@dYowBnMrm@rYwx@|iGwxAj}Hl~CpdDgj@x`Mp~BhgBoJ","url":"/motorcycle-roads/turkey/turkey/ride/of-bayburt"},{"slat":"41.9754","slon":"27.5053","elat":"42.4026","elon":"27.6753","road_type_name":"Coastal","road_type_id":"2","length":"91","title":"99 Malko Tarnovo to Sozopol","rating":"3","comments_count":"1","is_long":"0","simplified_polyline":"kie_Gqb{fD~YugCwpCcnCdp@aqCkpAH{tAmrEurBmzAxb@pJen@g}Af_@gaA}{Ey]am@dsAaxDwh@_C_qChfAkxAkv@sqBtv@_kAgMycCwfGgrJlCceBoc@pw@{d@yNSkhBwtBsiCeyDr_CkoHlnMadE~b@i|DlrBoqCko@ybG~_HikElq@","polyline":"kie_Gqb{fD~YugCwpCcnCdp@aqCkpAH{tAmrEurBmzAxb@pJen@g}Af_@gaA}{Ey]am@dsAaxDwh@_C_qChfAkxAkv@sqBtv@_kAgMycCwfGgrJlCceBoc@pw@{d@yNSkhBwtBsiCeyDr_CkoHlnMadE~b@i|DlrBoqCko@ybG~_HikElq@","url":"/motorcycle-roads/turkey/turkey/ride/99-malko-tarnovo-to-sozopol"},{"slat":"36.7889","slon":"31.465","elat":"38.6293","elon":"34.9287","road_type_name":"Rural","road_type_id":"1","length":"472","title":"Manavgat Kapadokia","rating":"5","comments_count":"1","is_long":"1","simplified_polyline":"}ip_Fio`_Ed_A~QluBahIl{EecFw\\ofJmiCcwActAqjC_PkqD{tBwrDi\\ayBhl@{iBaqAsvDs}A`b@avDsrDuhBleBubFvfB_fDal@oiJp`Eeq@yGwnA}|CqaBbmAwqD_f@cpAncAgCgk@ma@|Se[acAazB_v@slBlaA{pAmzBf@ayEel@koEmtAu}A`XseAyiEi{E}k@ilDkeIt~Bc|B}x@kwAlQaxCrsCi~HvrCrCygAkbBiBe~FrdC_nDaqAupDpdB_oDgmAygL}`@ehGurBkxBwtCqbEgzBwtCu_DjGerBciHqvKg_FumBmd@ufAd^gtMebCyzReOiuRaeGofD_cDohKwsCm|DoaDabAu|JuvK}qDwo]yvK_~h@g{BerX{~MczUwrFmgX}dMul^aGgeTsmOm{eAi{DsfMuyBd}@{aAk~AydEkfQumCyzDqlA_kJajHi{VekJey`AyuK{mH`U_xInjCqgKacDstIdc@mtI","polyline":"}ip_Fio`_Ed_A~QluBahIl{EecFw\\ofJmiCcwActAqjC_PkqD{tBwrDi\\ayBhl@{iBaqAsvDs}A`b@avDsrDuhBleBubFvfB_fDal@oiJp`Eeq@yGwnA}|CqaBbmAwqD_f@cpAncAgCgk@ma@|Se[acAazB_v@slBlaA{pAmzBf@ayEel@koEmtAu}A`XseAyiEi{E}k@ilDkeIt~Bc|B}x@kwAlQaxCrsCi~HvrCrCygAkbBiBe~FrdC_nDaqAupDpdB_oDgmAygL}`@ehGurBkxBwtCqbEgzBwtCu_DjGerBciHqvKg_FumBmd@ufAd^gtMebCyzReOiuRaeGofD_cDohKwsCm|DoaDabAu|JuvK}qDwo]yvK_~h@g{BerX{~MczUwrFmgX}dMul^aGgeTsmOm{eAi{DsfMuyBd}@{aAk~AydEkfQumCyzDqlA_kJajHi{VekJey`AyuK{mH`U_xInjCqgKacDstIdc@mtI","url":"/motorcycle-roads/turkey/turkey/ride/manavgat-kapadokia"},{"slat":"36.7884","slon":"31.4652","elat":"36.2276","elon":"29.9947","road_type_name":"Rural","road_type_id":"1","length":"218","title":"ilk gezim","rating":"5","comments_count":"1","is_long":"1","simplified_polyline":"iep_Fwn`_E|mAllBor@nxDwlBxnB}jHfpTmtBn|CenCv|A}Lv`EcuBb`Ij@|tLw_Fvzp@rdHbgN_nAnfGbxAtkRbtAvgAlsKdjB`tCvcCviGjXp|B|tArpHy`BvnExcEdxCwcBxrEtqAdyAkxAfhF`NvsAhuCjnBj~@bP|uBlwFtwLtdD{V~iEdfAz~Dj|FaE|`Af{Du\\gtCzfGrs@rnF|\\lcAvsFx}@j^xaO~{A~mG~`DmSyXrjAraBpqBh|Al[kOdcEowChvDlz@`zAfnBv[v_CvdG","polyline":"iep_Fwn`_E|mAllBor@nxDwlBxnB}jHfpTmtBn|CenCv|A}Lv`EcuBb`Ij@|tLw_Fvzp@rdHbgN_nAnfGbxAtkRbtAvgAlsKdjB`tCvcCviGjXp|B|tArpHy`BvnExcEdxCwcBxrEtqAdyAkxAfhF`NvsAhuCjnBj~@bP|uBlwFtwLtdD{V~iEdfAz~Dj|FaE|`Af{Du\\gtCzfGrs@rnF|\\lcAvsFx}@j^xaO~{A~mG~`DmSyXrjAraBpqBh|Al[kOdcEowChvDlz@`zAfnBv[v_CvdG","url":"/motorcycle-roads/turkey/turkey/ride/ilk-gezim"},{"slat":"36.7889","slon":"31.4651","elat":"40.146","elon":"26.4323","road_type_name":"Rural","road_type_id":"1","length":"761","title":"Çanakkale","rating":"5","comments_count":"1","is_long":"1","simplified_polyline":"yip_Fgo`_Eb|@vu@cRbaEovIhxT}nI~nK_uB~lPwmF~a}@r`HzdO}eA|cHhFnvEa}F|rGccCp~H{pGnfJ~JrwGcmC`lGbErrGz}AlfCfuApf@mdAdtGrnBfpCqc@zoDokFhnCar@fdJnM|vFdgArjEyT~{IveArgMp{CjoJijHf~M|gDr}CtMdzAo_B~{BskErf@{iDphDu}AtpH{xAxuBo{Cnq@czGriJ{vFdzCkoNzrNcvDntBiaJxyVqzEndE_fZhxMmjF~IebAphIohFqdA}sDdvBelLeN{vCb|AuqBxqBgzCnyNkpEbiF_xAdzDfVz{AgyFfpNcvE|lBagEgxDatE|eCk`EzbK{iFjn@cqDzcFodIhsW{qDvlDgrI_U_gFtoKseMngJ{`@dkD}zT~ui@miFv~VewKpd`@ch@llFqnB|gCemDbgB{{Cac@suAmpAqqGzxDmdMhjB}|ProKeb@lwBecD|~CsuDknAg}DdgN_}Hy}BiiIpoEsqP`oDk`En_C{zDj{K{fBffBuxBj[skMs`GoaV_nAazEy_CgqC}~CapDl`@kjBkgCepMmz@}j@m}AsSffE`gCtu\\_tA|x@gzDnLg{Bu~BggJseEqx@xQugDlcRlQroA_}AtkDfm@~|EuxDnwFcyFttAosF_sC{uB~cCseDkJeJl|UcgD~mDwa@veJcbFd|RfmAjhEuHhnD_iDthWsz@hiNjb@hcFkuCx_LwhAjrS_z@~hDasBliB_tDc^}aAboAcsAjbGwPzyH","polyline":"yip_Fgo`_Eb|@vu@cRbaEovIhxT}nI~nK_uB~lPwmF~a}@r`HzdO}eA|cHhFnvEa}F|rGccCp~H{pGnfJ~JrwGcmC`lGbErrGz}AlfCfuApf@mdAdtGrnBfpCqc@zoDokFhnCar@fdJnM|vFdgArjEyT~{IveArgMp{CjoJijHf~M|gDr}CtMdzAo_B~{BskErf@{iDphDu}AtpH{xAxuBo{Cnq@czGriJ{vFdzCkoNzrNcvDntBiaJxyVqzEndE_fZhxMmjF~IebAphIohFqdA}sDdvBelLeN{vCb|AuqBxqBgzCnyNkpEbiF_xAdzDfVz{AgyFfpNcvE|lBagEgxDatE|eCk`EzbK{iFjn@cqDzcFodIhsW{qDvlDgrI_U_gFtoKseMngJ{`@dkD}zT~ui@miFv~VewKpd`@ch@llFqnB|gCemDbgB{{Cac@suAmpAqqGzxDmdMhjB}|ProKeb@lwBecD|~CsuDknAg}DdgN_}Hy}BiiIpoEsqP`oDk`En_C{zDj{K{fBffBuxBj[skMs`GoaV_nAazEy_CgqC}~CapDl`@kjBkgCepMmz@}j@m}AsSffE`gCtu\\_tA|x@gzDnLg{Bu~BggJseEqx@xQugDlcRlQroA_}AtkDfm@~|EuxDnwFcyFttAosF_sC{uB~cCseDkJeJl|UcgD~mDwa@veJcbFd|RfmAjhEuHhnD_iDthWsz@hiNjb@hcFkuCx_LwhAjrS_z@~hDasBliB_tDc^}aAboAcsAjbGwPzyH","url":"/motorcycle-roads/turkey/turkey/ride/canakkale"},{"slat":"36.6249","slon":"29.3709","elat":"36.6402","elon":"29.3959","road_type_name":"Mountainous","road_type_id":"4","length":"177","title":"Elmali Loop","rating":"4","comments_count":"1","is_long":"0","simplified_polyline":"kip~EwngrD|qMkrCt`EorHpj@pt@bnFseClq@pr@rb@o_DtaCwnB{bAm}AptAw}@uaAkqAluAkf@oe@imBxuAo_C}p@y~CgsDcnFwuFucCspCetDwb@vuAi|@}\\ucAv{@}x@yuFk~AiiCqlD{{Bi|DgkHc_C_pK}lChIgmHk_HaWzbFwbB|eDybCbyCigDfzAasBn@kzAjgBdXjrDmdBc@af@j{@tYlbB|lE~xFsr@rhAlaB`fEmzChhQb{BlwIjhBre@vr@njD`tGhmCfZ{l@~o@d]jeB|pFvwCaf@tpDluBpzApF","polyline":"kip~EwngrD|qMkrCt`EorHpj@pt@bnFseClq@pr@rb@o_DtaCwnB{bAm}AptAw}@uaAkqAluAkf@oe@imBxuAo_C}p@y~CgsDcnFwuFucCspCetDwb@vuAi|@}\\ucAv{@}x@yuFk~AiiCqlD{{Bi|DgkHc_C_pK}lChIgmHk_HaWzbFwbB|eDybCbyCigDfzAasBn@kzAjgBdXjrDmdBc@af@j{@tYlbB|lE~xFsr@rhAlaB`fEmzChhQb{BlwIjhBre@vr@njD`tGhmCfZ{l@~o@d]jeB|pFvwCaf@tpDluBpzApF","url":"/motorcycle-roads/turkey/turkey/ride/elmali-loop"},{"slat":"41.1352","slon":"29.856","elat":"41.1232","elon":"29.4799","road_type_name":"Urban","road_type_id":"3","length":"62","title":"Ulupelit-Darl?k-Teke-Hac?l?","rating":"5","comments_count":"2","is_long":"0","simplified_polyline":"yeazFgffuD~hDjvB`ItzBzbAvkAkWvlCzzAm@~yA`hCd{DcgAcsClwAuf@rsCycCdi@djCvlKxaA`O|z@teEzwAlw@{b@r_@nRrzDsiAv`EeoCv_AcHniDigCNivD|oArCntC","polyline":"yeazFgffuD~hDjvB`ItzBzbAvkAkWvlCzzAm@~yA`hCd{DcgAcsClwAuf@rsCycCdi@djCvlKxaA`O|z@teEzwAlw@{b@r_@nRrzDsiAv`EeoCv_AcHniDigCNivD|oArCntC","url":"/motorcycle-roads/turkey/turkey/ride/ulupelit-darlik-teke-hacili"},{"slat":"40.8113","slon":"30.3811","elat":"41.1142","elon":"29.3827","road_type_name":"Rural","road_type_id":"1","length":"153","title":"The Best Istanbul Asia Part Route","rating":"4.5","comments_count":"2","is_long":"0","simplified_polyline":"e~axFoxlxDiLz|BeyCdgB}_AhqCyS|tBhtBj|DafCxoJquA`yAwfAmPk|@vo@ocBwk@qx@reAlg@bvFg`A~xBogAh[_I~{CeeIct@sbGfl@y~@im@swAaeGcrA_[wh@`w@tVdeAmoAv~D`mE|gQboAhu@|FfgAq`AheAfb@buDep@rf@gaBgb@}SxcCssB~q@uc@hjB{tFxcHd~A`aAvg@dqD~}@hp@qd@l}Brl@xnIxcDnwLgnF`jH{cB`Cg_@ftAyyC|r@s_BnyEmWd`InwDxkC|r@jxGntBt^fnAniC~Rv|AcxAbdB","polyline":"e~axFoxlxDiLz|BeyCdgB}_AhqCyS|tBhtBj|DafCxoJquA`yAwfAmPk|@vo@ocBwk@qx@reAlg@bvFg`A~xBogAh[_I~{CeeIct@sbGfl@y~@im@swAaeGcrA_[wh@`w@tVdeAmoAv~D`mE|gQboAhu@|FfgAq`AheAfb@buDep@rf@gaBgb@}SxcCssB~q@uc@hjB{tFxcHd~A`aAvg@dqD~}@hp@qd@l}Brl@xnIxcDnwLgnF`jH{cB`Cg_@ftAyyC|r@s_BnyEmWd`InwDxkC|r@jxGntBt^fnAniC~Rv|AcxAbdB","url":"/motorcycle-roads/turkey/turkey/ride/the-best-istanbul-asia-part-route"},{"slat":"38.2735","slon":"26.4136","elat":"36.6494","elon":"29.1258","road_type_name":"Coastal","road_type_id":"2","length":"457","title":"Alaçat? Ahmetbeyli Selçuk Söke Ören Akyaka Göcek Ferhiye","rating":"4","comments_count":"1","is_long":"1","simplified_polyline":"aarhFswe`Def@txD__AgLjnA`M~zAirLcl@u~BzRmhFq}A_aGz\\uqIyqCybFxo@seMkaEsxOudH_gM_G{uHigBwrCyn@qpDmIswOjqFmpCx`BclH`uE_x@bzJbmB`t@o_AruD}YdeByrDj~HbqBvdFyw@boCu_EnsAgf@tqM~n@fTqwIzqFqvIfYqsLzoBrh@|_Gid@rv@wiJ{_BwfI`jAmgDzeGukDbaBvaGz}F`iDznBxaGx{Bdj@rpD~pD~`i@vyHjwC_Uv_@ycBwiAizFhjAgaDuOitJ~jCqhCh\\_{DjdDyyDfSkrI~pAahEhyGk`FxhDytNpcBmnCtuD`x@zrBiaCj{CuUphBcfBvnGm_BzxBivBvq@klDx}D{VbaDkhDxiL|_AuoAytHyoAmfBxQ{nF~p@sg@dv@l^w}@uxLnoA{rEl\\crGcaAe~Fme@_jPcnA_xFhsGg}Wle@{{Ec^ayEjjEsoM_dAg{HppEq}MtbFyxA|xDaBncJmxDjeDi}F`xFaaFt|@ybCmQybMj[m`BdaB}QzW_y@wg@unHfaE}{@btFoxRt`Dz]","polyline":"aarhFswe`Def@txD__AgLjnA`M~zAirLcl@u~BzRmhFq}A_aGz\\uqIyqCybFxo@seMkaEsxOudH_gM_G{uHigBwrCyn@qpDmIswOjqFmpCx`BclH`uE_x@bzJbmB`t@o_AruD}YdeByrDj~HbqBvdFyw@boCu_EnsAgf@tqM~n@fTqwIzqFqvIfYqsLzoBrh@|_Gid@rv@wiJ{_BwfI`jAmgDzeGukDbaBvaGz}F`iDznBxaGx{Bdj@rpD~pD~`i@vyHjwC_Uv_@ycBwiAizFhjAgaDuOitJ~jCqhCh\\_{DjdDyyDfSkrI~pAahEhyGk`FxhDytNpcBmnCtuD`x@zrBiaCj{CuUphBcfBvnGm_BzxBivBvq@klDx}D{VbaDkhDxiL|_AuoAytHyoAmfBxQ{nF~p@sg@dv@l^w}@uxLnoA{rEl\\crGcaAe~Fme@_jPcnA_xFhsGg}Wle@{{Ec^ayEjjEsoM_dAg{HppEq}MtbFyxA|xDaBncJmxDjeDi}F`xFaaFt|@ybCmQybMj[m`BdaB}QzW_y@wg@unHfaE}{@btFoxRt`Dz]","url":"/motorcycle-roads/turkey/turkey/ride/alacati-ahmetbeyli-selcuk-soke-oren-akyaka-gocek-ferhiye"},{"slat":"37.7639","slon":"30.5555","elat":"37.7657","elon":"30.5568","road_type_name":"Rural","road_type_id":"1","length":"174","title":"yeni rota","rating":"5","comments_count":"1","is_long":"0","simplified_polyline":"kwneFsznyD_uRytM_v@m{L}eD{jE_gASfl@e{Des@koBekDdeAufC{BqtGohD{nArmB`pA}kBieL_dIaiIprBsDhlFw{@naChv@hjDeoKhmEntF`xIrhAryGfiKzjXnArcHhhBzqC`k@xbEu\\h`B~jBvHreBjoAvXblDtoB~oBnyDpjA|uJanAneAiwCb~AebQgkEujGeLijBpgK_xFlpKysBfwAcrChzAdr@","polyline":"kwneFsznyD_uRytM_v@m{L}eD{jE_gASfl@e{Des@koBekDdeAufC{BqtGohD{nArmB`pA}kBieL_dIaiIprBsDhlFw{@naChv@hjDeoKhmEntF`xIrhAryGfiKzjXnArcHhhBzqC`k@xbEu\\h`B~jBvHreBjoAvXblDtoB~oBnyDpjA|uJanAneAiwCb~AebQgkEujGeLijBpgK_xFlpKysBfwAcrChzAdr@","url":"/motorcycle-roads/turkey/turkey/ride/yeni-rota"},{"slat":"40.0265","slon":"30.5774","elat":"39.7909","elon":"30.5315","road_type_name":"Mountainous","road_type_id":"4","length":"52","title":"Mihalgazi - Da?küplü - Eski?ehir","rating":"5","comments_count":"1","is_long":"0","simplified_polyline":"ushsFycsyD}dAwoA|`@spGa~@{j@AwlBzZ}[~gAjeApoGktE|Spk@`}As_@u]t^v|Bbk@faFpkGxwDCbxAeaAtbBzq@fz@pfLnnCbsCvwD`u@","polyline":"ushsFycsyD}dAwoA|`@spGa~@{j@AwlBzZ}[~gAjeApoGktE|Spk@`}As_@u]t^v|Bbk@faFpkGxwDCbxAeaAtbBzq@fz@pfLnnCbsCvwD`u@","url":"/motorcycle-roads/turkey/turkey/ride/mihalgazi-dagkuplu-eskisehir"},{"slat":"39.7713","slon":"30.518","elat":"40.1889","elon":"31.3481","road_type_name":"Mountainous","road_type_id":"4","length":"120","title":"Eskisehir - Nall?han road","rating":"5","comments_count":"1","is_long":"0","simplified_polyline":"yyvqF{ogyDt@ck@cvHw_BkmCwsCel@cuK{s@qn@qmIrm@{gFcpGytBie@`a@u\\{iBt[qH}i@arGvtE_s@q_@sdC{fMfJgxCm|Bw_Cl]c~EmeCc|Ej\\woFnpC_tEsk@_uHieCusBccA{}FsGgxLs_DoaBagFmbOnGemReh@ik@`B_rEylBubA","polyline":"yyvqF{ogyDt@ck@cvHw_BkmCwsCel@cuK{s@qn@qmIrm@{gFcpGytBie@`a@u\\{iBt[qH}i@arGvtE_s@q_@sdC{fMfJgxCm|Bw_Cl]c~EmeCc|Ej\\woFnpC_tEsk@_uHieCusBccA{}FsGgxLs_DoaBagFmbOnGemReh@ik@`B_rEylBubA","url":"/motorcycle-roads/turkey/turkey/ride/eskisehir-nallihan-road"},{"slat":"38.3178","slon":"26.6465","elat":"38.192","elon":"26.6112","road_type_name":"Rural","road_type_id":"1","length":"20","title":"Urla - Gok Liman","rating":"3","comments_count":"1","is_long":"0","simplified_polyline":"s}zhFcisaDxxEnwCd\\sp@fhDxIrj@rl@Y~|Br`Gin@bLcj@vv@vY","polyline":"s}zhFcisaDxxEnwCd\\sp@fhDxIrj@rl@Y~|Br`Gin@bLcj@vv@vY","url":"/motorcycle-roads/turkey/turkey/ride/urla-gok-liman"},{"slat":"40.7194","slon":"29.9425","elat":"39.8023","elon":"29.6156","road_type_name":"Rural","road_type_id":"1","length":"170","title":"Izmit - Domanic","rating":"4","comments_count":"1","is_long":"0","simplified_polyline":"}_pwFucwuDhwGqwCl_Ap`AndBkCnbApbCzd@k{BdlEzuAjdB{kAltCv~Fbu@zIdC|aFlyA`~@xvDkfEttD|BliAwoBnh@bRxuAerBxhAFloB``UzoB_e@rk@lm@pgAgdA`xBls@xjAm|@xfB|c@r{@buChbG~tAprAtdYddCtjAtyE{zAvtKsjAxxCwaBzsErxLrf@nQ|UqdAx_CdoAiZpfCxrNa`EzuC{|Ez`CtN~hDcaAxiDhl@d{Aee@rZlmDtmAy_AfxC~Pzd@|yAtvA`i@","polyline":"}_pwFucwuDhwGqwCl_Ap`AndBkCnbApbCzd@k{BdlEzuAjdB{kAltCv~Fbu@zIdC|aFlyA`~@xvDkfEttD|BliAwoBnh@bRxuAerBxhAFloB``UzoB_e@rk@lm@pgAgdA`xBls@xjAm|@xfB|c@r{@buChbG~tAprAtdYddCtjAtyE{zAvtKsjAxxCwaBzsErxLrf@nQ|UqdAx_CdoAiZpfCxrNa`EzuC{|Ez`CtN~hDcaAxiDhl@d{Aee@rZlmDtmAy_AfxC~Pzd@|yAtvA`i@","url":"/motorcycle-roads/turkey/turkey/ride/izmit-domanic"},{"slat":"41.1806","slon":"41.8362","elat":"41.2252","elon":"42.4675","road_type_name":"Rural","road_type_id":"1","length":"85","title":"Artvin - ?av?at","rating":"5","comments_count":"1","is_long":"0","simplified_polyline":"majzF{bj~FmOwyBkKtc@{lAg{@nq@fJa^atC|yB~VzG}{BjxAehAt{@dNbBinBmfBqnHe{DcjC{sAw{G_aBcdBkd@utEy`DszHyi@usH}~BmeG|}CqlMrt@sdIbfDieCuEaw@su@iBx\\{W_cAedEjdA_lAg`@xMnx@e`B}IieB","polyline":"majzF{bj~FmOwyBkKtc@{lAg{@nq@fJa^atC|yB~VzG}{BjxAehAt{@dNbBinBmfBqnHe{DcjC{sAw{G_aBcdBkd@utEy`DszHyi@usH}~BmeG|}CqlMrt@sdIbfDieCuEaw@su@iBx\\{W_cAedEjdA_lAg`@xMnx@e`B}IieB","url":"/motorcycle-roads/turkey/turkey/ride/artvin-savsat"},{"slat":"36.602","slon":"34.2915","elat":"37.3341","elon":"33.7196","road_type_name":"Rural","road_type_id":"1","length":"123","title":"Erdemli - Ayranc?","rating":"4","comments_count":"1","is_long":"0","simplified_polyline":"sxk~EiqhpEk~@lzBbl@rd@qiBzsCqr@p`F{{B~rBi_DmT{nBhcD_{AuM}iCpcAw`DraEa_Lf`AwcDgwAydBnlBqdC}Vc_JpuDk|NwRyyC`mJbQl_Ewv@pt@vh@drEosAvzIsr@x`@d[~`DipC~`IomD`_Fe_KdqH_jAwXksD|xAglC_bAspLjtBwjCaX","polyline":"sxk~EiqhpEk~@lzBbl@rd@qiBzsCqr@p`F{{B~rBi_DmT{nBhcD_{AuM}iCpcAw`DraEa_Lf`AwcDgwAydBnlBqdC}Vc_JpuDk|NwRyyC`mJbQl_Ewv@pt@vh@drEosAvzIsr@x`@d[~`DipC~`IomD`_Fe_KdqH_jAwXksD|xAglC_bAspLjtBwjCaX","url":"/motorcycle-roads/turkey/turkey/ride/erdemli-ayranci"},{"slat":"36.1756","slon":"32.4427","elat":"36.6416","elon":"32.0567","road_type_name":"Cruiser","road_type_id":"8","length":"640","title":"Karamanast?r - Sapadere - Gedevet","rating":"4","comments_count":"1","is_long":"1","simplified_polyline":"onx{Egn_eEuoBhjCneDafDlaBra@bdAspDb|CsgEf@wbBxxA}\\nY__Dci@@c]ozA|zAk_I{r@_hAhiAaiC|uAjbAzb@qvAblAsYrmBeeIyc@}fBvvAqtIozAifArWehBomEkcEu{AyfDvo@y~Dgn@iiEceBi}CkfE_`@o`AvtAqdAgiAsj@dFdI|z@glB}kBaRvjAagE~{@_dBkaEwoB~lCunD_lDkz@{{DufBuc@csAj[w{EqhJwhCicAiAycAh_BucBtJgwGjy@a|CysAczCfj@yzIqo@e`DfuAavH`GavGbmB_cHmpB}qEheAcfDi]eoE~j@gmEypAw_Lnt@_pEnmBufCcaBg~DuEk~Iq`EmfAaqA_uEx_@iuNe`CvqBbDd{Bzk@vf@yo@`{CcfFpcFb|ArqT}tBhkB_b@vdBagAsLy}Ch`Du]kTajAx{Bax@lgIoeBpjChaA`eAow@tuDmmAh_@vMxqBqv@qV{hHbrDyiGqhBwmDzaD|Qt|Ir~@~ZbpCi~@b_D~]xKnaBleB|{AqHnsBnq@r}@mkBjzC{wAfl@_yAzuG`iA`Of{EcmB`n@`hDp}Bbk@sv@r}Ccg@WwcEzmImAliLwcBxtAmgA`_Eqz@lGvw@hRsYxgChcCnqA~r@f{D_e@|hCovAzV|vAaV|KqoAkObrAgsAdSsqBhnDogAlxHsmGfhHao@~|DjnCtZmIh`B~Hw`B_nCe[vcB{wF{eBrtGwtCpdAejErtMab@}a@}[xnBil@eXqhAfgAy]jjDte@r_@mdCno@elDhuDf|EwtEtzD}b@dSnw@rjBihBxeB`_Aze@}nArfChaAyeCgaAue@nnAwfBu~@qkBjhBkPiw@u~Dnc@c~CngCwvGhrM|_AorAaY~`Cn{CriElOnmHn}C{~@faBf^ltGidDz{CnGraAdvBnmEtBrkDt{G~xAzZtpC{fBlmAvuD`}AnWj|BffE|gBbLwe@t{Er`Bb~CG|mCbw@jRz|AeoAjtBruBfk@{eDwvAclAhcBtvByw@h{BytBsuBcaCpfAci@ejA~UgmAgz@kiAUxnK}j@tVeTrvCd_BtxBop@~aAdc@fa@wLleHxlAjwE_dA|qEcv@kp@epClz@kC}tAetD`zAkgB_UiRmm@ixAth@","polyline":"onx{Egn_eEuoBhjCneDafDlaBra@bdAspDb|CsgEf@wbBxxA}\\nY__Dci@@c]ozA|zAk_I{r@_hAhiAaiC|uAjbAzb@qvAblAsYrmBeeIyc@}fBvvAqtIozAifArWehBomEkcEu{AyfDvo@y~Dgn@iiEceBi}CkfE_`@o`AvtAqdAgiAsj@dFdI|z@glB}kBaRvjAagE~{@_dBkaEwoB~lCunD_lDkz@{{DufBuc@csAj[w{EqhJwhCicAiAycAh_BucBtJgwGjy@a|CysAczCfj@yzIqo@e`DfuAavH`GavGbmB_cHmpB}qEheAcfDi]eoE~j@gmEypAw_Lnt@_pEnmBufCcaBg~DuEk~Iq`EmfAaqA_uEx_@iuNe`CvqBbDd{Bzk@vf@yo@`{CcfFpcFb|ArqT}tBhkB_b@vdBagAsLy}Ch`Du]kTajAx{Bax@lgIoeBpjChaA`eAow@tuDmmAh_@vMxqBqv@qV{hHbrDyiGqhBwmDzaD|Qt|Ir~@~ZbpCi~@b_D~]xKnaBleB|{AqHnsBnq@r}@mkBjzC{wAfl@_yAzuG`iA`Of{EcmB`n@`hDp}Bbk@sv@r}Ccg@WwcEzmImAliLwcBxtAmgA`_Eqz@lGvw@hRsYxgChcCnqA~r@f{D_e@|hCovAzV|vAaV|KqoAkObrAgsAdSsqBhnDogAlxHsmGfhHao@~|DjnCtZmIh`B~Hw`B_nCe[vcB{wF{eBrtGwtCpdAejErtMab@}a@}[xnBil@eXqhAfgAy]jjDte@r_@mdCno@elDhuDf|EwtEtzD}b@dSnw@rjBihBxeB`_Aze@}nArfChaAyeCgaAue@nnAwfBu~@qkBjhBkPiw@u~Dnc@c~CngCwvGhrM|_AorAaY~`Cn{CriElOnmHn}C{~@faBf^ltGidDz{CnGraAdvBnmEtBrkDt{G~xAzZtpC{fBlmAvuD`}AnWj|BffE|gBbLwe@t{Er`Bb~CG|mCbw@jRz|AeoAjtBruBfk@{eDwvAclAhcBtvByw@h{BytBsuBcaCpfAci@ejA~UgmAgz@kiAUxnK}j@tVeTrvCd_BtxBop@~aAdc@fa@wLleHxlAjwE_dA|qEcv@kp@epClz@kC}tAetD`zAkgB_UiRmm@ixAth@","url":"/motorcycle-roads/turkey/turkey/ride/karamanastir-sapadere-gedevet"},{"slat":"40.6807","slon":"29.9637","elat":"40.6009","elon":"29.9448","road_type_name":"Mountainous","road_type_id":"4","length":"15","title":"Yuvacik Dam","rating":"4","comments_count":"1","is_long":"0","simplified_polyline":"{lhwF{e{uDdjExe@pbApbCpe@q{Bj{DzfA","polyline":"{lhwF{e{uDdjExe@pbApbCpe@q{Bj{DzfA","url":"/motorcycle-roads/turkey/turkey/ride/yuvacik-dam"},{"slat":"40.5319","slon":"30.0506","elat":"40.6475","elon":"30.0959","road_type_name":"Mountainous","road_type_id":"4","length":"28","title":"Cilekli - Kartepe","rating":"4","comments_count":"1","is_long":"0","simplified_polyline":"wlkvFqflvDjAquAefCw~@{gAqiCybBgj@wmDxv@idCxyF}}AgW{r@j`Apd@kyBcz@ecBf{@klA","polyline":"wlkvFqflvDjAquAefCw~@{gAqiCybBgj@wmDxv@idCxyF}}AgW{r@j`Apd@kyBcz@ecBf{@klA","url":"/motorcycle-roads/turkey/turkey/ride/cilekli-kartepe"},{"slat":"40.194","slon":"29.0173","elat":"39.9994","elon":"29.4697","road_type_name":"Mountainous","road_type_id":"4","length":"136","title":"Uluda? Mountain and National Park","rating":"5","comments_count":"1","is_long":"0","simplified_polyline":"{jitFoibpDbqBvIk\\yz@zyE~o@~rDw|Dbj@cwDyl@wm@dw@sbCebAkvAbjAgQhMarBuc@{~Ay|@cYj|BgmA_|BxlApfAvf@{FreA{`Etc@haFaZiKntBamF~_Dnu@saAjjDaNsr@l|CnY|mAzsE}hCrOccBxhAhTkAylAht@nPhbAalAd{Bj[zD_z@xl@vP~IkcAnn@fC|eBwhM|sE}gC~hEh_Bnf@i]cvBu|DyLooKfd@upAeg@qxBtd@cmFeeC{tFsqGmyF","polyline":"{jitFoibpDbqBvIk\\yz@zyE~o@~rDw|Dbj@cwDyl@wm@dw@sbCebAkvAbjAgQhMarBuc@{~Ay|@cYj|BgmA_|BxlApfAvf@{FreA{`Etc@haFaZiKntBamF~_Dnu@saAjjDaNsr@l|CnY|mAzsE}hCrOccBxhAhTkAylAht@nPhbAalAd{Bj[zD_z@xl@vP~IkcAnn@fC|eBwhM|sE}gC~hEh_Bnf@i]cvBu|DyLooKfd@upAeg@qxBtd@cmFeeC{tFsqGmyF","url":"/motorcycle-roads/turkey/turkey/ride/uludag-mountain-and-national-park"},{"slat":"41.7378","slon":"27.6408","elat":"41.8763","elon":"27.983","road_type_name":"Cruiser","road_type_id":"8","length":"47","title":"Yenice - Igneada","rating":"5","comments_count":"1","is_long":"0","simplified_polyline":"i{v}FgpugDsoBktGkcBuAksCaaIweDw{AoNqwCqgBemDerBuy@qbAp_@e`@qw@r|Aa|GaFoyBsnBmn@vs@_iF_f@cvAfHmcG","polyline":"i{v}FgpugDsoBktGkcBuAksCaaIweDw{AoNqwCqgBemDerBuy@qbAp_@e`@qw@r|Aa|GaFoyBsnBmn@vs@_iF_f@cvAfHmcG","url":"/motorcycle-roads/turkey/turkey/ride/yenice-igneada-road-very-fast-curves-and-good-tarmac-one-of-the-best-motorcycle-roads-of-ist"},{"slat":"41.7406","slon":"32.3882","elat":"42.0891","elon":"34.9581","road_type_name":"Coastal","road_type_id":"2","length":"317","title":"Amasra - Sinop coastal road","rating":"4.67","comments_count":"3","is_long":"1","simplified_polyline":"erw}FaztdEje@_gAmGy~F}eCghDmnArg@}qAurOkoA_xEgnCyjBen@}wChHsaLkO}c@yYlg@yQe{Buz@_n@lDubIcvAuuA\\g`Oot@k{@y|@ajKguC}iIlCy}Aig@zjAc|@iuGkt@vOlLsaBix@}|@|j@s{Dw`C}eDqMuzAtw@yIcqAwyBzXeqC}yAsDeh@wuCdu@ou@weBuPbGysBydEi~Kgx@goF|f@wrDq_@syAfx@}|Bo`@s]tn@u}@_f@{uCtp@gkKhi@{C{f@}jA|dAm~Aym@iUfSwjBhw@jEg`@{eAfwA{uXla@ewk@}u@{_HUu}M~VeuEjrAo}Csp@mlBt_AkqAm`@gcCp~CgtZcfAi}Oh{B}uDvqAvCbl@yy@djC{{LhbA_sAcBohAc_@xHz{@khDmlCgyEsa@vd@snGazBnl@qvMeg@_kC`f@g~DydAyqG|TowDwn@_]}b@_uEyz@mRjFykCqdDwrDi_CcwOcuCakGoxHnwJ","polyline":"erw}FaztdEje@_gAmGy~F}eCghDmnArg@}qAurOkoA_xEgnCyjBen@}wChHsaLkO}c@yYlg@yQe{Buz@_n@lDubIcvAuuA\\g`Oot@k{@y|@ajKguC}iIlCy}Aig@zjAc|@iuGkt@vOlLsaBix@}|@|j@s{Dw`C}eDqMuzAtw@yIcqAwyBzXeqC}yAsDeh@wuCdu@ou@weBuPbGysBydEi~Kgx@goF|f@wrDq_@syAfx@}|Bo`@s]tn@u}@_f@{uCtp@gkKhi@{C{f@}jA|dAm~Aym@iUfSwjBhw@jEg`@{eAfwA{uXla@ewk@}u@{_HUu}M~VeuEjrAo}Csp@mlBt_AkqAm`@gcCp~CgtZcfAi}Oh{B}uDvqAvCbl@yy@djC{{LhbA_sAcBohAc_@xHz{@khDmlCgyEsa@vd@snGazBnl@qvMeg@_kC`f@g~DydAyqG|TowDwn@_]}b@_uEyz@mRjFykCqdDwrDi_CcwOcuCakGoxHnwJ","url":"/motorcycle-roads/turkey/turkey/ride/amasra-sinop-coastal-road-amazing-scenic-road"},{"slat":"40.7828","slon":"31.635","elat":"41.1684","elon":"31.9066","road_type_name":"Mountainous","road_type_id":"4","length":"84","title":"Yedigoller national park road","rating":"5","comments_count":"2","is_long":"0","simplified_polyline":"si|wFiga`EamHcsD{zBxg@zCaeCuZrY__CupBmdDtaCw{D}sH|RwcEqu@n|@o}@imAwsBboB_pB_LypC{iG_g@ogGccAwe@mr@svJqhDgeAoTtv@{Quw@wL~dAqw@k]pKziBogA`kAakCshCwlAbPc`@cgAwuBb`AomC{cC","polyline":"si|wFiga`EamHcsD{zBxg@zCaeCuZrY__CupBmdDtaCw{D}sH|RwcEqu@n|@o}@imAwsBboB_pB_LypC{iG_g@ogGccAwe@mr@svJqhDgeAoTtv@{Quw@wL~dAqw@k]pKziBogA`kAakCshCwlAbPc`@cgAwuBb`AomC{cC","url":"/motorcycle-roads/turkey/turkey/ride/yedigoller-national-park-road-it-s-fantastic"},{"slat":"41.1917","slon":"32.6067","elat":"41.2027","elon":"31.9499","road_type_name":"Mountainous","road_type_id":"4","length":"79","title":"Karabuk - Yenice road","rating":"4","comments_count":"2","is_long":"0","simplified_polyline":"ehlzFym_fEdt@j|BniB~v@bxA|rGccBlaE|aA|aFyf@fqAqcCpi@ktBvmDfi@poD_hAbnDh_A`rCyTfdCw{AplAdHvdMmrAl}AqT|mFmeDlmCyuCuYfXtvAajAdv@qjAxnErcCbsC|oGv|RhlBt}CtnBfN","polyline":"ehlzFym_fEdt@j|BniB~v@bxA|rGccBlaE|aA|aFyf@fqAqcCpi@ktBvmDfi@poD_hAbnDh_A`rCyTfdCw{AplAdHvdMmrAl}AqT|mFmeDlmCyuCuYfXtvAajAdv@qjAxnErcCbsC|oGv|RhlBt}CtnBfN","url":"/motorcycle-roads/turkey/turkey/ride/karabuk-yenice-road-very-scenic-road-good-tarmac-nice-tunnels-very-very-fun-indeed"},{"slat":"39.2142","slon":"27.2795","elat":"39.5747","elon":"27.4822","road_type_name":"Mountainous","road_type_id":"4","length":"60","title":"Bergama - ivrindi road... very nice scenery... mountainous road...","rating":"5","comments_count":"2","is_long":"0","simplified_polyline":"q`jnFo~neDc|CssA}t@nk@lYskBs~Ak~@aa@obB_fGiaCigDodEq}C_rAkjCaxDwfAsE`O`e@gtEx~CqsFx|@cp@dfBwiDufA}n@_mCwwDuqEuAyjB}|A}qD_oBp]o`@qd@","polyline":"q`jnFo~neDc|CssA}t@nk@lYskBs~Ak~@aa@obB_fGiaCigDodEq}C_rAkjCaxDwfAsE`O`e@gtEx~CqsFx|@cp@dfBwiDufA}n@_mCwwDuqEuAyjB}|A}qD_oBp]o`@qd@","url":"/motorcycle-roads/turkey/turkey/ride/bergama-ivrindi-road-very-nice-scenery-mountainous-road"},{"slat":"40.9857","slon":"35.6416","elat":"41.4657","elon":"34.804","road_type_name":"Mountainous","road_type_id":"4","length":"119","title":"Havza - Vezirköprü","rating":"5","comments_count":"1","is_long":"0","simplified_polyline":"c_dyFofpxEkiC~yIseDlxCxIvtAyrCrwF}~Dj|AosAmp@m|Aj_@sxF~`FoiBjyEng@boLq{AvnGzHtdB{~CxVs|B~oBk|AbnDxd@fmAcV~kBg}A}vAs{@znH__Gyr@weCpoHkcMxnCtlBf_Cm~Bm`@khAvsCp@`oDgp@jFsMttBf|@`eFywE`_M{|Bx`V","polyline":"c_dyFofpxEkiC~yIseDlxCxIvtAyrCrwF}~Dj|AosAmp@m|Aj_@sxF~`FoiBjyEng@boLq{AvnGzHtdB{~CxVs|B~oBk|AbnDxd@fmAcV~kBg}A}vAs{@znH__Gyr@weCpoHkcMxnCtlBf_Cm~Bm`@khAvsCp@`oDgp@jFsMttBf|@`eFywE`_M{|Bx`V","url":"/motorcycle-roads/turkey/turkey/ride/havza-vezirkopru"},{"slat":"38.6682","slon":"35.5086","elat":"37.481","elon":"35.8305","road_type_name":"Rural","road_type_id":"1","length":"215","title":"Kayseri - Kozan","rating":"4","comments_count":"1","is_long":"1","simplified_polyline":"oi_kFqlvwEnmBar@dxEvXvKob@x~Dj~AdnHmwCfvIxtB``Co`A|kAz\\de@hrBrbEnc@~Fc}AleBcsAx_KeoQjw@aaIlmFwrFpdCcvH~oDglBvhBwmC|KymGhjAegA_|@k}AfTavCvuBirArWebDjyAiQgpEohIlLkwAg_A_l@cEqyArbAgvFloE{cD|o@a}CxpD_fCzYy~C~y@{p@`bCoG`~Azr@zlCdkBtjBf}DxaCvqAk@gk@dcHlfCtiMni@|wEreAt[tyDuzAzlGtqFruHjdBn{@p_BfzDbeCwNlx@bcA`yKfu@hbE|nAre@tmArxFbpAttIre@|pBl{@p~EiZdo@~_@xaA{v@d~Crx@","polyline":"oi_kFqlvwEnmBar@dxEvXvKob@x~Dj~AdnHmwCfvIxtB``Co`A|kAz\\de@hrBrbEnc@~Fc}AleBcsAx_KeoQjw@aaIlmFwrFpdCcvH~oDglBvhBwmC|KymGhjAegA_|@k}AfTavCvuBirArWebDjyAiQgpEohIlLkwAg_A_l@cEqyArbAgvFloE{cD|o@a}CxpD_fCzYy~C~y@{p@`bCoG`~Azr@zlCdkBtjBf}DxaCvqAk@gk@dcHlfCtiMni@|wEreAt[tyDuzAzlGtqFruHjdBn{@p_BfzDbeCwNlx@bcA`yKfu@hbE|nAre@tmArxFbpAttIre@|pBl{@p~EiZdo@~_@xaA{v@d~Crx@","url":"/motorcycle-roads/turkey/turkey/ride/kayseri-kozan"},{"slat":"37.034","slon":"28.1222","elat":"36.9093","elon":"28.7828","road_type_name":"Coastal","road_type_id":"2","length":"401","title":"best of eastwest Turkey","rating":"5","comments_count":"1","is_long":"1","simplified_polyline":"mh`aF_ssjD|VmfFsmDa_e@iiFe{B~tB`rAhu@iRdH~y@tGmv@za@ncD~eAwhCt`Fvy@aNn|A|bCpeFbkCpmApbDlM`_DzrFtgDxsB`kEzVt~DvzDk^~tGrtDxwCvHfwDhmClbLyGx`Cjo@~n@gZhcNxoCzbB}vC`nMl{AvjFtWn{Pnu@rgFpyCgmCmyCllCsu@yfFuWo{Pm{AwjF|vCanMuqCsjBj]yuMsp@wt@g~@iaLfCdqBk~@iu@}bApc@etC_mDms@hFoYmvEltBwqCbfDr`Ab|@sfA`v@vgBhiARls@{hAdnA`d@cw@xpAxtAcCto@ebDnx@cLbo@th@m\\`bDvz@ae@zkBthDl[gP`MfeCx_AbdAxx@kNiE}eCzkAqyBeh@xDsjCucDe{BeuHagAtkF{bBgNgZvaCmkBlo@lt@asAumAgb@at@vhAk}@h@a`AqiBmf@jz@ojAxFwhCa}Atc@amGctBoqBrBuaBa}A_`AzWibDkp@myAbjCsqAvv@mrBoj@soCxe@_eBqQw_Ea{BwRd[qlAi_Dg`Dkv@ceGbyAygB~n@g~Kda@rr@ll@crAeDzt@npBqaA{iChv@ibA{fE|HroAg`DakC_SwyAikAhEaYobBvm@{]g}@ik@seE`{AwtA}nN{a@a@jWsaFxiCiuAmbCnx@dzB{_I`LitDbtBdNpbA~zC","polyline":"mh`aF_ssjD|VmfFsmDa_e@iiFe{B~tB`rAhu@iRdH~y@tGmv@za@ncD~eAwhCt`Fvy@aNn|A|bCpeFbkCpmApbDlM`_DzrFtgDxsB`kEzVt~DvzDk^~tGrtDxwCvHfwDhmClbLyGx`Cjo@~n@gZhcNxoCzbB}vC`nMl{AvjFtWn{Pnu@rgFpyCgmCmyCllCsu@yfFuWo{Pm{AwjF|vCanMuqCsjBj]yuMsp@wt@g~@iaLfCdqBk~@iu@}bApc@etC_mDms@hFoYmvEltBwqCbfDr`Ab|@sfA`v@vgBhiARls@{hAdnA`d@cw@xpAxtAcCto@ebDnx@cLbo@th@m\\`bDvz@ae@zkBthDl[gP`MfeCx_AbdAxx@kNiE}eCzkAqyBeh@xDsjCucDe{BeuHagAtkF{bBgNgZvaCmkBlo@lt@asAumAgb@at@vhAk}@h@a`AqiBmf@jz@ojAxFwhCa}Atc@amGctBoqBrBuaBa}A_`AzWibDkp@myAbjCsqAvv@mrBoj@soCxe@_eBqQw_Ea{BwRd[qlAi_Dg`Dkv@ceGbyAygB~n@g~Kda@rr@ll@crAeDzt@npBqaA{iChv@ibA{fE|HroAg`DakC_SwyAikAhEaYobBvm@{]g}@ik@seE`{AwtA}nN{a@a@jWsaFxiCiuAmbCnx@dzB{_I`LitDbtBdNpbA~zC","url":"/motorcycle-roads/turkey/turkey/ride/best-of-eastwest-turkey"},{"slat":"37.0035","slon":"29.8285","elat":"36.307","elon":"29.732","road_type_name":"Coastal","road_type_id":"2","length":"171","title":"southwest is the best","rating":"5","comments_count":"1","is_long":"0","simplified_polyline":"ifz`Fkl`uDnkDxoB~tBxrGhtDduCpZ`yFltDziChTjbEbxHdlJ~yEnsO|hBbg@tp@zhDbyGtpC`Xwm@dv@nb@l}ArjFlwC_e@hrDluBdyAnD`i@~_G|oAvTjcAyi@hlAds@heN~bA`zErxC|cC`gD`nBiI|_A`aCbtCcFx_CscJtfB`XdvDsiA|iHpc@pz@klCfmB{}Auu@}sBdz@kfB{PweA``DyuApfA|I`Y{tCdmBsgDWkbMrgA_gFek@umD~|@uhIwxAkj@goAwjDspDnK_nBy|B{zEulA","polyline":"ifz`Fkl`uDnkDxoB~tBxrGhtDduCpZ`yFltDziChTjbEbxHdlJ~yEnsO|hBbg@tp@zhDbyGtpC`Xwm@dv@nb@l}ArjFlwC_e@hrDluBdyAnD`i@~_G|oAvTjcAyi@hlAds@heN~bA`zErxC|cC`gD`nBiI|_A`aCbtCcFx_CscJtfB`XdvDsiA|iHpc@pz@klCfmB{}Auu@}sBdz@kfB{PweA``DyuApfA|I`Y{tCdmBsgDWkbMrgA_gFek@umD~|@uhIwxAkj@goAwjDspDnK_nBy|B{zEulA","url":"/motorcycle-roads/turkey/turkey/ride/southwest-is-the-best"},{"slat":"41.1496","slon":"29.6466","elat":"41.0805","elon":"29.6595","road_type_name":"Rural","road_type_id":"1","length":"13","title":"Teke köyü - ?ile","rating":"5","comments_count":"3","is_long":"0","simplified_polyline":"w`dzFei}sDndA{lAzrB`ZnL}pBnp@yc@zuDd{B","polyline":"w`dzFei}sDndA{lAzrB`ZnL}pBnp@yc@zuDd{B","url":"/motorcycle-roads/turkey/turkey/ride/teke-koyu-sile"},{"slat":"39.1899","slon":"27.2759","elat":"39.5906","elon":"27.4907","road_type_name":"Gravel","road_type_id":"7","length":"66","title":"Bergama - ?vrindi","rating":"4","comments_count":"1","is_long":"0","simplified_polyline":"}fenFmfneDgo@ot@{`Bt_@}bDyvAut@`l@pYqiBgaB}bAs^u_BseGcaCwgDwdEg_DwsAckC{wDgcAoFpMff@cuEj_DirFf|@{p@rfBmiDqfAsh@acCi~Du{EkBwlBi|AcpDouBn\\o_C}yA","polyline":"}fenFmfneDgo@ot@{`Bt_@}bDyvAut@`l@pYqiBgaB}bAs^u_BseGcaCwgDwdEg_DwsAckC{wDgcAoFpMff@cuEj_DirFf|@{p@rfBmiDqfAsh@acCi~Du{EkBwlBi|AcpDouBn\\o_C}yA","url":"/motorcycle-roads/turkey/turkey/ride/bergama-ivrindi"},{"slat":"41.0143","slon":"29.187","elat":"41.0232","elon":"29.0616","road_type_name":"Rural","road_type_id":"1","length":"13","title":"sile","rating":"3","comments_count":"1","is_long":"0","simplified_polyline":"criyFwqcqDykCjmExw@h}C_VrdFnfAnwByR`dA","polyline":"criyFwqcqDykCjmExw@h}C_VrdFnfAnwByR`dA","url":"/motorcycle-roads/turkey/turkey/ride/sile"},{"slat":"36.2012","slon":"29.6385","elat":"36.2022","elon":"29.6458","road_type_name":"Rural","road_type_id":"1","length":"119","title":"Ka? - Sütle?en - Ka? (07-53 & 07-52)","rating":"5","comments_count":"1","is_long":"0","simplified_polyline":"ap}{Eww{sDk{B`~BcaAvtMer@mZkvAjpDlDrzFekA~@nQxrAu}C_Riy@rwA{_Bm_@y_@w~@ybEsHybAuy@whEwpH{nCw{Lq~AckAiaAvZkdCq|DmgBou@|{BHmO{dA|cHmuA_@ydEvt@tl@trBiv@`\\eqC|Vj[xi@cs@pl@dfCnxGumCpiHvwAdtBlbCpmDgNzpAbmDjwAjh@oVj_C","polyline":"ap}{Eww{sDk{B`~BcaAvtMer@mZkvAjpDlDrzFekA~@nQxrAu}C_Riy@rwA{_Bm_@y_@w~@ybEsHybAuy@whEwpH{nCw{Lq~AckAiaAvZkdCq|DmgBou@|{BHmO{dA|cHmuA_@ydEvt@tl@trBiv@`\\eqC|Vj[xi@cs@pl@dfCnxGumCpiHvwAdtBlbCpmDgNzpAbmDjwAjh@oVj_C","url":"/motorcycle-roads/turkey/turkey/ride/kas-sutlegen-kas-07-53-07-52"},{"slat":"37.2268","slon":"31.1293","elat":"36.9163","elon":"31.1639","road_type_name":"Mountainous","road_type_id":"4","length":"54","title":"Aspendos bridge - ancient city of Selge","rating":"5","comments_count":"1","is_long":"0","simplified_polyline":"{}ebFu|~|D~qBorEl{A_b@hR_}AzuBedApeD`NpfCgoCxb@zSrbFcrCnvBiE|O}y@dzAac@bwBt]~~AngBlSnrCdtFL|Ex{CtqHprB","polyline":"{}ebFu|~|D~qBorEl{A_b@hR_}AzuBedApeD`NpfCgoCxb@zSrbFcrCnvBiE|O}y@dzAac@bwBt]~~AngBlSnrCdtFL|Ex{CtqHprB","url":"/motorcycle-roads/turkey/turkey/ride/aspendos-bridge-ancient-city-of-selge"},{"slat":"36.4786","slon":"29.4022","elat":"36.4733","elon":"29.4033","road_type_name":"Rural","road_type_id":"1","length":"45","title":"Sakl?kent Gorge Circuit","rating":"4","comments_count":"1","is_long":"0","simplified_polyline":"ivs}EqrmrD{~C{u@ifCcaD|h@_i@~m@ht@vhFafC`r@js@tp@eoD|gDdiAdcBj`CypA|iBwqB}QcHh`BeuBdeC}f@gaA","polyline":"ivs}EqrmrD{~C{u@ifCcaD|h@_i@~m@ht@vhFafC`r@js@tp@eoD|gDdiAdcBj`CypA|iBwqB}QcHh`BeuBdeC}f@gaA","url":"/motorcycle-roads/turkey/turkey/ride/saklikent-gorge-circuit"},{"slat":"36.5543","slon":"29.1245","elat":"36.5305","elon":"29.1813","road_type_name":"Mountainous","road_type_id":"4","length":"18","title":"Ölüdeniz - Babda?","rating":"5","comments_count":"1","is_long":"0","simplified_polyline":"oob~EkkwpDw_BqhCxYyeBvu@~KzFw~BnfDmoAcbA|sCfx@}bA","polyline":"oob~EkkwpDw_BqhCxYyeBvu@~KzFw~BnfDmoAcbA|sCfx@}bA","url":"/motorcycle-roads/turkey/turkey/ride/oludeniz-babdag"},{"slat":"36.5124","slon":"29.2851","elat":"36.5455","elon":"29.1902","road_type_name":"Off Road","road_type_id":"9","length":"15","title":"Babada? from the Xanthos Valley","rating":"5","comments_count":"1","is_long":"0","simplified_polyline":"{iz}EwvvqDl_@laAkv@ldIcbDzpE","polyline":"{iz}EwvvqDl_@laAkv@ldIcbDzpE","url":"/motorcycle-roads/turkey/turkey/ride/babadag-from-the-xanthos-valley"},{"slat":"36.5525","slon":"29.6729","elat":"36.7815","elon":"29.619","road_type_name":"Off Road","road_type_id":"9","length":"36","title":"Girdev Plateau (Temel-Gömbe)","rating":"5","comments_count":"1","is_long":"0","simplified_polyline":"gdb~EynbtDixC}q@iv@znAgZcc@iyA|^anHtyEwtFm`@gvEmrBc|CncDsEg`@soDpiB","polyline":"gdb~EynbtDixC}q@iv@znAgZcc@iyA|^anHtyEwtFm`@gvEmrBc|CncDsEg`@soDpiB","url":"/motorcycle-roads/turkey/turkey/ride/girdev-plateau-temel-gombe"},{"slat":"36.4325","slon":"30.4293","elat":"36.3062","elon":"30.3556","road_type_name":"Coastal","road_type_id":"2","length":"28","title":"Turkish Delight (Mavikent-Adrasan-D400)","rating":"5","comments_count":"1","is_long":"0","simplified_polyline":"ivj}EwfvxD`tDxCnQasApi@|\\`j@up@vhDrtAvb@_t@~~AtEhyCviEpqBpm@ba@|xDybB`tA","polyline":"ivj}EwfvxD`tDxCnQasApi@|\\`j@up@vhDrtAvb@_t@~~AtEhyCviEpqBpm@ba@|xDybB`tA","url":"/motorcycle-roads/turkey/turkey/ride/turkish-delight-mavikent-adrasan-d400"},{"slat":"39.9238","slon":"29.9975","elat":"40.4416","elon":"30.0501","road_type_name":"Cruiser","road_type_id":"8","length":"81","title":"Nice view, open road, nice twisties","rating":"4","comments_count":"1","is_long":"0","simplified_polyline":"}rtrFo{avD|fCsrEckBnrB_uA|nEehFebAeeIweFycJp~@yjC~vBywF_qDehIhnAsfD_uBs|ElkAmmD}EcrDqxIwlD|lEwdAa\\}mAhw@odBpaG_pA|[}w@mfAgF_iCyaDgzCkdAtI","polyline":"}rtrFo{avD|fCsrEckBnrB_uA|nEehFebAeeIweFycJp~@yjC~vBywF_qDehIhnAsfD_uBs|ElkAmmD}EcrDqxIwlD|lEwdAa\\}mAhw@odBpaG_pA|[}w@mfAgF_iCyaDgzCkdAtI","url":"/motorcycle-roads/turkey/turkey/ride/nice-view-open-road-nice-twisties"},{"slat":"39.5385","slon":"29.489","elat":"39.0932","elon":"28.9794","road_type_name":"Mountainous","road_type_id":"4","length":"96","title":"Virajl? Orman Yolu","rating":"4","comments_count":"1","is_long":"0","simplified_polyline":"wiipFos~rDljBz`GpjA~yLp{CzpCpwCfwFh\\giAvoA|jCtkBoXjx@cmErqBawAljBdhAdtAz~ClwDjOai@vmIvwC~kDf~Kvr@z`@hrBfwBfe@fu@luBvxDveBNdvA|tF~dEkeAziEz|BrvCbtBhgMtoAl`BjeBk^","polyline":"wiipFos~rDljBz`GpjA~yLp{CzpCpwCfwFh\\giAvoA|jCtkBoXjx@cmErqBawAljBdhAdtAz~ClwDjOai@vmIvwC~kDf~Kvr@z`@hrBfwBfe@fu@luBvxDveBNdvA|tF~dEkeAziEz|BrvCbtBhgMtoAl`BjeBk^","url":"/motorcycle-roads/turkey/turkey/ride/virajli-orman-yolu"},{"slat":"41.0567","slon":"29.296","elat":"40.6848","elon":"29.5031","road_type_name":"Rural","road_type_id":"1","length":"1047","title":"Long Circular Tour East From Istanbul","rating":"3","comments_count":"1","is_long":"1","simplified_polyline":"q{qyFozxqDuzCmdCumA{wNstAc_Dys@ikAcpBe\\kl@wmGy}D{uC|V}|Hx_Bg|EnyCys@v^isAvaBsAzpFqkHwcDqwLul@wmItd@m~Bs}@go@_g@}pDm_BybA|tF{cH~b@miBdvBuu@pQk`Cbw@x`@eXkc@~nBqNe]_iD`aAahAkHudAinAat@amE}gQloAq`EkiBuzFkrFgeDvXgzC_bA{eCakFxiB~HcbGf|BanEf^cvEghDcbFdi@ueAniA{@OmzF`tBwmJpe@asHd]w`TdrHwy\\qJ{pi@`lB}dDwsBixEef@cpDph@}YkyAcxFzQ{vC{|EgfYg`BczDsaNkaMa`Ep\\my@y{CihB_c@|\\yfGk|@omA~Q_|BggAlDguA}sAwwA|O}zBynIoLqbIazGaiFum@yoBoqC}ManAglFehE{wFrNgdGnqCkvJmF{|DzjBe`Apa@o_ExsB}GfyBquDh[}bGbvF{{GquAsyEawKE[kaHgzAooFahBgoAhEqwC}~Ao~HcgFk}IvL}~Ca_Byq@mpFri@vf@crCw_@i|DqzB_aB|fBmyC~NwfGp_BgrDi`@{tBj^yrDpdA{WtmCy|Fxd@bI~p@ojCyj@gwAdc@szE||D{dFhC_yGneEzqB`i@neB|t@}t@z~@rNf}CthDhyAo@fsAioAtnBn}ApqDi_ArqBrr@trDkKtbB_nB~d@vdL~mCliDpa@szArzDoR`_A}zCnyAwNfv@ykA~mB`hArkBq}@jiEjiEzfHzeCxnBpvC|u@npF~oEb{@jlCqeEb{Inb@b`AfqBeD`tGlsE~zWhbC||YrvDxmG`aPg_UdjEqq@fpBmeKIysEx`BkfB`l@ymDm_@aqBnu@szEnrCs`CxpA_|FtlBgiB~zGejAhh@exBlbCqtB`vGym@tu@t\\xbA}nBpjLum@xyDczCvfFx\\xeBtgAf_OwOhbMzaJgiAbeCn^rmKrpCneEduF~aDebBvzGskBl|AhGlrEbpDjrAhyB~zDtyClqAvKdiC}oAnfEiA~{IebLf~YyK~tJa|AlcA}dHbbMbr@rz@oe@v~BnfF`xOzuAjpJvMlbKzcApvDcmBd_Cy`@rgCdkBhlHjEbdH_zBlbI{tBxd@uc@zcAe|AziMb_@bcFwvBl`CuzAka@okDndAalG}hAmsC|lAwkBh{Bos@rrHezBf|@afAtaCgqCngBuiD~|@ot@ppFmpBuFu_ApjDgn@hAqp@uaBgsCvu@{bC{_@knAxqEogB`eAsh@toBz}@b}FarFfsIcyAuDwdBweE_fAxcEzKz`CyeAxObwAd|BcItyDfy@`qA`YvuFed@zTlu@`aAUpmJcyA`nQo}CzxEwjE`nL}vHrfFwmCdFr|@|aIyv@lfIh]b{NrnHplCrbHz`F`uD|BvbB_tAdqI|}JrgCbta@~bBdmEjbG|zAy^ldA`vEfeo@wtAplJo~@qCcfEvbJoFv}AwkA|Bij@~cAka@|eDb}@rwJ_gAa]wb@lfAeyEtoAmbClzDouEmnBi~EzvAozBb_CevCejA}rAh^","polyline":"q{qyFozxqDuzCmdCumA{wNstAc_Dys@ikAcpBe\\kl@wmGy}D{uC|V}|Hx_Bg|EnyCys@v^isAvaBsAzpFqkHwcDqwLul@wmItd@m~Bs}@go@_g@}pDm_BybA|tF{cH~b@miBdvBuu@pQk`Cbw@x`@eXkc@~nBqNe]_iD`aAahAkHudAinAat@amE}gQloAq`EkiBuzFkrFgeDvXgzC_bA{eCakFxiB~HcbGf|BanEf^cvEghDcbFdi@ueAniA{@OmzF`tBwmJpe@asHd]w`TdrHwy\\qJ{pi@`lB}dDwsBixEef@cpDph@}YkyAcxFzQ{vC{|EgfYg`BczDsaNkaMa`Ep\\my@y{CihB_c@|\\yfGk|@omA~Q_|BggAlDguA}sAwwA|O}zBynIoLqbIazGaiFum@yoBoqC}ManAglFehE{wFrNgdGnqCkvJmF{|DzjBe`Apa@o_ExsB}GfyBquDh[}bGbvF{{GquAsyEawKE[kaHgzAooFahBgoAhEqwC}~Ao~HcgFk}IvL}~Ca_Byq@mpFri@vf@crCw_@i|DqzB_aB|fBmyC~NwfGp_BgrDi`@{tBj^yrDpdA{WtmCy|Fxd@bI~p@ojCyj@gwAdc@szE||D{dFhC_yGneEzqB`i@neB|t@}t@z~@rNf}CthDhyAo@fsAioAtnBn}ApqDi_ArqBrr@trDkKtbB_nB~d@vdL~mCliDpa@szArzDoR`_A}zCnyAwNfv@ykA~mB`hArkBq}@jiEjiEzfHzeCxnBpvC|u@npF~oEb{@jlCqeEb{Inb@b`AfqBeD`tGlsE~zWhbC||YrvDxmG`aPg_UdjEqq@fpBmeKIysEx`BkfB`l@ymDm_@aqBnu@szEnrCs`CxpA_|FtlBgiB~zGejAhh@exBlbCqtB`vGym@tu@t\\xbA}nBpjLum@xyDczCvfFx\\xeBtgAf_OwOhbMzaJgiAbeCn^rmKrpCneEduF~aDebBvzGskBl|AhGlrEbpDjrAhyB~zDtyClqAvKdiC}oAnfEiA~{IebLf~YyK~tJa|AlcA}dHbbMbr@rz@oe@v~BnfF`xOzuAjpJvMlbKzcApvDcmBd_Cy`@rgCdkBhlHjEbdH_zBlbI{tBxd@uc@zcAe|AziMb_@bcFwvBl`CuzAka@okDndAalG}hAmsC|lAwkBh{Bos@rrHezBf|@afAtaCgqCngBuiD~|@ot@ppFmpBuFu_ApjDgn@hAqp@uaBgsCvu@{bC{_@knAxqEogB`eAsh@toBz}@b}FarFfsIcyAuDwdBweE_fAxcEzKz`CyeAxObwAd|BcItyDfy@`qA`YvuFed@zTlu@`aAUpmJcyA`nQo}CzxEwjE`nL}vHrfFwmCdFr|@|aIyv@lfIh]b{NrnHplCrbHz`F`uD|BvbB_tAdqI|}JrgCbta@~bBdmEjbG|zAy^ldA`vEfeo@wtAplJo~@qCcfEvbJoFv}AwkA|Bij@~cAka@|eDb}@rwJ_gAa]wb@lfAeyEtoAmbClzDouEmnBi~EzvAozBb_CevCejA}rAh^","url":"/motorcycle-roads/turkey/turkey/ride/long-circular-tour-east-from-istanbul"},{"slat":"36.6126","slon":"29.3552","elat":"36.4525","elon":"29.2904","road_type_name":"Rural","road_type_id":"1","length":"419","title":"Antalya_KA","rating":"3","comments_count":"1","is_long":"1","simplified_polyline":"g~m~Eq}drDin@re@snAmVmm@u`GgvAsB_oDiuBgzCpf@keB}pFwo@g]qYhm@ckHgcDe]{uCgdBu_@eu@smB{yAwfHwfKwqNySqaEqtDajC}ZuyFitDeuCcqB{mGe_DisBa`Cde@ojEwjDzoCwyIv}Ca`Eu~@cvEehBohCyHiyEuy@ujA`d@kxMozB_rNdf@gRFckGhfGolD|~@ecD}_CaqDdpA}eG_qDcfCgZozBde@egAs_@scDhoCkzEca@mbF|p@oyCxdHkdIlpAoxGhkDg`ElhHpd@`uDzaGbJtuBdfDdn@rhFbcDdwCcQd`DraB~fIu~AznDh_E|aCyfB`uFrwA|nAs~Af}Fbm@|`@wc@tEdfC`bCjyAzFndB|uFdcMbmDgUzwEdkAvqDjzF{CfcAn|Dy^{yC`pGx|@~|FjlG~iBj~@~`TfjAdwBxpC{^iVpqAl~DvjC{Pf`E{xCjqDb{@`_B`pBf^ry@pfBeBvzEj}@taFs`BdLyfB{oChWxn@gcAxzDzr@txKpmC`}IwnBtsF~iC~}HuHbgAvfC~zEfxAlj@s~@vpIll@`fDogAndFtAz|LeoB|lDgYnuC{jA{Gm`DlxAnTlcAe{@jzAbu@xbCayDtrFyfGcq@mnEzlAg}Ae[gkCboJwxC{Fwl@ovBao@sJ","polyline":"g~m~Eq}drDin@re@snAmVmm@u`GgvAsB_oDiuBgzCpf@keB}pFwo@g]qYhm@ckHgcDe]{uCgdBu_@eu@smB{yAwfHwfKwqNySqaEqtDajC}ZuyFitDeuCcqB{mGe_DisBa`Cde@ojEwjDzoCwyIv}Ca`Eu~@cvEehBohCyHiyEuy@ujA`d@kxMozB_rNdf@gRFckGhfGolD|~@ecD}_CaqDdpA}eG_qDcfCgZozBde@egAs_@scDhoCkzEca@mbF|p@oyCxdHkdIlpAoxGhkDg`ElhHpd@`uDzaGbJtuBdfDdn@rhFbcDdwCcQd`DraB~fIu~AznDh_E|aCyfB`uFrwA|nAs~Af}Fbm@|`@wc@tEdfC`bCjyAzFndB|uFdcMbmDgUzwEdkAvqDjzF{CfcAn|Dy^{yC`pGx|@~|FjlG~iBj~@~`TfjAdwBxpC{^iVpqAl~DvjC{Pf`E{xCjqDb{@`_B`pBf^ry@pfBeBvzEj}@taFs`BdLyfB{oChWxn@gcAxzDzr@txKpmC`}IwnBtsF~iC~}HuHbgAvfC~zEfxAlj@s~@vpIll@`fDogAndFtAz|LeoB|lDgYnuC{jA{Gm`DlxAnTlcAe{@jzAbu@xbCayDtrFyfGcq@mnEzlAg}Ae[gkCboJwxC{Fwl@ovBao@sJ","url":"/motorcycle-roads/turkey/turkey/ride/antalya_ka"},{"slat":"39.9264","slon":"33.2728","elat":"40.237","elon":"32.6846","road_type_name":"Mountainous","road_type_id":"4","length":"852","title":"Ankara ?nebolu Ankara","rating":"5","comments_count":"1","is_long":"1","simplified_polyline":"ccurFuqajEiiCorDdtCa~IuTmdFooAaiBjzBc`CkdDuzAgg@e{A{sBeO{zEt~Bg{GxAkrB{`AquAv~CqrBddAoaKklFgvR{J}mCaaEy}EkjD}yDaAc_C}_B_hAmiCqd@gjOkn@inBuqIoiAunBfv@qcFpoGsyHrMt|GO|}FizGy_GvyGocCdSu}IskAiqAriAuuFLonAdpBqqBct@kmD`~JwwB|yAsrAnWimIo|Ae{GmjEowC{mJwjB{nBbImuB_}AiKsvAlvAbwBcmGuBiyEqjB{cDsr@qeIc_DuaHyaCi}T{uAotD_kDysDoNczDib@a[a\\nfA__A_{@uwGh}DgvCmv@ifAkcD_aArj@oaAseBmnArp@kpCq{A{e@dv@oaAus@iCybDw[lj@mN{iD_`BqbCifAmjGckJwoAipAsqCsYh_@grBe|A{hAfv@y}Om{A_iIrxCixEdLanAg_AesAhj@guFmqBq_DavGsrG{iVk{FrdB}w@zuAi|CsItu@bvAuw@}Uu\\xh@yyEibBaoEpSurAujAcBpuA{]i}AzKvlEn_BjP}fAxFat@xoD}p@ndAmn@cWdA`dBsqCryCynCih@qrBre@gsEnrDfDpj@i`A}LqjBv`Aa_BiUaqAhoLd_@fgCq~@zqAlp@nfBqfBdiHfq@pgk@_wBfxs@z^h~@sv@}FgTdgB`p@tTcfAtcBvf@fhAwh@hH_p@bmKtd@xqCeo@r~@l`@zZ}}@rkHzMziE|nFlfPXl_CxyAeTfiJdrDf|Bck@t}G}mKtnCpfDh|BeS`^ovB`vA~iAdk@qcAf}@|S|GwqB`kAik@F_qEddAJrrBi_FgWcvCbs@ebCzlGrtChgAp~DjkAdbAxCjjB~pBi_ArzB`r@tq@orAdS|d@ho@eq@|zApQp^u~DjpAn`@|i@snCbf@\\kZu_Cp`BaRpf@xwA`oDanCaw@ohBlF}vBnmCckDl~DbmJt`GljHbrB]psHf_C`h@|qAxcDngAn{EonCh~@lu@loBuIhcD|vC`sDgBrFszAh_FfoB~aDcxA|ScxB~kGr}Ab`Cn|FiBwbEf{Ad~Bnc@muC~lAtfAxxBklChfC|}AzmAebAp{Af~An[rpFbo@p_@lYyy@hbA`tDvj@uhApw@xCvhDjuFzsCzAnnAkrAxx@xxC{D|pFnpEnoO~i@|jNwrDbok@~]ij@fjAp|@vsAqqAsZwvFpiBm}@lh@ivBheClhErjCzoA`fClrDf~@jrF~}FtkCdWpoAxgAcRdeGjgGdtEfCblDznC`kCi]c]xt@jgB{s@pt@rr@lyBk~AdgHcGpdAkoB|gL_m@|_Ea{Cr`Fv]d_BtfApwE|L","polyline":"ccurFuqajEiiCorDdtCa~IuTmdFooAaiBjzBc`CkdDuzAgg@e{A{sBeO{zEt~Bg{GxAkrB{`AquAv~CqrBddAoaKklFgvR{J}mCaaEy}EkjD}yDaAc_C}_B_hAmiCqd@gjOkn@inBuqIoiAunBfv@qcFpoGsyHrMt|GO|}FizGy_GvyGocCdSu}IskAiqAriAuuFLonAdpBqqBct@kmD`~JwwB|yAsrAnWimIo|Ae{GmjEowC{mJwjB{nBbImuB_}AiKsvAlvAbwBcmGuBiyEqjB{cDsr@qeIc_DuaHyaCi}T{uAotD_kDysDoNczDib@a[a\\nfA__A_{@uwGh}DgvCmv@ifAkcD_aArj@oaAseBmnArp@kpCq{A{e@dv@oaAus@iCybDw[lj@mN{iD_`BqbCifAmjGckJwoAipAsqCsYh_@grBe|A{hAfv@y}Om{A_iIrxCixEdLanAg_AesAhj@guFmqBq_DavGsrG{iVk{FrdB}w@zuAi|CsItu@bvAuw@}Uu\\xh@yyEibBaoEpSurAujAcBpuA{]i}AzKvlEn_BjP}fAxFat@xoD}p@ndAmn@cWdA`dBsqCryCynCih@qrBre@gsEnrDfDpj@i`A}LqjBv`Aa_BiUaqAhoLd_@fgCq~@zqAlp@nfBqfBdiHfq@pgk@_wBfxs@z^h~@sv@}FgTdgB`p@tTcfAtcBvf@fhAwh@hH_p@bmKtd@xqCeo@r~@l`@zZ}}@rkHzMziE|nFlfPXl_CxyAeTfiJdrDf|Bck@t}G}mKtnCpfDh|BeS`^ovB`vA~iAdk@qcAf}@|S|GwqB`kAik@F_qEddAJrrBi_FgWcvCbs@ebCzlGrtChgAp~DjkAdbAxCjjB~pBi_ArzB`r@tq@orAdS|d@ho@eq@|zApQp^u~DjpAn`@|i@snCbf@\\kZu_Cp`BaRpf@xwA`oDanCaw@ohBlF}vBnmCckDl~DbmJt`GljHbrB]psHf_C`h@|qAxcDngAn{EonCh~@lu@loBuIhcD|vC`sDgBrFszAh_FfoB~aDcxA|ScxB~kGr}Ab`Cn|FiBwbEf{Ad~Bnc@muC~lAtfAxxBklChfC|}AzmAebAp{Af~An[rpFbo@p_@lYyy@hbA`tDvj@uhApw@xCvhDjuFzsCzAnnAkrAxx@xxC{D|pFnpEnoO~i@|jNwrDbok@~]ij@fjAp|@vsAqqAsZwvFpiBm}@lh@ivBheClhErjCzoA`fClrDf~@jrF~}FtkCdWpoAxgAcRdeGjgGdtEfCblDznC`kCi]c]xt@jgB{s@pt@rr@lyBk~AdgHcGpdAkoB|gL_m@|_Ea{Cr`Fv]d_BtfApwE|L","url":"/motorcycle-roads/turkey/turkey/ride/ankara-inebolu-ankara"},{"slat":"41.0964","slon":"28.6355","elat":"41.4668","elon":"28.3148","road_type_name":"Rural","road_type_id":"1","length":"61","title":"podima","rating":"3","comments_count":"1","is_long":"0","simplified_polyline":"ksyyF}}wmD`t@ha@sdA_a@}oCd_AeqAnrDceF``DczBzfEubFtvAo`@lzD_kFpfAmdEjyCyaGr@ieBnw@wdBceA_z@pV}nBbpN_fIvoGez@vwB","polyline":"ksyyF}}wmD`t@ha@sdA_a@}oCd_AeqAnrDceF``DczBzfEubFtvAo`@lzD_kFpfAmdEjyCyaGr@ieBnw@wdBceA_z@pV}nBbpN_fIvoGez@vwB","url":"/motorcycle-roads/turkey/turkey/ride/podima"},{"slat":"40.2693","slon":"33.0183","elat":"40.4086","elon":"32.9187","road_type_name":"Rural","road_type_id":"1","length":"23","title":"cubuk - karagol","rating":"3","comments_count":"1","is_long":"0","simplified_polyline":"mbxtFi}ohE}|D|mDmY|uAwsF|i@{~Cz_E_wByp@}dBdxBwy@dEd^zo@","polyline":"mbxtFi}ohE}|D|mDmY|uAwsF|i@{~Cz_E_wByp@}dBdxBwy@dEd^zo@","url":"/motorcycle-roads/turkey/turkey/ride/cubuk-karagol"},{"slat":"38.322","slon":"26.58","elat":"38.511","elon":"26.4271","road_type_name":"Mountainous","road_type_id":"4","length":"106","title":"Karaburun Peninsula","rating":"3","comments_count":"1","is_long":"0","simplified_polyline":"ew{hFwkfaDiq@t{BojHnlCga@~mF|g@x~Awl@`u@yxAym@gBc}B_wA}`CodCeiAnGhbBqiBfaEqkA`wAqhDjd@ab@vfBxr@bsBcv@lmCo`FfmCibCqZiwBp{Ck{@wC{MimA}gDgpBqd@h`@uqC}gAyu@`a@w~A_hAvSczByeAybApRyoElmC_mDti@{GhaB|`CriEhDvlArkD`{BxgBtHbsDpdHeoB","polyline":"ew{hFwkfaDiq@t{BojHnlCga@~mF|g@x~Awl@`u@yxAym@gBc}B_wA}`CodCeiAnGhbBqiBfaEqkA`wAqhDjd@ab@vfBxr@bsBcv@lmCo`FfmCibCqZiwBp{Ck{@wC{MimA}gDgpBqd@h`@uqC}gAyu@`a@w~A_hAvSczByeAybApRyoElmC_mDti@{GhaB|`CriEhDvlArkD`{BxgBtHbsDpdHeoB","url":"/motorcycle-roads/turkey/turkey/ride/karaburun-peninsula"},{"slat":"40.7753","slon":"29.5525","elat":"40.2966","elon":"29.0608","road_type_name":"Urban","road_type_id":"3","length":"170","title":"bayram rotasi","rating":"1","comments_count":"1","is_long":"0","simplified_polyline":"ezzwFa_ksDilB`zC~eBqE|l@aqGs{BalGpgA}|BiGmeTxhCebIkaA_uSdYyvKdfFtrA|pC~jQuvAjjE}PjmF|rEntk@qbAltDGrpFxtBxdTe[h`DzzAf|Cl}@tpHtlErtAp`Ch@|yAm{Bp~CcnA`uCyEjeCghAxuEvg@jtDzrC~lDbbGzm@nmSvwG|l@d{Dt`CvjBxcGh|Dpz@","polyline":"ezzwFa_ksDilB`zC~eBqE|l@aqGs{BalGpgA}|BiGmeTxhCebIkaA_uSdYyvKdfFtrA|pC~jQuvAjjE}PjmF|rEntk@qbAltDGrpFxtBxdTe[h`DzzAf|Cl}@tpHtlErtAp`Ch@|yAm{Bp~CcnA`uCyEjeCghAxuEvg@jtDzrC~lDbbGzm@nmSvwG|l@d{Dt`CvjBxcGh|Dpz@","url":"/motorcycle-roads/turkey/turkey/ride/bayram-rotasi"},{"slat":"41.1748","slon":"28.9877","elat":"41.1648","elon":"28.9269","road_type_name":"Mountainous","road_type_id":"4","length":"7","title":"Kemerburgaz Belgrad","rating":"4","comments_count":"1","is_long":"0","simplified_polyline":"e}hzF}s|oDac@dbBhkAvqB|T|dD","polyline":"e}hzF}s|oDac@dbBhkAvqB|T|dD","url":"/motorcycle-roads/turkey/turkey/ride/kemerburgaz-belgrad"},{"slat":"41.3906","slon":"41.4276","elat":"40.9295","elon":"39.8703","road_type_name":"Rural","road_type_id":"1","length":"469","title":"Hopa - Konakli - Meyveli - Çayeli - ?kizdere (Zek2)","rating":"3","comments_count":"1","is_long":"1","simplified_polyline":"abs{Fckz{FzpBuUhWzpAs{@~nAdfArfEtRuh@vr@ptB~{BvkBxr@i^}Kbq@xcAiEdw@rcI|oAc@jp@b`A_m@fcBjnAb{Ejz@o`@xjAftAt_@q~@kr@rvHdj@ez@}V|Wlp@oLlY`x@vjA{Qlc@ni@w{@f{Ar~@vbAztAqd@|Zl\\oTreCpjD~d@mjAldGnu@rk@n[qe@r_ClkCzSfoEjv@kFdIxfAryAkJauBduChtA}CzR~|A|q@|OtSjxCe}@j_C|mImr@nY{~AgXxlFklAy@s}BbbBh}Bx^pOfw@}]tbE``AddCa_Ar_DxnBjhGgfAr_FfiBj_He_@ysDnqCy|@jbBl\\r}FpzLxeAtn@rPop@p\\z~E`aIszF~uG`j@pfB_{Azi@uqB~c@dZ|kCouCto@hrK~`DzzBnKtsEh}BiG~l@nqBEs_BviE__DrzE~Ovy@zy@~oAucAlmBbsCnZpiElo@w@pbAdvBjkAgOgRqhAbo@oOh_BhqB|dF||Alj@pyEaj@wCkIrdAxZ~aAvjAhDqt@j^Az}FsbAlhA~Qn~G_hBhZ}OtoC_tCbaA__@t`Dc|Ah_B{wAmLakAlxAkaBpG_g@b~A~jBfqEt~@yRv_D~jA`LhaCggBtN|w@|dBse@tu@rp@f\\pIbdGs}AtzE}vEyt@o\\byDyzBzp@oh@oKtdAmx@}Yi`@kaGuHhfAzv@ceAv{@q|AdAhk@na@mh@vKt|Ahd@dPjgA{`BfNy_AfzA}|ApLh^qd@gu@bjA{~C}oA{nDbEobBqtA~YhdAef@~`AxgBh}AuuAdhEbXr{@jhEflFxrEtmC|dBnJgg@Xwa@``BibCwl@qV`aGk~A[shBwpCipEmzBuaDbf@iqDqz@","polyline":"abs{Fckz{FzpBuUhWzpAs{@~nAdfArfEtRuh@vr@ptB~{BvkBxr@i^}Kbq@xcAiEdw@rcI|oAc@jp@b`A_m@fcBjnAb{Ejz@o`@xjAftAt_@q~@kr@rvHdj@ez@}V|Wlp@oLlY`x@vjA{Qlc@ni@w{@f{Ar~@vbAztAqd@|Zl\\oTreCpjD~d@mjAldGnu@rk@n[qe@r_ClkCzSfoEjv@kFdIxfAryAkJauBduChtA}CzR~|A|q@|OtSjxCe}@j_C|mImr@nY{~AgXxlFklAy@s}BbbBh}Bx^pOfw@}]tbE``AddCa_Ar_DxnBjhGgfAr_FfiBj_He_@ysDnqCy|@jbBl\\r}FpzLxeAtn@rPop@p\\z~E`aIszF~uG`j@pfB_{Azi@uqB~c@dZ|kCouCto@hrK~`DzzBnKtsEh}BiG~l@nqBEs_BviE__DrzE~Ovy@zy@~oAucAlmBbsCnZpiElo@w@pbAdvBjkAgOgRqhAbo@oOh_BhqB|dF||Alj@pyEaj@wCkIrdAxZ~aAvjAhDqt@j^Az}FsbAlhA~Qn~G_hBhZ}OtoC_tCbaA__@t`Dc|Ah_B{wAmLakAlxAkaBpG_g@b~A~jBfqEt~@yRv_D~jA`LhaCggBtN|w@|dBse@tu@rp@f\\pIbdGs}AtzE}vEyt@o\\byDyzBzp@oh@oKtdAmx@}Yi`@kaGuHhfAzv@ceAv{@q|AdAhk@na@mh@vKt|Ahd@dPjgA{`BfNy_AfzA}|ApLh^qd@gu@bjA{~C}oA{nDbEobBqtA~YhdAef@~`AxgBh}AuuAdhEbXr{@jhEflFxrEtmC|dBnJgg@Xwa@``BibCwl@qV`aGk~A[shBwpCipEmzBuaDbf@iqDqz@","url":"/motorcycle-roads/turkey/turkey/ride/hopa-konakli-meyveli-cayeli-ikizdere-zek2"},{"slat":"40.3653","slon":"32.5633","elat":"40.4189","elon":"32.6706","road_type_name":"Rural","road_type_id":"1","length":"19","title":"Kizilcahamam - Gudul","rating":"3","comments_count":"1","is_long":"0","simplified_polyline":"exjuFyaweE_|BibDy}@ioF{iIwhDjvA`K~`BslB","polyline":"exjuFyaweE_|BibDy}@ioF{iIwhDjvA`K~`BslB","url":"/motorcycle-roads/turkey/turkey/ride/kizilcahamam-gudul"},{"slat":"40.7417","slon":"32.8101","elat":"40.5027","elon":"32.6409","road_type_name":"Rural","road_type_id":"1","length":"38","title":"Kizilcahamam - Cerkes","rating":"4","comments_count":"1","is_long":"0","simplified_polyline":"wktwF{`ggEtsDxnEbw@dgFz}FnkCfXnpAxhAmQzdGbgGbtEpBnkD|nCzyAnDn[si@wJd{@`jBus@zi@xX","polyline":"wktwF{`ggEtsDxnEbw@dgFz}FnkCfXnpAxhAmQzdGbgGbtEpBnkD|nCzyAnDn[si@wJd{@`jBus@zi@xX","url":"/motorcycle-roads/turkey/turkey/ride/kizilcahamam-cerkes"},{"slat":"41.3884","slon":"41.4263","elat":"41.1279","elon":"42.6836","road_type_name":"Mountainous","road_type_id":"4","length":"181","title":"Hopa - Borçka - ?av?at - Ardahan","rating":"5","comments_count":"1","is_long":"0","simplified_polyline":"etr{Fiaz{F|K_~L_dC{u@heA|`@i`@ulD~_BqtB{Sqw@rp@li@g_@gyAlb@wbIrlA__CzR}hF~oAqQ~@iqA|dCsnB`|@}aDzlA`HbkAmaCtiDmeBxdEiaA_Wbu@`Nu|@t|DewBt~DinFs`@gbBeJ~_@smAmy@zp@jGi^yqC~yBhVdIk}BjwA}fAjy@nOeaBw}K{}DumCezAabH{lBmrCsOy}CotDyaKcRcaFybCymGf`Da}M|BwxEnq@ujBncDo{Be~@s{@l^gSubAycE`dAykAc`@zNxw@iaBqGyjBtXff@dwAoyA|VyhOp`ApQYalD~w@`IxkD_gCna@{fErqCqzG","polyline":"etr{Fiaz{F|K_~L_dC{u@heA|`@i`@ulD~_BqtB{Sqw@rp@li@g_@gyAlb@wbIrlA__CzR}hF~oAqQ~@iqA|dCsnB`|@}aDzlA`HbkAmaCtiDmeBxdEiaA_Wbu@`Nu|@t|DewBt~DinFs`@gbBeJ~_@smAmy@zp@jGi^yqC~yBhVdIk}BjwA}fAjy@nOeaBw}K{}DumCezAabH{lBmrCsOy}CotDyaKcRcaFybCymGf`Da}M|BwxEnq@ujBncDo{Be~@s{@l^gSubAycE`dAykAc`@zNxw@iaBqGyjBtXff@dwAoyA|VyhOp`ApQYalD~w@`IxkD_gCna@{fErqCqzG","url":"/motorcycle-roads/turkey/turkey/ride/hopa-borcka-savsat-ardahan"},{"slat":"36.638","slon":"32.9006","elat":"36.0868","elon":"32.8453","road_type_name":"Rural","road_type_id":"1","length":"104","title":"Anamur - Ermenek","rating":"4","comments_count":"1","is_long":"0","simplified_polyline":"wyr~Eg{xgEtaCerCvqAhZbuBkeAfbBsfFnlCuvAjnAnlEvmF{`@`_@l}Aaa@x^foAnv@~iCobBhcGlmAplDssArcBbKnd@mhAlfFmFntFb{GjuByy@~wCdf@tZ}aAbt@~XzbApcB_JpjAveAyd@{Zip@dnBnIuaAmd@|w@jP`R}n@mXtYm`@am@nxBu|@vs@vlCxlAn}@jg@`sDt}BoIxzB~cBleFpX","polyline":"wyr~Eg{xgEtaCerCvqAhZbuBkeAfbBsfFnlCuvAjnAnlEvmF{`@`_@l}Aaa@x^foAnv@~iCobBhcGlmAplDssArcBbKnd@mhAlfFmFntFb{GjuByy@~wCdf@tZ}aAbt@~XzbApcB_JpjAveAyd@{Zip@dnBnIuaAmd@|w@jP`R}n@mXtYm`@am@nxBu|@vs@vlCxlAn}@jg@`sDt}BoIxzB~cBleFpX","url":"/motorcycle-roads/turkey/turkey/ride/anamur-ermenek"},{"slat":"40.8071","slon":"29.501","elat":"41.1462","elon":"30.2447","road_type_name":"Rural","road_type_id":"1","length":"155","title":"Gebze - Kefken Route","rating":"5","comments_count":"1","is_long":"0","simplified_polyline":"mcaxF_|`sDsMavCv{BeWsrAkc@xo@uu@stA}iC}}A`k@quBwqC{vBrc@iq@i_HkmCAiZkfCqlAsRk_@q~AwiAng@sgDavAgiCty@qwDa_A_Uiz@ayFa}BgsChjB_|@irBoyBsmOfc@coCs}@go@_g@}pDm_BybA|tF{cHrc@gjBjrBgp@dUqeClv@pa@}Wqc@fpByOm^wgD`aAahAkHudAinAat@amE}gQfoA}}DYwlCwcI}vG_}E|[wNovF{jAx~@w|@gq@koAgkE`x@mtHww@gt@vc@grCrzA`Vyf@n~Cv|AjaG~y@_I~h@~}@vA`fD","polyline":"mcaxF_|`sDsMavCv{BeWsrAkc@xo@uu@stA}iC}}A`k@quBwqC{vBrc@iq@i_HkmCAiZkfCqlAsRk_@q~AwiAng@sgDavAgiCty@qwDa_A_Uiz@ayFa}BgsChjB_|@irBoyBsmOfc@coCs}@go@_g@}pDm_BybA|tF{cHrc@gjBjrBgp@dUqeClv@pa@}Wqc@fpByOm^wgD`aAahAkHudAinAat@amE}gQfoA}}DYwlCwcI}vG_}E|[wNovF{jAx~@w|@gq@koAgkE`x@mtHww@gt@vc@grCrzA`Vyf@n~Cv|AjaG~y@_I~h@~}@vA`fD","url":"/motorcycle-roads/turkey/turkey/ride/gebze-kefken-route"},{"slat":"38.6346","slon":"26.5155","elat":"38.3268","elon":"26.6405","road_type_name":"Rural","road_type_id":"1","length":"52","title":"Karaburun - Izmir","rating":"3","comments_count":"1","is_long":"0","simplified_polyline":"_zxjFwyy`DnyGehF`uD}fA`~EorHdmHuOpkArrFj_Ae_B|z@mCeBdo@tqC~x@ttAuWgr@uhA`n@}lCdbAgv@ntBpQjScxB|bFjZnhA}_@","polyline":"_zxjFwyy`DnyGehF`uD}fA`~EorHdmHuOpkArrFj_Ae_B|z@mCeBdo@tqC~x@ttAuWgr@uhA`n@}lCdbAgv@ntBpQjScxB|bFjZnhA}_@","url":"/motorcycle-roads/turkey/turkey/ride/karaburun-izmir"},{"slat":"41.0596","slon":"28.7004","elat":"43.1358","elon":"27.8132","road_type_name":"Urban","road_type_id":"3","length":"456","title":"Istanbul - Varna","rating":"3","comments_count":"1","is_long":"1","simplified_polyline":"wmryFsodnDl\\|tE_dGpqGe}@hcNrjAvgExgE~tA|fAzsJyuBttIqqDt`Fgw@pmMi~A~sElNn{JimAnpCu_It_HciB`tFvRjnGgnAjvE}@xoE_nBniNgdHbsOsbCfyB~|B}mBl`H}wNvp@`c@_t@}bAqwGnlOwlBxlBikXz`z@oiClaEi_@~qOevDxoJsRhjIiwBzlLq\\reJlj@|v@eek@ywSyWuxBirAaB{wAydBs~DagAwfDmcGikA}UudEzx@et@yfCevDktEa_BeRaqBto@mbGwxI_BijDby@mkAgz@yvBa]u`H~b@{qAkbFttCkeGh_LszCtrBkwBqcA_iBpmAgnBkyAaeAfKwHs{A}aCfkA{iGcHcwHstHerFwb@}fDayA_vE|h@qnCdoB{cFaw@eaD~w@qxA|bF_sBlf@s_EogD{vGknAi\\qxE_iAitAni@eyDk_@ijHqrN}fGw`B}eH_{FqsAsxCgxEkxBkB_PmsAylBAi`AwbBb{@anBsmA{t@t`BopLsb@waBa|@v`A_`AucAsqBle@{yE{EccCocAchC|_@k~CxcG}jAt_H{jFp_Dcc@qkAadEwaBgrDkcGyyDmnCgnDzl@u`GdzGqy@}q@","polyline":"wmryFsodnDl\\|tE_dGpqGe}@hcNrjAvgExgE~tA|fAzsJyuBttIqqDt`Fgw@pmMi~A~sElNn{JimAnpCu_It_HciB`tFvRjnGgnAjvE}@xoE_nBniNgdHbsOsbCfyB~|B}mBl`H}wNvp@`c@_t@}bAqwGnlOwlBxlBikXz`z@oiClaEi_@~qOevDxoJsRhjIiwBzlLq\\reJlj@|v@eek@ywSyWuxBirAaB{wAydBs~DagAwfDmcGikA}UudEzx@et@yfCevDktEa_BeRaqBto@mbGwxI_BijDby@mkAgz@yvBa]u`H~b@{qAkbFttCkeGh_LszCtrBkwBqcA_iBpmAgnBkyAaeAfKwHs{A}aCfkA{iGcHcwHstHerFwb@}fDayA_vE|h@qnCdoB{cFaw@eaD~w@qxA|bF_sBlf@s_EogD{vGknAi\\qxE_iAitAni@eyDk_@ijHqrN}fGw`B}eH_{FqsAsxCgxEkxBkB_PmsAylBAi`AwbBb{@anBsmA{t@t`BopLsb@waBa|@v`A_`AucAsqBle@{yE{EccCocAchC|_@k~CxcG}jAt_H{jFp_Dcc@qkAadEwaBgrDkcGyyDmnCgnDzl@u`GdzGqy@}q@","url":"/motorcycle-roads/turkey/turkey/ride/istanbul-varna"},{"slat":"40.9654","slon":"29.5008","elat":"40.9532","elon":"29.4949","road_type_name":"Mountainous","road_type_id":"4","length":"93","title":"Near ?stanbul : Fatih - Kervansaray","rating":"3","comments_count":"1","is_long":"0","simplified_polyline":"y``yFyz`sD}Aw`CkdCo_Eq{CsUukEg|BmXtiCatClnA{NtaDhvApzGiw@di@u`AfoFg~Bpr@}If{@nu@bs@`mAjwNjvF`nGd}DzB`gCypJnlCr^lcAqyAl_Cdr@bvCulInqFggFol@exAdXqtFygA{mBauDwb@mbB_pAc}BtyB","polyline":"y``yFyz`sD}Aw`CkdCo_Eq{CsUukEg|BmXtiCatClnA{NtaDhvApzGiw@di@u`AfoFg~Bpr@}If{@nu@bs@`mAjwNjvF`nGd}DzB`gCypJnlCr^lcAqyAl_Cdr@bvCulInqFggFol@exAdXqtFygA{mBauDwb@mbB_pAc}BtyB","url":"/motorcycle-roads/turkey/turkey/ride/near-istanbul-fatih-kervansaray"},{"slat":"40.9654","slon":"29.5025","elat":"41.0285","elon":"29.2343","road_type_name":"Rural","road_type_id":"1","length":"55","title":"Near Istanbul : Darlik","rating":"3","comments_count":"1","is_long":"0","simplified_polyline":"g``yFqeasDqAivBaeCg_EozCgU}pDmxBcu@|dCmsC`nAwO`bDvvArvEet@d\\sbAt~H}}Bts@uJn|@fv@pw@flAbsNveIjhIfFv}D","polyline":"g``yFqeasDqAivBaeCg_EozCgU}pDmxBcu@|dCmsC`nAwO`bDvvArvEet@d\\sbAt~H}}Bts@uJn|@fv@pw@flAbsNveIjhIfFv}D","url":"/motorcycle-roads/turkey/turkey/ride/near-istanbul-darlik"},{"slat":"39.1076","slon":"36.0773","elat":"39.8017","elon":"39.3731","road_type_name":"Mountainous","road_type_id":"4","length":"373","title":"Plains of Anatolia","rating":"3","comments_count":"1","is_long":"1","simplified_polyline":"ynumFe~d{Emg@muAiqFtn@gd@se@aoEzRwhKkvLydGymWmoAexBuo@etFsvHk|QmeDuvDwtBokFa_@a~FsoEojNhCaqHocAydIq{Kuy_@g|FolMgi@agKqjBit@knGpjDawDnTefKat@_zE_oKorCk|AmqCixDsaB{lFjG_rVyvCotMmz@ifIdt@agD}gAsxEuHwcF{yAkdE|SeaH|lAarFyuBaeSdhC}rL~CohFn`AcjAc|CwiO`Ji~DuqB{gDqPouCvjCq~Oq^{pL|zAosE}Tc|@jwDouImjDenK~`A{qHoU{dFoq@kjAagAh}@utB{eGetDanDyl@inV_bDolDm_@ooFnr@u`Gd}FoyHu~FbzHboHogK|u@yuNyh@muHlbBupSrfBi|D`O{eK{pAq_FuWweG`m@auIdqEofOfgGsqH","polyline":"ynumFe~d{Emg@muAiqFtn@gd@se@aoEzRwhKkvLydGymWmoAexBuo@etFsvHk|QmeDuvDwtBokFa_@a~FsoEojNhCaqHocAydIq{Kuy_@g|FolMgi@agKqjBit@knGpjDawDnTefKat@_zE_oKorCk|AmqCixDsaB{lFjG_rVyvCotMmz@ifIdt@agD}gAsxEuHwcF{yAkdE|SeaH|lAarFyuBaeSdhC}rL~CohFn`AcjAc|CwiO`Ji~DuqB{gDqPouCvjCq~Oq^{pL|zAosE}Tc|@jwDouImjDenK~`A{qHoU{dFoq@kjAagAh}@utB{eGetDanDyl@inV_bDolDm_@ooFnr@u`Gd}FoyHu~FbzHboHogK|u@yuNyh@muHlbBupSrfBi|D`O{eK{pAq_FuWweG`m@auIdqEofOfgGsqH","url":"/motorcycle-roads/turkey/turkey/ride/plains-of-anatolia"},{"slat":"35.6701","slon":"35.8474","elat":"36.1596","elon":"36.1413","road_type_name":"Mountainous","road_type_id":"4","length":"79","title":"Lattakia to Antakya","rating":"3","comments_count":"1","is_long":"0","simplified_polyline":"ezuxEklxyE{nEg_Ek|EyUwkCkvBsvAgHgv@oqB}bCacCscARsjAeaBiwAoW__Cc{DerEm[ggAymEhnBq`KuxBehAkRkeAw_Vaq@smCavC{d@`UetJirCwt@dKgPjxB_qD`Q","polyline":"ezuxEklxyE{nEg_Ek|EyUwkCkvBsvAgHgv@oqB}bCacCscARsjAeaBiwAoW__Cc{DerEm[ggAymEhnBq`KuxBehAkRkeAw_Vaq@smCavC{d@`UetJirCwt@dKgPjxB_qD`Q","url":"/motorcycle-roads/syria/syria/ride/lattakia-to-antakya"},{"slat":"42.0287","slon":"34.9975","elat":"41.7391","elon":"32.3915","road_type_name":"Coastal","road_type_id":"2","length":"314","title":"Sinop - Amasra","rating":"4","comments_count":"1","is_long":"1","simplified_polyline":"ezo_GqlrtEhaCnhFhtAtuLpdDvrD_FtlClz@pQ|b@~tE|m@vYfXheR|aEvsFeYdqC}tCgYwf@j}GtlGpyB`d@ad@flClzEc|@rfD`_@mHbBnhAibAnrAkkCf_M_j@pv@gsAyBqzBptDteAt`Pm~CpsZd`@lcCq_AtuA|p@tdB}gBxrHaA~|Ojv@|oHqa@|hk@cvAhsXj^bkAsv@}FeR|jB~m@|PcfAtcBvf@fhAwh@hHge@diH|YvuFkfArxEp_@v{Aca@djFrwFpuQsCtvBx`BxKqs@hrA`q@thCdpAkH{WlnChqAn`Cqw@vGdMzyA`bC`kD{j@bn@|`@niB_a@~[jw@b~@iIdfBzn@{UlaA~zGh`@ovA]naBpvC`qIj~@|kKhr@tv@e@p}NrvAdzA{EzzHx{@vs@bSr{Bhe@wUsDztLdn@twCplCziBtpA~wEjrAjtO|tAyb@f_ChdDuOhpH","polyline":"ezo_GqlrtEhaCnhFhtAtuLpdDvrD_FtlClz@pQ|b@~tE|m@vYfXheR|aEvsFeYdqC}tCgYwf@j}GtlGpyB`d@ad@flClzEc|@rfD`_@mHbBnhAibAnrAkkCf_M_j@pv@gsAyBqzBptDteAt`Pm~CpsZd`@lcCq_AtuA|p@tdB}gBxrHaA~|Ojv@|oHqa@|hk@cvAhsXj^bkAsv@}FeR|jB~m@|PcfAtcBvf@fhAwh@hHge@diH|YvuFkfArxEp_@v{Aca@djFrwFpuQsCtvBx`BxKqs@hrA`q@thCdpAkH{WlnChqAn`Cqw@vGdMzyA`bC`kD{j@bn@|`@niB_a@~[jw@b~@iIdfBzn@{UlaA~zGh`@ovA]naBpvC`qIj~@|kKhr@tv@e@p}NrvAdzA{EzzHx{@vs@bSr{Bhe@wUsDztLdn@twCplCziBtpA~wEjrAjtO|tAyb@f_ChdDuOhpH","url":"/motorcycle-roads/turkey/turkey/ride/sinop-amasra"},{"slat":"36.8589","slon":"28.2691","elat":"37.0825","elon":"28.3634","road_type_name":"Mountainous","road_type_id":"4","length":"38","title":"Marmaris - K?z?la?aç","rating":"4","comments_count":"1","is_long":"0","simplified_polyline":"s}}_F_ipkDuaUobB{jCkoAs`CwaFrMy}AagFwz@_`AriCf@q}B_nCac@","polyline":"s}}_F_ipkDuaUobB{jCkoAs`CwaFrMy}AagFwz@_`AriCf@q}B_nCac@","url":"/motorcycle-roads/turkey/turkey/ride/marmaris-kizilagac"},{"slat":"37.3244","slon":"28.159","elat":"36.7555","elon":"27.6881","road_type_name":"Coastal","road_type_id":"2","length":"146","title":"Coastal Mountain Vistas","rating":"5","comments_count":"1","is_long":"0","simplified_polyline":"{{xbFkwzjD|zG{eF~cC}qDvkDo{PhkHg|IhzDlfAlcGswDvbC|yCdvDxr@u@b}BnfAkhChaFfz@iN`}Ar`CdbFjkDdpAe|DyyBvQ|j@reC~jA|gDlPx|CzoF|gDfuBvqEf[j`ElbE_e@dhG~tDtyCfJx_E|_@sAdkBh}KqFvdCzn@|p@yX~aNtmChdBcwCrjMf{AjgFrr@h{R","polyline":"{{xbFkwzjD|zG{eF~cC}qDvkDo{PhkHg|IhzDlfAlcGswDvbC|yCdvDxr@u@b}BnfAkhChaFfz@iN`}Ar`CdbFjkDdpAe|DyyBvQ|j@reC~jA|gDlPx|CzoF|gDfuBvqEf[j`ElbE_e@dhG~tDtyCfJx_E|_@sAdkBh}KqFvdCzn@|p@yX~aNtmChdBcwCrjMf{AjgFrr@h{R","url":"/motorcycle-roads/turkey/turkey/ride/coastal-mountain-vistas"},{"slat":"40.8837","slon":"29.4922","elat":"40.8148","elon":"29.9383","road_type_name":"Rural","road_type_id":"1","length":"49","title":"Eski gebze izmit yolu","rating":"4","comments_count":"1","is_long":"0","simplified_polyline":"}apxFqe_sDc_B}xDzaBuzIkfAsgIf|@}cCiA{zIsxAklDdI}eCteBmoD|p@keFhqAyaArSyhFrfGwkL","polyline":"}apxFqe_sDc_B}xDzaBuzIkfAsgIf|@}cCiA{zIsxAklDdI}eCteBmoD|p@keFhqAyaArSyhFrfGwkL","url":"/motorcycle-roads/turkey/turkey/ride/eski-gebze-izmit-yolu"},{"slat":"40.6782","slon":"29.5947","elat":"40.4901","elon":"29.5639","road_type_name":"Rural","road_type_id":"1","length":"30","title":"Boyal?ca","rating":"4","comments_count":"1","is_long":"0","simplified_polyline":"q|gwFwfssDhtCjiCzaFvFp_B|hBaNpzCz}D~NdyA|uA|oCa}Df{E_qAxa@}eAlb@~X","polyline":"q|gwFwfssDhtCjiCzaFvFp_B|hBaNpzCz}D~NdyA|uA|oCa}Df{E_qAxa@}eAlb@~X","url":"/motorcycle-roads/turkey/turkey/ride/boyalica"},{"slat":"37.8796","slon":"30.7821","elat":"36.6316","elon":"31.7571","road_type_name":"Mountainous","road_type_id":"4","length":"340","title":"Isparta Alanya turu 1 .gun","rating":"4","comments_count":"1","is_long":"1","simplified_polyline":"}jefFqe{zD`kAmaFwEet@{`@r\\sFwlDrmAjTx`C{jBoWagHouJ|g@sgIe|H{lEuvB}zCx|AgyEcCsbCovDmaK{yGkqHa_OyvA_rKhj@{rH~|BmbHvmDq}BrnDspFttEg|ChtAjaGr}EvxFt|EegBlbLgp@d`OspJ|iIucI|nC{e@p}GnsAdoB{`Bd}AbbAr{BqeE`Lh_@fqF_{ApxCbTdZ|j@tyG}u@xwAa}Bx@woDjjBkZzwAyaByjAccIlhDseAzxC}sHtbJ}mDpvGosJhaCeq@zmAbfBzmCsaCptBtfAxhA{fChuGcj@j\\u_Dt{BoXrxAr|AdnAoLdqAarEbcI|[bZvaEry@|{@|gCm`AfxDjpCptBwlAvyB~n@x|AosAjfC~nDrqAisAj~C}TbrAixAd`Etn@hxEguA|wBsyBblBlg@hoArgCt|Ayb@dJftAxZec@uCfw@dc@sTfRnvAyp@viBh`@vtClsBpfD`Rt{DhqAn~BphCxtAhTzqJb~KklTfmDgbR","polyline":"}jefFqe{zD`kAmaFwEet@{`@r\\sFwlDrmAjTx`C{jBoWagHouJ|g@sgIe|H{lEuvB}zCx|AgyEcCsbCovDmaK{yGkqHa_OyvA_rKhj@{rH~|BmbHvmDq}BrnDspFttEg|ChtAjaGr}EvxFt|EegBlbLgp@d`OspJ|iIucI|nC{e@p}GnsAdoB{`Bd}AbbAr{BqeE`Lh_@fqF_{ApxCbTdZ|j@tyG}u@xwAa}Bx@woDjjBkZzwAyaByjAccIlhDseAzxC}sHtbJ}mDpvGosJhaCeq@zmAbfBzmCsaCptBtfAxhA{fChuGcj@j\\u_Dt{BoXrxAr|AdnAoLdqAarEbcI|[bZvaEry@|{@|gCm`AfxDjpCptBwlAvyB~n@x|AosAjfC~nDrqAisAj~C}TbrAixAd`Etn@hxEguA|wBsyBblBlg@hoArgCt|Ayb@dJftAxZec@uCfw@dc@sTfRnvAyp@viBh`@vtClsBpfD`Rt{DhqAn~BphCxtAhTzqJb~KklTfmDgbR","url":"/motorcycle-roads/turkey/turkey/ride/isparta-alanya-turu-1-gun"},{"slat":"40.9347","slon":"29.3031","elat":"39.7748","elon":"30.5365","road_type_name":"Cruiser","road_type_id":"8","length":"291","title":"eskisehir","rating":"3","comments_count":"1","is_long":"1","simplified_polyline":"sdzxFw{yqD}]k{Az~@myDldQ_gM`bD{|F`nA__IfmCulChi@whGozBq}F`fAakBuGgzSnpA{bVysAcsCjWsfC{x@ilLpoA_eAj`A}tHhxDctCzzBkyK~q@a`PthC}hHu|DsfL`YusG_R{dBm\\z\\bgHxiCdhHhdFnxDlAbyAkuAfyGl|GhdBdgGvxAry[boAneEneBptA~wF|TzhDv}CdDpfCpx@fgAvmAoXn_Bu}Fx|Ag_A`uAdIhmDeuDhKpqBbcDleFzuCvAfyEsjAtsDjuB|cI_nA`hFlmDlwC}tBz`Jo_Az~IhoFj|Etu@fjAckEljC}{Dl}AauXpvDk~H|e@u~HtwIkwd@v}@ywAcxA{qHjeCkoCvGv~B","polyline":"sdzxFw{yqD}]k{Az~@myDldQ_gM`bD{|F`nA__IfmCulChi@whGozBq}F`fAakBuGgzSnpA{bVysAcsCjWsfC{x@ilLpoA_eAj`A}tHhxDctCzzBkyK~q@a`PthC}hHu|DsfL`YusG_R{dBm\\z\\bgHxiCdhHhdFnxDlAbyAkuAfyGl|GhdBdgGvxAry[boAneEneBptA~wF|TzhDv}CdDpfCpx@fgAvmAoXn_Bu}Fx|Ag_A`uAdIhmDeuDhKpqBbcDleFzuCvAfyEsjAtsDjuB|cI_nA`hFlmDlwC}tBz`Jo_Az~IhoFj|Etu@fjAckEljC}{Dl}AauXpvDk~H|e@u~HtwIkwd@v}@ywAcxA{qHjeCkoCvGv~B","url":"/motorcycle-roads/turkey/turkey/ride/eskisehir"},{"slat":"36.5155","slon":"30.5239","elat":"36.3727","elon":"29.4998","road_type_name":"Coastal","road_type_id":"2","length":"180","title":"End of Lycian Way","rating":"5","comments_count":"1","is_long":"0","simplified_polyline":"g|z}EavhyDb_HfnQtkDiWzwEdkAzpDdwFoEdeA~~Dq]uyCvlGz{@|~FpVvj@jsFr}@zXplBqTalBn}@teT|pAtwBzgCkd@_VhrAjeEbcD}UdgDczCxsDp{@t~AfnBv[z{@xjBuCjtEn~@pgFaaBrJaeBupCfUrq@}bAtyDvp@vqKxoCj{I_`B|zDgCfuCzvAbyBz_@dzDtdC`wEdxApi@g~@llIbl@fkD{gAfeF~BtxLcpBjpDi[`xCodAoLk}GtdCorCygCZewFmrEkU_sCsqD","polyline":"g|z}EavhyDb_HfnQtkDiWzwEdkAzpDdwFoEdeA~~Dq]uyCvlGz{@|~FpVvj@jsFr}@zXplBqTalBn}@teT|pAtwBzgCkd@_VhrAjeEbcD}UdgDczCxsDp{@t~AfnBv[z{@xjBuCjtEn~@pgFaaBrJaeBupCfUrq@}bAtyDvp@vqKxoCj{I_`B|zDgCfuCzvAbyBz_@dzDtdC`wEdxApi@g~@llIbl@fkD{gAfeF~BtxLcpBjpDi[`xCodAoLk}GtdCorCygCZewFmrEkU_sCsqD","url":"/motorcycle-roads/turkey/turkey/ride/end-of-lycian-way"},{"slat":"40.3451","slon":"27.979","elat":"39.3316","elon":"26.7031","road_type_name":"Mountainous","road_type_id":"4","length":"200","title":"Band?rma Ayval?k","rating":"4","comments_count":"1","is_long":"0","simplified_polyline":"a|fuFqswiDtp@`yBa]x|DvbCpgNrvPzmMzgDveGbaJraJ`tFhoC`o@wr@dHdbBx{BddAblAvQb_BkoArtFliCvbB_Yj}A|d@fvBw}CpqAdFrAux@l{@_Tl_BlGrCndAxgBoY|oBxh@hcGffDtgG}fAxgBnm@vnE|jG`rDjLrw@xbBnrDht@b{BpbDxx@yC{m@~vIbtAbPp_ArmBhxDnvNgJzeHjbFzwFhs@n~Bu@r|Dhz@`aAgX~lMvnAhfJ_|ApgBu_@trDjuBfhDn`Dl}AhxAlrD|`CbsArv@dsEbvFfjK`sGlxB~eGtyF|tCnvR","polyline":"a|fuFqswiDtp@`yBa]x|DvbCpgNrvPzmMzgDveGbaJraJ`tFhoC`o@wr@dHdbBx{BddAblAvQb_BkoArtFliCvbB_Yj}A|d@fvBw}CpqAdFrAux@l{@_Tl_BlGrCndAxgBoY|oBxh@hcGffDtgG}fAxgBnm@vnE|jG`rDjLrw@xbBnrDht@b{BpbDxx@yC{m@~vIbtAbPp_ArmBhxDnvNgJzeHjbFzwFhs@n~Bu@r|Dhz@`aAgX~lMvnAhfJ_|ApgBu_@trDjuBfhDn`Dl}AhxAlrD|`CbsArv@dsEbvFfjK`sGlxB~eGtyF|tCnvR","url":"/motorcycle-roads/turkey/turkey/ride/bandirma-ayvalik-2"},{"slat":"36.3067","slon":"30.1588","elat":"36.6355","elon":"29.2072","road_type_name":"Rural","road_type_id":"1","length":"162","title":"Gö?übeli Geçidi","rating":"4","comments_count":"1","is_long":"0","simplified_polyline":"scr|EykawDyrFiAmaErgB}~Fyc@{Fnl@usGd~AsjIdzMfWx~AwaD|pFvo@h[q|Bfv@o|A|pEqz@gu@u|E|Iy|FrsEo|MhZiKnzGwoAflCmrChqDgkDr|AmrBr@q{AriBjXppD{cBk@}e@n{@jY~aBrsE|jGay@ry@xzAdmFgvCrmOj|BbgJrgB~b@fu@lnDvrGdmCvZym@d{@bg@dzA|gFrzCgg@`mD~uBl}AhI`m@b~BmcA|_Ov{AzsMgj@rcA","polyline":"scr|EykawDyrFiAmaErgB}~Fyc@{Fnl@usGd~AsjIdzMfWx~AwaD|pFvo@h[q|Bfv@o|A|pEqz@gu@u|E|Iy|FrsEo|MhZiKnzGwoAflCmrChqDgkDr|AmrBr@q{AriBjXppD{cBk@}e@n{@jY~aBrsE|jGay@ry@xzAdmFgvCrmOj|BbgJrgB~b@fu@lnDvrGdmCvZym@d{@bg@dzA|gFrzCgg@`mD~uBl}AhI`m@b~BmcA|_Ov{AzsMgj@rcA","url":"/motorcycle-roads/turkey/turkey/ride/gogubeli-gecidi"},{"slat":"40.5775","slon":"30.8677","elat":"40.5956","elon":"30.9812","road_type_name":"Rural","road_type_id":"1","length":"18","title":"Dokurcun","rating":"4.5","comments_count":"2","is_long":"0","simplified_polyline":"ghtvFazk{Dqn@ya@rd@_TkY}xFoy@kpA|ImwDaZoiA}x@wCQur@zv@_F","polyline":"ghtvFazk{Dqn@ya@rd@_TkY}xFoy@kpA|ImwDaZoiA}x@wCQur@zv@_F","url":"/motorcycle-roads/turkey/turkey/ride/dokurcun"},{"slat":"40.3907","slon":"28.8015","elat":"40.3846","elon":"28.8658","road_type_name":"Coastal","road_type_id":"2","length":"9","title":"Trilye - Mudanya","rating":"5","comments_count":"1","is_long":"0","simplified_polyline":"ayouFshxnDdcAwxF_]}vC","polyline":"ayouFshxnDdcAwxF_]}vC","url":"/motorcycle-roads/turkey/turkey/ride/trilye-mudanya"},{"slat":"40.8566","slon":"29.3755","elat":"40.6119","elon":"29.2713","road_type_name":"Rural","road_type_id":"1","length":"356","title":"Lake Iznik : Istanbul - Korfez - Essenkoy - Nicaera","rating":"4","comments_count":"1","is_long":"1","simplified_polyline":"qwjxFgphrDnbEheAvfFwAr`DauBckAihDovAoGckCupSbNks@deBgBnhAcsAtiAo_E}`Be`Hjq@coB}N_{DrIvbE_~@|oAd}@o{A}HkuSfjBunVwCgjNny@}u@vwCbt@znA|t@~hA~_HsJhxEgdAt_DkF`dKxkEjwe@ohAr~G|u@|oRxbAz_Fe]fqCb|A~bDd`Al|OnbAhsAqt@ncGvwBz{Jcb@jwDr]njMf{@pqB_v@b|Ctq@|hCj}CboD`{FxiQ|rCfOrOeqAtuB{k@d`A}nBfdA~b@h{AceBfpAesFlPwyG|j@s\\srCyrHoMyfL`gFcdGbr@yrEt`BeB}Zs_N~q@onAz_AoAo[qsB{`ApGnd@epNjpC_xJtg@cuJrIuu^m~@_qCkDcaEkzDk~FayApe@yjDxuHgGp_B_fBb_@or@hkEbkAlbLcMtyG}oCheMjb@~gObhAzxDgm@j{@gqCnCkyB~eAgyAsY}tAnpAu}Bd]}aAlqBcjAeA","polyline":"qwjxFgphrDnbEheAvfFwAr`DauBckAihDovAoGckCupSbNks@deBgBnhAcsAtiAo_E}`Be`Hjq@coB}N_{DrIvbE_~@|oAd}@o{A}HkuSfjBunVwCgjNny@}u@vwCbt@znA|t@~hA~_HsJhxEgdAt_DkF`dKxkEjwe@ohAr~G|u@|oRxbAz_Fe]fqCb|A~bDd`Al|OnbAhsAqt@ncGvwBz{Jcb@jwDr]njMf{@pqB_v@b|Ctq@|hCj}CboD`{FxiQ|rCfOrOeqAtuB{k@d`A}nBfdA~b@h{AceBfpAesFlPwyG|j@s\\srCyrHoMyfL`gFcdGbr@yrEt`BeB}Zs_N~q@onAz_AoAo[qsB{`ApGnd@epNjpC_xJtg@cuJrIuu^m~@_qCkDcaEkzDk~FayApe@yjDxuHgGp_B_fBb_@or@hkEbkAlbLcMtyG}oCheMjb@~gObhAzxDgm@j{@gqCnCkyB~eAgyAsY}tAnpAu}Bd]}aAlqBcjAeA","url":"/motorcycle-roads/turkey/turkey/ride/lake-iznik-istanbul-korfez-essenkoy-nicaera"},{"slat":"41.1086","slon":"29.1644","elat":"41.0536","elon":"29.2902","road_type_name":"Rural","road_type_id":"1","length":"252","title":"Black Sea Coast : Istanbul - Kandira","rating":"5","comments_count":"1","is_long":"1","simplified_polyline":"s}{yFod_qDfNa|Eu_@mnCyjAkt@ey@e`I{b@{eAm~@_BkKk_DkcFqjEgNexBinAmLiLquEvbCcuN|iBmnAof@ie@`Wq~Hp_BeuDe[mjHheAo`C}v@il@btAuvAi}@_{C|t@q{AcUk`C}~@}rClgBubAyd@cgAbqA{kB{n@y|At[iwCljIslNrsB_r@bSubCzv@n`@gXgc@xpB}O}]{hDt`A_gA_HodAinA{s@wlE}eQvnAiaEk_@evBmhAydCgpDi|BfpDh|BhhAneCn_@huBmoA|~DflEjeQ|mAvu@fIlcAq`AriAx]zhDinBtNzUdd@ku@}a@mQp_C_xBxx@cq@pvBhO|qBaxCbcFrh@nrDtbAdjAqk@r|A~n@bvIdaD|~LlaAtNxq@zxBagAfhG|CzvEuq@|d@}W~cGorGvq@s{@djAlWxyBsdC~^|`AbgEjiC|aAsc@c_Al[ed@bhAju@feC~CmHvgA}{B~o@qI`~@hu@hs@vlAduNnnD|fD","polyline":"s}{yFod_qDfNa|Eu_@mnCyjAkt@ey@e`I{b@{eAm~@_BkKk_DkcFqjEgNexBinAmLiLquEvbCcuN|iBmnAof@ie@`Wq~Hp_BeuDe[mjHheAo`C}v@il@btAuvAi}@_{C|t@q{AcUk`C}~@}rClgBubAyd@cgAbqA{kB{n@y|At[iwCljIslNrsB_r@bSubCzv@n`@gXgc@xpB}O}]{hDt`A_gA_HodAinA{s@wlE}eQvnAiaEk_@evBmhAydCgpDi|BfpDh|BhhAneCn_@huBmoA|~DflEjeQ|mAvu@fIlcAq`AriAx]zhDinBtNzUdd@ku@}a@mQp_C_xBxx@cq@pvBhO|qBaxCbcFrh@nrDtbAdjAqk@r|A~n@bvIdaD|~LlaAtNxq@zxBagAfhG|CzvEuq@|d@}W~cGorGvq@s{@djAlWxyBsdC~^|`AbgEjiC|aAsc@c_Al[ed@bhAju@feC~CmHvgA}{B~o@qI`~@hu@hs@vlAduNnnD|fD","url":"/motorcycle-roads/turkey/turkey/ride/black-sea-coast-istanbul-kandira"},{"slat":"40.3413","slon":"27.9307","elat":"39.3244","elon":"26.8326","road_type_name":"Cruiser","road_type_id":"8","length":"314","title":"Bandirma Ayvalik","rating":"3","comments_count":"1","is_long":"1","simplified_polyline":"mdfuFoiniD`gCraOt_FniCjqCjtDfyD``CzdDbcGrfJxdJtgLvcGrnAhR|mBikAl~AnxAhdC|k@dkCePrwFvqCd|AyUzIkm@zfApIH}}EhdBeMfyJ~pErqAgp@phB~MlAuq@h}Bd^n~FlfHjnDtJd}@hdBn}Df_A|nBfxC~jHci@bY{qAvhAzpBn`@~uEtlDtfB`lB}]n~AfrDpAziB~xDjtExm@fkCbiD|gAvp@mgBrrFq|@jvEm`DkNge@zdAdGnkCvxDf}CdrAvgDvdEjhGheCtZnyAneB~mA{[z`B|o@gl@jeDhvArhBo[`zGniEpnEp{FdJvrAhrEwwA`kAfpDdg@oe@t_@~ZviBsjBxwFsk@ze@_`A`hGtdB~}FaxB`bDr[or@iwBz\\e[{\\n[nr@~vB_dD}Z_}FtwBghG}dB{c@f_AiqFxh@{_Ap_BouBxYynAmrDe~@hBewLz~JqbBuXuiHz|By_AmTkq@fkDzl@joA__BbiBioApeOznAtcE}eBlcMxk@tgAmlH~|DanApsB","polyline":"mdfuFoiniD`gCraOt_FniCjqCjtDfyD``CzdDbcGrfJxdJtgLvcGrnAhR|mBikAl~AnxAhdC|k@dkCePrwFvqCd|AyUzIkm@zfApIH}}EhdBeMfyJ~pErqAgp@phB~MlAuq@h}Bd^n~FlfHjnDtJd}@hdBn}Df_A|nBfxC~jHci@bY{qAvhAzpBn`@~uEtlDtfB`lB}]n~AfrDpAziB~xDjtExm@fkCbiD|gAvp@mgBrrFq|@jvEm`DkNge@zdAdGnkCvxDf}CdrAvgDvdEjhGheCtZnyAneB~mA{[z`B|o@gl@jeDhvArhBo[`zGniEpnEp{FdJvrAhrEwwA`kAfpDdg@oe@t_@~ZviBsjBxwFsk@ze@_`A`hGtdB~}FaxB`bDr[or@iwBz\\e[{\\n[nr@~vB_dD}Z_}FtwBghG}dB{c@f_AiqFxh@{_Ap_BouBxYynAmrDe~@hBewLz~JqbBuXuiHz|By_AmTkq@fkDzl@joA__BbiBioApeOznAtcE}eBlcMxk@tgAmlH~|DanApsB","url":"/motorcycle-roads/turkey/turkey/ride/bandirma-ayvalik-1"},{"slat":"37.8529","slon":"32.4224","elat":"36.7288","elon":"31.5672","road_type_name":"Rural","road_type_id":"1","length":"216","title":"Trans - Taurus: Anatolia Plateau - Mediterranean","rating":"5","comments_count":"1","is_long":"1","simplified_polyline":"_d`fFao{dE~dDhhAxqAx~CzgBhaBv}Bj[h|@pwBd]|vKya@djDndCnsSuYptMtrFzuB|nHthKt@d_D`jIt}FlaCz_DmyCcoDlyCboDjzHzbCzxHjHdvFvbBzqDimBlwC`eBxvDikApl@keAjdC_L_BlnAxlIewCvrBkoCr}HdY~pFe|Bnn@tfEfsEtsE}a@bz@ni@ZaM~s@neA|_Aj`@b~KheApvBfiCm`AlxDvpCzpB_lAp`Ctm@hyAgsAnvAlaDbr@zLvwAcwAh}CoTfnAouAt_C`o@~nEcl@ddEcdDhoB~o@vfAt`CdfBk_@ZvoA`_@wa@qIxs@fb@sWjWtnAqr@rwBb_@zqChtBthDhS|~D|kAzxB~mCrzAtDraG","polyline":"_d`fFao{dE~dDhhAxqAx~CzgBhaBv}Bj[h|@pwBd]|vKya@djDndCnsSuYptMtrFzuB|nHthKt@d_D`jIt}FlaCz_DmyCcoDlyCboDjzHzbCzxHjHdvFvbBzqDimBlwC`eBxvDikApl@keAjdC_L_BlnAxlIewCvrBkoCr}HdY~pFe|Bnn@tfEfsEtsE}a@bz@ni@ZaM~s@neA|_Aj`@b~KheApvBfiCm`AlxDvpCzpB_lAp`Ctm@hyAgsAnvAlaDbr@zLvwAcwAh}CoTfnAouAt_C`o@~nEcl@ddEcdDhoB~o@vfAt`CdfBk_@ZvoA`_@wa@qIxs@fb@sWjWtnAqr@rwBb_@zqChtBthDhS|~D|kAzxB~mCrzAtDraG","url":"/motorcycle-roads/turkey/turkey/ride/trans-taurus-anatolia-plateau-mediterranean"},{"slat":"42.6329","slon":"25.3873","elat":"42.8649","elon":"25.3218","road_type_name":"Mountainous","road_type_id":"4","length":"50","title":"Shipka pass (Kazanlak - Gabrovo E85)","rating":"5","comments_count":"1","is_long":"0","simplified_polyline":"}zecGen}yCcuEjgB{rCwh@sfAxmAr^ar@m~@{A|Wu`Awk@h`@tUin@wY`Zy}B{_Awv@bdBnb@ntAg]viA`j@vc@uhAxXgq@haCo~Ak@sKxeAopDwc@aL{iAorAgh@gc@nFxPno@ic@kiAirAmPcnBcA{aA~jB","polyline":"}zecGen}yCcuEjgB{rCwh@sfAxmAr^ar@m~@{A|Wu`Awk@h`@tUin@wY`Zy}B{_Awv@bdBnb@ntAg]viA`j@vc@uhAxXgq@haCo~Ak@sKxeAopDwc@aL{iAorAgh@gc@nFxPno@ic@kiAirAmPcnBcA{aA~jB","url":"/motorcycle-roads/turkey/turkey/ride/shipka-pass-kazanlak-gabrovo-e85"},{"slat":"40.6152","slon":"27.1142","elat":"40.9747","elon":"27.512","road_type_name":"Coastal","road_type_id":"2","length":"59","title":"Åžarköy - Tekirdag","rating":"4.5","comments_count":"2","is_long":"0","simplified_polyline":"et{vFqvndD{zBkpK_eLygXinEsoC}cCk[}oCqrDynBfAwWucAkqA{b@{m@k{Bib@dQiV_kE_q@qM_w@alC{`HwEenNu{I","polyline":"et{vFqvndD{zBkpK_eLygXinEsoC}cCk[}oCqrDynBfAwWucAkqA{b@{m@k{Bib@dQiV_kE_q@qM_w@alC{`HwEenNu{I","url":"/motorcycle-roads/turkey/turkey/ride/azarkoy-tekirdag"},{"slat":"40.334","slon":"31.708","elat":"40.1724","elon":"31.9025","road_type_name":"Mountainous","road_type_id":"4","length":"42","title":"Beypazari - Celtikderesi","rating":"3","comments_count":"1","is_long":"0","simplified_polyline":"u}duFifo`E`nA~`@dKbpArp@iiAfxAno@|f@mx@rwBcKypAgrQliBcoCmCgdBxx@i]o\\kq@`wCmp@nkDmiDz~FwkB","polyline":"u}duFifo`E`nA~`@dKbpArp@iiAfxAno@|f@mx@rwBcKypAgrQliBcoCmCgdBxx@i]o\\kq@`wCmp@nkDmiDz~FwkB","url":"/motorcycle-roads/turkey/turkey/ride/beypazari-celtikderesi"},{"slat":"40.798","slon":"32.1877","elat":"40.5914","elon":"31.8063","road_type_name":"Mountainous","road_type_id":"4","length":"52","title":"Gerede - Kartalkaya Yolu","rating":"3","comments_count":"1","is_long":"0","simplified_polyline":"gq~wFyeqcEm_@laCziHxtGf~Kfa`@~pE~{Cc@h|FxwBzwAbc@l{B}kAvoA|bAziBgZraCzrAdeAlhDdK","polyline":"gq~wFyeqcEm_@laCziHxtGf~Kfa`@~pE~{Cc@h|FxwBzwAbc@l{B}kAvoA|bAziBgZraCzrAdeAlhDdK","url":"/motorcycle-roads/turkey/turkey/ride/gerede-kartalkaya-yolu"},{"slat":"36.3499","slon":"32.208","elat":"36.3174","elon":"33.872","road_type_name":"Coastal","road_type_id":"2","length":"218","title":"D400 : Alanya - Silifke Yolu","rating":"4","comments_count":"1","is_long":"1","simplified_polyline":"_rz|EssqcEz}FkaGzyAwjF~cFslF|lE{vJphE{`Bp@mjCpeB}qBlbBgk@|x@jk@taAolDp~CwkEr@gcB|xAo]nYq|Cwi@q@g]owAf{Ak}His@clAzlA_lCptApcAjoEwjGvRkhCij@k_Ctf@qQq[kx@zkA}rGqzAieA`Z_eBoiEw~DscBisD`r@}uDio@mnEqyAgeBgHk`Efy@{eQkeD_{Es{A_jF|q@u|IgTs`SajCo`I~@ivDrv@if@a|DclH|_@ux@v_At]ld@_h@sgByhSzjAmaCquEczGsjCylJc`AirIiuDcqJxU|sA{s@oy@jt@|x@uYw{AwrB}|BeNg{B}iAcT}qDwmF","polyline":"_rz|EssqcEz}FkaGzyAwjF~cFslF|lE{vJphE{`Bp@mjCpeB}qBlbBgk@|x@jk@taAolDp~CwkEr@gcB|xAo]nYq|Cwi@q@g]owAf{Ak}His@clAzlA_lCptApcAjoEwjGvRkhCij@k_Ctf@qQq[kx@zkA}rGqzAieA`Z_eBoiEw~DscBisD`r@}uDio@mnEqyAgeBgHk`Efy@{eQkeD_{Es{A_jF|q@u|IgTs`SajCo`I~@ivDrv@if@a|DclH|_@ux@v_At]ld@_h@sgByhSzjAmaCquEczGsjCylJc`AirIiuDcqJxU|sA{s@oy@jt@|x@uYw{AwrB}|BeNg{B}iAcT}qDwmF","url":"/motorcycle-roads/turkey/turkey/ride/d400-alanya-silifke-yolu"},{"slat":"38.6756","slon":"26.7509","elat":"38.7489","elon":"26.8264","road_type_name":"Coastal","road_type_id":"2","length":"21","title":"D250 : Eski Foca  - Yeni Foca","rating":"4","comments_count":"2","is_long":"0","simplified_polyline":"my`kFexgbDmrBlvByc@{p@qsC~k@mi@aiAet@zDhb@urFouAw|@kI{sE","polyline":"my`kFexgbDmrBlvByc@{p@qsC~k@mi@aiAet@zDhb@urFouAw|@kI{sE","url":"/motorcycle-roads/turkey/turkey/ride/d250-eski-foca-yeni-foca"},{"slat":"37.731","slon":"29.1616","elat":"37.2177","elon":"28.3752","road_type_name":"Mountainous","road_type_id":"4","length":"129","title":"Denizli - Mugla","rating":"5","comments_count":"2","is_long":"0","simplified_polyline":"wzheFax~pDth@meGz{D?hhC_mEtcAeP|lEjhCztAhhCbP~sHztArjDhhCdwBxtA~lEngJhvItcAngJnyCxbH~eBhvInr@ha@~eBscAbwBbwBnr@~sHx{D~eBz{DhvIhhCja@xtArjDtjDnr@nyCcPlgJx{DdPhhCxtAnr@?dwBjhCrqG~eB~eB_fBdeI{tArcAc~ExiKqe@hsF","polyline":"wzheFax~pDth@meGz{D?hhC_mEtcAeP|lEjhCztAhhCbP~sHztArjDhhCdwBxtA~lEngJhvItcAngJnyCxbH~eBhvInr@ha@~eBscAbwBbwBnr@~sHx{D~eBz{DhvIhhCja@xtArjDtjDnr@nyCcPlgJx{DdPhhCxtAnr@?dwBjhCrqG~eB~eB_fBdeI{tArcAc~ExiKqe@hsF","url":"/motorcycle-roads/turkey/turkey/ride/denizli-mugla"},{"slat":"40.9913","slon":"39.7499","elat":"39.9803","elon":"40.9419","road_type_name":"Mountainous","road_type_id":"4","length":"250","title":"D885 / D050 / D915 Trabzon - Erzurum","rating":"5","comments_count":"1","is_long":"1","simplified_polyline":"g|fyFg|rqFhMlcAztAnr@rcAucAnyCdP~sHtjDdzRfrVxbHnyCnr@jhCxtAha@?tcAtqGn`Gor@xtAx{DbeI~eBtqGbP~lEjhCnr@beIn`Gnr@ePtcA_mExtAytAnr@yiKhoFuxJ~eBdPnr@or@xbHouP?ioFnr@or@dP_mEhhCujDor@oyCdPcsO~eBo`G?sjDxtA_fBdwBehYePmnMdwB{bHx{D}lEtqGidPhoF{{D~lEs_Nka@ivIjhCnr@rcAucAztA?xtAewBhhCnr@~lEytAtjDsqGha@e~EtcAia@ha@_fBrcAka@nr@ja@cPewBbeI_fBdPo`GtjDsxJePioF_fBkhCdPy{D_mEspd@ePivIoyC~hRihCka@ytAja@koFewBsxJypNujDihCia@hhCujDxtAytAor@ujDtjDmyCeP{{DsjDscA?ewBhoFewB~eBnr@baV_fBd~EmnMbP_mEs_Nha@e~E_fBy{Dnr@ujDor@cwBy{DxbH?hhCoyCor@ioFnr@y{DxbH_fB?ucAtcAucA~lEtcAbsOi}Ld~EoyCblLihCtjDewBha@ewB~lEihCtcAsjDnnMewBha@ia@ia@{{DhhCcwB~lEihCrcA_fBcP{{DhhCcj@rkD","polyline":"g|fyFg|rqFhMlcAztAnr@rcAucAnyCdP~sHtjDdzRfrVxbHnyCnr@jhCxtAha@?tcAtqGn`Gor@xtAx{DbeI~eBtqGbP~lEjhCnr@beIn`Gnr@ePtcA_mExtAytAnr@yiKhoFuxJ~eBdPnr@or@xbHouP?ioFnr@or@dP_mEhhCujDor@oyCdPcsO~eBo`G?sjDxtA_fBdwBehYePmnMdwB{bHx{D}lEtqGidPhoF{{D~lEs_Nka@ivIjhCnr@rcAucAztA?xtAewBhhCnr@~lEytAtjDsqGha@e~EtcAia@ha@_fBrcAka@nr@ja@cPewBbeI_fBdPo`GtjDsxJePioF_fBkhCdPy{D_mEspd@ePivIoyC~hRihCka@ytAja@koFewBsxJypNujDihCia@hhCujDxtAytAor@ujDtjDmyCeP{{DsjDscA?ewBhoFewB~eBnr@baV_fBd~EmnMbP_mEs_Nha@e~E_fBy{Dnr@ujDor@cwBy{DxbH?hhCoyCor@ioFnr@y{DxbH_fB?ucAtcAucA~lEtcAbsOi}Ld~EoyCblLihCtjDewBha@ewB~lEihCtcAsjDnnMewBha@ia@ia@{{DhhCcwB~lEihCrcA_fBcP{{DhhCcj@rkD","url":"/motorcycle-roads/turkey/turkey/ride/d885-d050-d915-trabzon-erzurum"},{"slat":"36.5955","slon":"30.543","elat":"36.207","elon":"29.6294","road_type_name":"Coastal","road_type_id":"2","length":"144","title":"D400 : Olympos - Kas ( Southern Turkish Coast )","rating":"4","comments_count":"2","is_long":"0","simplified_polyline":"gqj~EcllyDzhAiBbd@inAtzFln@r`@kc@~FpkC`_CprApGxeBdwF|dMjmDaWvpEnhAhvDryFoEdeAn_Es\\ezCxkGr{@j~FxVhk@~vFlaAvaApjTjmAnoBzgCkd@_VhrAveEldDiVzeDazCptDb{@r}AllBxYf}@~jB{BlvEn~@pgFaaBrJaeBupCfUrq@}bAtyDfq@tsKhoClyIwnBb}FljCz}HsH~fAvfCjzEjwAjh@us@bfF","polyline":"gqj~EcllyDzhAiBbd@inAtzFln@r`@kc@~FpkC`_CprApGxeBdwF|dMjmDaWvpEnhAhvDryFoEdeAn_Es\\ezCxkGr{@j~FxVhk@~vFlaAvaApjTjmAnoBzgCkd@_VhrAveEldDiVzeDazCptDb{@r}AllBxYf}@~jB{BlvEn~@pgFaaBrJaeBupCfUrq@}bAtyDfq@tsKhoClyIwnBb}FljCz}HsH~fAvfCjzEjwAjh@us@bfF","url":"/motorcycle-roads/turkey/turkey/ride/d400-olympos-kas-southern-turkish-coast"}]