[{"slat":"11.9527","slon":"108.499","elat":"10.7814","elon":"106.754","road_type_name":"Rural","road_type_id":"1","length":"593","title":"Vietnam- Dahlat to Ho Chi Minh City","rating":"3","comments_count":"1","is_long":"1","simplified_polyline":"ep}gAiefuSlqA`gBmaArpA|wAxrCxoFi_@hqBq{BbeHdbCbgEvrCvvBd`DbjGvaDtC~pFanBdgD}eCdyA`BdvDqiBzhDdiD|_@~{BfqBoxA`dJbn@xrAsLfyFp}@PlRh{@c{@vmDfUfaBxpD~yBhoAlpCxpBm}@fVti@{w@vc@uA~lAf`Ab}AjsAfW}eAa_@rb@}kCblD}i@zQusAfoClNl`Amg@l|De`I`}CkIac@vw@t^i~@_kCk{@~_AeeCwnDu`BclAde@__CwzCnAmvHdrAc|Au{AogQnhG{tAnxA{fDtaLsXt~Ain@uCoi@phBqTzhBpvB~y@~Dr^mr@`uBhu@huCq}BrcLpwBjkR]sGejArQniAvsByIjiAgeBlcBlMz_CaxAwgB~mAau@rLoH{lCymA_Rq_AcfBue@gaRzlFwxJjiC{I{yAjHplArwAoNfwAdr@flAh|G|cEdcDthFteE|dD}oGtvIcaNk@ubBz}@}pAhlFzGjqAzeArN{eAsNvPp}BlbFlkDvzE~xHltNxcH`xIvy@zyBlgAprChxEtcCwF{fA|sCjaBzoDzj@b_McsAvh@_XbgAzeBtnAn_G~lNxtBnrSa^voDjsKlwAta@ft@~sEf{@fyHoqB`zE}oDz{@t^byA`rCe_AvrFroHbmHdi@vfGppCp~CsJpkBhyCduBbfAia@`qGtwD`PrgG|mDh|DcI`jPruBfuBlNt_Eh_BlfAdi@yXezBpkAr@puAadExnG~MzuBygC|hI_IhoJmzKhjFsrHGe|Ir`Dk}HnsEubEtmEc_@bRgHak@mrCreMkaA|lStSxgFrhAaB","polyline":"ep}gAiefuSlqA`gBmaArpA|wAxrCxoFi_@hqBq{BbeHdbCbgEvrCvvBd`DbjGvaDtC~pFanBdgD}eCdyA`BdvDqiBzhDdiD|_@~{BfqBoxA`dJbn@xrAsLfyFp}@PlRh{@c{@vmDfUfaBxpD~yBhoAlpCxpBm}@fVti@{w@vc@uA~lAf`Ab}AjsAfW}eAa_@rb@}kCblD}i@zQusAfoClNl`Amg@l|De`I`}CkIac@vw@t^i~@_kCk{@~_AeeCwnDu`BclAde@__CwzCnAmvHdrAc|Au{AogQnhG{tAnxA{fDtaLsXt~Ain@uCoi@phBqTzhBpvB~y@~Dr^mr@`uBhu@huCq}BrcLpwBjkR]sGejArQniAvsByIjiAgeBlcBlMz_CaxAwgB~mAau@rLoH{lCymA_Rq_AcfBue@gaRzlFwxJjiC{I{yAjHplArwAoNfwAdr@flAh|G|cEdcDthFteE|dD}oGtvIcaNk@ubBz}@}pAhlFzGjqAzeArN{eAsNvPp}BlbFlkDvzE~xHltNxcH`xIvy@zyBlgAprChxEtcCwF{fA|sCjaBzoDzj@b_McsAvh@_XbgAzeBtnAn_G~lNxtBnrSa^voDjsKlwAta@ft@~sEf{@fyHoqB`zE}oDz{@t^byA`rCe_AvrFroHbmHdi@vfGppCp~CsJpkBhyCduBbfAia@`qGtwD`PrgG|mDh|DcI`jPruBfuBlNt_Eh_BlfAdi@yXezBpkAr@puAadExnG~MzuBygC|hI_IhoJmzKhjFsrHGe|Ir`Dk}HnsEubEtmEc_@bRgHak@mrCreMkaA|lStSxgFrhAaB","url":"/motorcycle-roads/vietnam/vietnam/ride/vietnam-dahlat-to-ho-chi-minh-city"},{"slat":"22.9253","slon":"105.774","elat":"22.9232","elon":"105.789","road_type_name":"Off Road","road_type_id":"9","length":"5","title":"Me Pia Pass","rating":"4","comments_count":"1","is_long":"0","simplified_polyline":"qr|jC_~qdSnRk}A","polyline":"qr|jC_~qdSnRk}A","url":"/motorcycle-roads/vietnam/vietnam/ride/me-pia-pass"},{"slat":"23.276","slon":"105.366","elat":"23.169","elon":"105.409","road_type_name":"Rural","road_type_id":"1","length":"21","title":"Happiness Road /  Mã Pí Lèng Pass ( QL4C ) : Mèo V?c - ??ng V?n","rating":"5","comments_count":"1","is_long":"0","simplified_polyline":"ydamCyibbSflAijBz`@jo@paBsrEfn@hTrz@}lAzaJ`x@","polyline":"ydamCyibbSflAijBz`@jo@paBsrEfn@hTrz@}lAzaJ`x@","url":"/motorcycle-roads/vietnam/vietnam/ride/happiness-road-ma-pi-leng-pass-ql4c-meo-vạc-đồng-van"},{"slat":"17.5206","slon":"106.287","elat":"16.3856","elon":"107.107","road_type_name":"Rural","road_type_id":"1","length":"299","title":"Ho Chi Minh trail Hue - Phong Nha","rating":"5","comments_count":"1","is_long":"1","simplified_polyline":"_h}iBscvgSvFkv@ffChj@`}AsvAcCgw@nh@nSwNqu@nz@udAsVqe@_t@xb@nPgiBgr@mY~e@kbAa}@}t@xwBey@oDad@niGsJ~{Bi`AeSclArvBjPl{@q{@bbBbUfa@mp@`tBeB_]{\\|iA_OgMihAnq@ys@|iAlf@oMuiBj_C~}AvwBo`AffCbvAfkC{aCrnAbmBnlDi`B~JeqAv~DwwC`aBqV`qA|~@fx@av@ldAfi@~nBccFvIszDlbAuIxbBy}LrvB}v@bhH~Pjo@yx@leB~jB~D~jBla@sOriA~fBpJpiBbhAem@thDpZ|zBbjBlt@i{@ps@rt@fy@uf@b|Avs@vqBijCdsAfiC|U{_@nuBfiAr`@gZ_^{fBb}A}jC`}CdrFzyBm|@ziDguPdrAsIlmLepMmn@izDzt@ey@wc@{`Ab]wi@kmBlTk_@mbCzgBuwApW{|Cj}CqcCryDyxMvrAg~@lLdw@niEin@zbBekDfbD`iBnqE_qCYvrAr`BlFzfEetAvkBtb@hqBwpA`OgxAf|@oKezBoeFuqAks@mr@ulDpyBqiB","polyline":"_h}iBscvgSvFkv@ffChj@`}AsvAcCgw@nh@nSwNqu@nz@udAsVqe@_t@xb@nPgiBgr@mY~e@kbAa}@}t@xwBey@oDad@niGsJ~{Bi`AeSclArvBjPl{@q{@bbBbUfa@mp@`tBeB_]{\\|iA_OgMihAnq@ys@|iAlf@oMuiBj_C~}AvwBo`AffCbvAfkC{aCrnAbmBnlDi`B~JeqAv~DwwC`aBqV`qA|~@fx@av@ldAfi@~nBccFvIszDlbAuIxbBy}LrvB}v@bhH~Pjo@yx@leB~jB~D~jBla@sOriA~fBpJpiBbhAem@thDpZ|zBbjBlt@i{@ps@rt@fy@uf@b|Avs@vqBijCdsAfiC|U{_@nuBfiAr`@gZ_^{fBb}A}jC`}CdrFzyBm|@ziDguPdrAsIlmLepMmn@izDzt@ey@wc@{`Ab]wi@kmBlTk_@mbCzgBuwApW{|Cj}CqcCryDyxMvrAg~@lLdw@niEin@zbBekDfbD`iBnqE_qCYvrAr`BlFzfEetAvkBtb@hqBwpA`OgxAf|@oKezBoeFuqAks@mr@ulDpyBqiB","url":"/motorcycle-roads/vietnam/vietnam/ride/ho-chi-minh-trail-hue-phong-nha"},{"slat":"16.1026","slon":"107.376","elat":"15.7718","elon":"107.812","road_type_name":"Mountainous","road_type_id":"4","length":"126","title":"Ho Chi Minh Train between Hoi An and Hue","rating":"5","comments_count":"1","is_long":"0","simplified_polyline":"{}gaBcwjnS_sBaxCnn@ynAkZafB~qDurDayA{EdMmn@~fBsSn_@{_Ay^qi@n|@cx@rnBf~AnNsgBlqAq~@|Qte@vvBoi@xlBdWzg@gi@~pBrd@~nCcuCd}CoS{fA_oAs^ytB|b@_}Bu{@}hAhcAyx@bLwxAjjA}H}Wy|Chj@gItl@llAx}AefA`pCfEn~Dk|@ePmy@x}@rLuJemE|sE{qAd\\{cA_vBkiBzrAqqA~mC|d@}l@qdGd|BuzC","polyline":"{}gaBcwjnS_sBaxCnn@ynAkZafB~qDurDayA{EdMmn@~fBsSn_@{_Ay^qi@n|@cx@rnBf~AnNsgBlqAq~@|Qte@vvBoi@xlBdWzg@gi@~pBrd@~nCcuCd}CoS{fA_oAs^ytB|b@_}Bu{@}hAhcAyx@bLwxAjjA}H}Wy|Chj@gItl@llAx}AefA`pCfEn~Dk|@ePmy@x}@rLuJemE|sE{qAd\\{cA_vBkiBzrAqqA~mC|d@}l@qdGd|BuzC","url":"/motorcycle-roads/vietnam/vietnam/ride/ho-chi-minh-train-between-hoi-an-and-hue"},{"slat":"21.0989","slon":"105.407","elat":"21.065","elon":"105.361","road_type_name":"Mountainous","road_type_id":"4","length":"12","title":"Ba Vi National Park","rating":"4","comments_count":"1","is_long":"0","simplified_polyline":"}zw_CkgjbSl|CboHrNuj@xe@lU","polyline":"}zw_CkgjbSl|CboHrNuj@xe@lU","url":"/motorcycle-roads/vietnam/vietnam/ride/ba-vi-national-park"},{"slat":"21.1403","slon":"105.487","elat":"20.9985","elon":"105.523","road_type_name":"Rural","road_type_id":"1","length":"17","title":"QL21 : Thach That","rating":"4","comments_count":"1","is_long":"0","simplified_polyline":"y}_`Cw{ybS~bJwdBdlCza@dsEcgCdpD}T","polyline":"y}_`Cw{ybS~bJwdBdlCza@dsEcgCdpD}T","url":"/motorcycle-roads/vietnam/vietnam/ride/ql21-thach-that"},{"slat":"21.1962","slon":"105.446","elat":"21.1269","elon":"105.587","road_type_name":"Rural","road_type_id":"1","length":"19","title":"Le Loi","rating":"4","comments_count":"1","is_long":"0","simplified_polyline":"o{j`CwzqbStpFeeFjoAybIuY{}@`hCgkG","polyline":"o{j`CwzqbStpFeeFjoAybIuY{}@`hCgkG","url":"/motorcycle-roads/vietnam/vietnam/ride/le-loi"},{"slat":"21.1354","slon":"105.634","elat":"21.134","elon":"105.684","road_type_name":"Rural","road_type_id":"1","length":"7","title":"Bac Ha","rating":"4","comments_count":"1","is_long":"0","simplified_polyline":"k__`CstvcSs@usApvAu`CglAcaB","polyline":"k__`CstvcSs@usApvAu`CglAcaB","url":"/motorcycle-roads/vietnam/vietnam/ride/bac-ha"},{"slat":"13.5778","slon":"109.206","elat":"13.4686","elon":"109.228","road_type_name":"Rural","road_type_id":"1","length":"19","title":"Hoa Hiep","rating":"4","comments_count":"1","is_long":"0","simplified_polyline":"e|zqAcipySnu@yyBkLwnBv_BrKtl@uz@xvC`i@tjCe[hcCfaCtjAsB","polyline":"e|zqAcipySnu@yyBkLwnBv_BrKtl@uz@xvC`i@tjCe[hcCfaCtjAsB","url":"/motorcycle-roads/vietnam/vietnam/ride/hoa-hiep"},{"slat":"12.9163","slon":"109.365","elat":"12.823","elon":"109.356","road_type_name":"Mountainous","road_type_id":"4","length":"18","title":"Dong Ha","rating":"3","comments_count":"1","is_long":"0","simplified_polyline":"evymAulozSztA{gB|_Cyq@uOe[p{Csi@z}AlkApk@|_DpxAfn@","polyline":"evymAulozSztA{gB|_Cyq@uOe[p{Csi@z}AlkApk@|_DpxAfn@","url":"/motorcycle-roads/vietnam/vietnam/ride/dong-ha"},{"slat":"12.3327","slon":"109.207","elat":"12.2955","elon":"109.224","road_type_name":"Coastal","road_type_id":"2","length":"8","title":"Derong De","rating":"4","comments_count":"1","is_long":"0","simplified_polyline":"kvgjAilpySbfAyNlDmfAl}Am~Az{@jKtAr_A","polyline":"kvgjAilpySbfAyNlDmfAl}Am~Az{@jKtAr_A","url":"/motorcycle-roads/vietnam/vietnam/ride/derong-de"},{"slat":"16.2906","slon":"107.815","elat":"16.2731","elon":"107.925","road_type_name":"Mountainous","road_type_id":"4","length":"15","title":"Phu Loc","rating":"4","comments_count":"2","is_long":"0","simplified_polyline":"sxlbBkt`qSjKsjFbvAijAde@yrCmjA}sBvn@uoB","polyline":"sxlbBkt`qSjKsjFbvAijAde@yrCmjA}sBvn@uoB","url":"/motorcycle-roads/vietnam/vietnam/ride/phu-loc"},{"slat":"16.2697","slon":"108.026","elat":"16.257","elon":"108.064","road_type_name":"Mountainous","road_type_id":"4","length":"6","title":"Phu Gia : Short Section After Hai Van Pass","rating":"3","comments_count":"3","is_long":"0","simplified_polyline":"}uhbByxirSzoAekF","polyline":"}uhbByxirSzoAekF","url":"/motorcycle-roads/vietnam/vietnam/ride/phu-gia-short-section-after-hai-van-pass"},{"slat":"16.2232","slon":"108.093","elat":"16.1439","elon":"108.123","road_type_name":"Mountainous","road_type_id":"4","length":"19","title":"Hai Van Pass / QL1A","rating":"5","comments_count":"2","is_long":"0","simplified_polyline":"qq_bBozvrSdmF}qGtqBzbAtaCifA~JfuA","polyline":"qq_bBozvrSdmF}qGtqBzbAtaCifA~JfuA","url":"/motorcycle-roads/vietnam/vietnam/ride/hai-van-pass-ql1a"}]